~Version ---------------------------------------------------
VERS. 2.0 : CWLS log ASCII Standard -VERSION 2.0
WRAP. YES : MULTIPLE LINES PER DEPTH STEP
~Well ------------------------------------------------------
STRT.FT                 1150.0 : START DEPTH
STOP.FT                 8650.0 : STOP DEPTH
STEP.FT               50.00000 : STEP LENGTH
NULL.                  -999.25 : NULL VALUE
COMP. FLAG-REDFERN OIL COMPANY : COMPANY
WELL.          WILCO SUPPLY #1 : WELL
FLD .                 GIDDINGS : FIELD
LOC .                          : LOCATION
CNTY.                      LEE : COUNTY
STAT.                    TEXAS : STATE
CTRY. UNITED STATES OF AMERICA : COUNTRY
SRVC.             Schlumberger : SERVICE COMPANY
DATE.              22-Jun-1982 : LOGDATE
API .           42287312020000 : API NUMBER
UWI .           42287312020000 : UNIQUE WELL ID
SLAT.WGS84           30.100566 : SURFACE LATITUDE
SLON.WGS84          -96.965706 : SURFACE LONGITUDE
~Curve Information -----------------------------------------
DEPT    .FT    : DEPTH FEET
CALWS   .IN    : CALIPER [DCALED+BITED]
CONDWS  .MMHO  : CONDUCTIVITY [1000/DRESWS]
DCALED  .IN    : DIFFERENTIAL CALIPER FROM DENSITY LOG
DCORWS  .G/C3  : DENSITY CORRECTION [DRHOED]
DENWS   .G/C3  : BULK DENSITY [M=2.71 F=1.0] [CALCULATED FROM DPOWS]
DPHILSED.V/V   : DENSITY POROSITY [M=2.71 F=1.0] FROM DENSITY LOG
DPHISSED.V/V   : DENSITY POROSITY [M=2.65 F=1.0] FROM DENSITY LOG
DPOLSWS .V/V   : DENSITY POROSITY [M=2.71 F=1.0] [1121 DPOLSCAL 7198 DPHILSED]
DRESWS  .OHMM  : DEEP RESISTIVITY [ILDED]
DRHOED  .G/C3  : DENSITY CORRECTION FROM DENSITY LOG
GRRED   .GAPI  : GAMMA RAY FROM RESISTIVITY LOG
GRWS    .GAPI  : GAMMA RAY [GRRED]
ILDED   .OHMM  : INDUCTION LOG DEEP RESISTIVITY
ILMED   .OHMM  : INDUCTION LOG MEDIUM RESISTIVITY
MRESWS  .OHMM  : MEDIUM RESISTIVITY [ILMED]
NPHILSED.V/V   : NEUTRON POROSITY LIMESTONE FROM DENSITY LOG
NPHISSED.V/V   : NEUTRON POROSITY SANDSTONE FROM DENSITY LOG
NPOLSWS .V/V   : NEUTRON POROSITY LIMESTONE [1121 NPOLSCAL 7198 NPHILSED] [NPHISSED WAS CONVERTED TO NPOLSCAL USING POWERLOG MODULE]
SFLUED  .OHMM  : SPHERICALLY FOCUSED LOG RESISTIVITY
SPRED   .MV    : SPONTANEOUS POTENTIAL FROM RESISTIVITY LOG [SHIFTS ARE REMOVED]
SPWS    .MV    : SPONTANEOUS POTENTIAL [BASELINE 0 MV] [SPRED][POSITIVE VALUES, PL. USE W/ RESERVATIONS]
SRESWS  .OHMM  : SHALLOW RESISTIVITY [SFLUED]
~Params ----------------------------------------------------
PD  .                     GL : PERMANENT DATUM
EPD .FT                  478 : ELEVATION PERMANENT DATUM
LMF .                     KB : LOG MEASURED FROM
DAPD.FT                   17 : FEET ABOVE PERMANENT DATUM
DMF .                     KB : DRILLING MEASURED FROM
EKB .FT                  495 : KELLY BUSHING
EDF .FT                  494 : DRILLING FLOOR
EGL .FT                  478 : GROUND LEVEL
DATE.               06/22/82 : RUN DATE
RUN .                      2 : RUN NUMBER
DD  .FT                 8700 : DEPTH DRILLER
DL  .FT                 8700 : DEPTH LOGGER
BLI .FT                 8694 : BOTTOM LOG INTERVAL
TLI .FT                 7748 : TOP LOG INTERVAL
CS  .IN                    7 : CASING SIZE
CBD .FT                 7749 : CASING BOTTOM DRILLER
CBL .FT                 7748 : CASING BOTTOM LOGGER
BS  .IN                6.125 : BIT SIZE
BSD .FT                 8700 : BIT SIZE AT DEPTH
DFT .         LIGNOSULFONATE : DRILLING FLUID TYPE
DFD .                    9.9 : DRILLING FLUID DENSITY
DFV .                     41 : DRILLING FLUID VISCOSITY
DFPH.                     11 : DRILLING FLUID PH
DFL .                    5.2 : DRILLING FLUID LOSS
MSS .                   TANK : MUD SAMPLE SOURCE
RMS .OHMM               1.05 : RESISTIVITY MUD SAMPLE
MST .DEGF                107 : MUD SAMPLE TEMPERATURE
RMF .OHMM               0.77 : RESISTIVITY MUD FILTRATE SAMPLE
MFST.DEGF                107 : MUD FILTRATE SAMPLE TEMPERATURE
RMC .OHMM               1.54 : RESISTIVITY MUD CAKE
MCST.DEGF                107 : MUD CAKE SAMPLE TEMPERATURE
MFSS.                   MEAS : MUD FILTRATE SAMPLE SOURCE
MCSS.                   CALC : MUD CAKE SAMPLE SOURCE
RMB .OHMM              0.598 : RESISTIVITY MUD AT BHT
TCS .HRS                 700 : TIME CIRCULATED STOPPED
TLAB.HRS                1130 : TIME LOGGER AT BOTTOM
LUN .                   8096 : LOGGING UNIT NUMBER
LUL .                BRENHAM : LOGGING UNIT LOCATION
ENGI.                   HALL : RECORDING ENGINEER
WITN.                 PARKER : WITNESSED BY
CLNT.                A2DTECH : CLIENT CODE
ORIG.            2" 5" PRINT : ORIGIN OF DATA
UWI .         42287312020000 : UNIQUE WELL ID
DICO. A2D Technologies, Inc. : DIGITIZING COMPANY
~Other -----------------------------------------------------
~ASCII -----------------------------------------------------
 1150.00000   10.23890   73.27620    1.48890    -999.25    -999.25    -999.25    -999.25    -999.25   13.64700    -999.25    -999.25    -999.25   13.64700   12.49450   12.49450    -999.25    -999.25    -999.25   10.99610   -7.31860   -9.82810   10.99610
 1200.00000   13.90670  364.39170    5.15670    -999.25    -999.25    -999.25    -999.25    -999.25    2.74430    -999.25    -999.25    -999.25    2.74430    2.56200    2.56200    -999.25    -999.25    -999.25    2.75660   -1.42190   -2.10120    2.75660
 1250.00000   11.41060   76.33760    2.66060    -999.25    -999.25    -999.25    -999.25    -999.25   13.09970    -999.25    -999.25    -999.25   13.09970   11.79360   11.79360    -999.25    -999.25    -999.25   10.29380   -2.82710   -2.38990   10.29380
 1300.00000   11.14780  212.04860    2.39780    -999.25    -999.25    -999.25    -999.25    -999.25    4.71590    -999.25    -999.25    -999.25    4.71590    3.89490    3.89490    -999.25    -999.25    -999.25    3.11480   -8.71340   -8.27620    3.11480
 1350.00000   11.64780   68.11010    2.89780    -999.25    -999.25    -999.25    -999.25    -999.25   14.68210    -999.25    -999.25    -999.25   14.68210   12.26900   12.26900    -999.25    -999.25    -999.25   10.62900   -3.77530   -3.33810   10.62900
 1400.00000   10.17390  115.46940    1.42390    -999.25    -999.25    -999.25    -999.25    -999.25    8.66030    -999.25    -999.25    -999.25    8.66030    6.75460    6.75460    -999.25    -999.25    -999.25    5.64120   -7.11410   -6.67690    5.64120
 1450.00000   11.53390  331.44410    2.78390    -999.25    -999.25    -999.25    -999.25    -999.25    3.01710    -999.25    -999.25    -999.25    3.01710    2.80120    2.80120    -999.25    -999.25    -999.25    2.80150   -6.22030   -5.78310    2.80150
 1500.00000   11.08800  330.51300    2.33800    -999.25    -999.25    -999.25    -999.25    -999.25    3.02560    -999.25    -999.25    -999.25    3.02560    2.81410    2.81410    -999.25    -999.25    -999.25    2.97450   -4.07480   -3.63760    2.97450
 1550.00000    9.68330  120.04660    0.93330    0.03190    2.10470    -999.25    0.33050    0.35400    8.33010    0.03190   52.27940   52.27940    8.33010    6.63600    6.63600    -999.25    0.49760    0.45590    5.78020  -10.57400  -10.13680    5.78020
 1600.00000   10.60770  266.26190    1.85770    0.06770    2.23570    -999.25    0.25110    0.27740    3.75570    0.06770   62.95100   62.95100    3.75570    3.39070    3.39070    -999.25    0.52030    0.47860    3.40470   -5.61900   -5.18180    3.40470
 1650.00000   10.47030  544.98880    1.72030    0.09060    2.08690    -999.25    0.34130    0.36440    1.83490    0.09060   72.52810   72.52810    1.83490    1.68710    1.68710    -999.25    0.53140    0.48970    2.35870   -4.95480   -4.51760    2.35870
 1700.00000   11.40130  410.74510    2.65130    0.07090    2.06950    -999.25    0.35180    0.37450    2.43460    0.07090   67.70840   67.70840    2.43460    2.26030    2.26030    -999.25    0.51930    0.47760    2.44310   -3.43180   -2.99460    2.44310
 1750.00000    9.18900  169.99570    0.43900    0.07420    2.05120    -999.25    0.36290    0.38530    5.88250    0.07420   58.64260   58.64260    5.88250    5.32390    5.32390    -999.25    0.52400    0.48230    5.57450   -9.45460   -9.01740    5.57450
 1800.00000    9.71100  126.38230    0.96100    0.04730    2.05960    -999.25    0.35780    0.38030    7.91250    0.04730   50.50860   50.50860    7.91250    7.38790    7.38790    -999.25    0.42310    0.38070    7.12130  -12.16640  -11.78510    7.12130
 1850.00000    9.66230  155.98680    0.91230    0.04300    2.13730    -999.25    0.31070    0.33490    6.41080    0.04300   64.13130   64.13130    6.41080    5.78410    5.78410    -999.25    0.49000    0.44830    5.56530   -9.36160   -9.04840    5.56530
 1900.00000   11.22190   81.81570    2.47190    0.08580    2.11520    -999.25    0.32410    0.34780   12.22260    0.08580   53.21820   53.21820   12.22260   11.05820   11.05820    -999.25    0.42750    0.38520   10.09850  -15.27890  -15.03390   10.09850
 1950.00000   10.17170  104.56860    1.42170    0.03620    2.27260    -999.25    0.22870    0.25580    9.56310    0.03620   53.83690   53.83690    9.56310    7.46850    7.46850    -999.25    0.44900    0.40730    7.45160  -14.34430  -14.16740    7.45160
 2000.00000   10.30680  149.28720    1.55680    0.09390    2.23210    -999.25    0.25330    0.27950    6.69850    0.09390   79.96710   79.96710    6.69850    5.98250    5.98250    -999.25    0.42900    0.38680    6.05370  -16.15920  -16.05050    6.05370
 2050.00000   10.32430  108.90990    1.57430    0.04680    2.19390    -999.25    0.27640    0.30180    9.18190    0.04680   75.68830   75.68830    9.18190    7.97010    7.97010    -999.25    0.42520    0.38290    7.24200  -15.11830  -15.07770    7.24200
 2100.00000   11.90100  233.23070    3.15100    0.04540    2.16970    -999.25    0.29110    0.31600    4.28760    0.04540   67.61770   67.61770    4.28760    3.78220    3.78220    -999.25    0.43030    0.38810    5.15760  -12.96740  -12.99490    5.15760
 2150.00000   13.77530   37.10950    5.02530    0.02450    2.05480    -999.25    0.36070    0.38310   26.94730    0.02450   48.95950   48.95950   26.94730   16.99690   16.99690    -999.25    0.39100    0.34800   16.32340   -3.76750   -3.86320   16.32340
 2200.00000   13.82130   30.16850    5.07130    0.04620    2.13040    -999.25    0.31490    0.33890   33.14720    0.04620   34.34710   34.34710   33.14720   16.79130   16.79130    -999.25    0.33550    0.29170   18.21640   -0.83790   -1.44210   18.21640
 2250.00000   16.12130   33.35480    7.37130    0.03070    2.07960    -999.25    0.34570    0.36870   29.98070    0.03070   27.86530   27.86530   29.98070   19.21610   19.21610    -999.25    0.33440    0.29060   17.83630    9.04160    7.81880   17.83630
 2300.00000    9.99260   80.99590    1.24260    0.03510    2.10140    -999.25    0.33250    0.35590   12.34630    0.03510   57.94220   57.94220   12.34630   10.37360   10.37360    -999.25    0.40750    0.36480   10.16560   -8.24980  -10.09120   10.16560
 2350.00000   10.57930  130.64210    1.82930    0.08600    2.23160    -999.25    0.25360    0.27980    7.65450    0.08600   69.63970   69.63970    7.65450    6.60410    6.60410    -999.25    0.40240    0.35960    8.24790   -8.02550  -10.48550    8.24790
 2400.00000   10.51340  207.11650    1.76340    0.06480    2.20140    -999.25    0.27190    0.29740    4.82820    0.06480   86.76990   86.76990    4.82820    4.38380    4.38380    -999.25    0.44780    0.40610    4.29100  -10.46850  -13.54720    4.29100
 2450.00000   10.19070  156.98830    1.44070    0.07210    2.12990    -999.25    0.31520    0.33920    6.36990    0.07210   55.57700   55.57700    6.36990    6.21880    6.21880    -999.25    0.42170    0.37930    7.73900   -5.53130   -8.67400    7.73900
 2500.00000    9.34880  111.89940    0.59880    0.02450    2.09410    -999.25    0.33690    0.36020    8.93660    0.02450   72.14260   72.14260    8.93660    8.51700    8.51700    -999.25    0.41740    0.37490    7.75480  -11.95120  -14.60340    7.75480
 2550.00000    9.70960  179.86580    0.95960    0.02690    2.16160    -999.25    0.29600    0.32070    5.55970    0.02690   71.30280   71.30280    5.55970    5.24560    5.24560    -999.25    0.42060    0.37820    5.26180  -14.55830  -16.72000    5.26180
 2600.00000    9.34460  225.53510    0.59460    0.03120    2.19430    -999.25    0.27620    0.30160    4.43390    0.03120   79.06310   79.06310    4.43390    4.30100    4.30100    -999.25    0.43080    0.38860    3.99230  -10.19910  -11.87020    3.99230
 2650.00000    9.87110  303.83130    1.12110    0.10230    2.28120    -999.25    0.22350    0.25070    3.29130    0.10230   90.04120   90.04120    3.29130    3.19710    3.19710    -999.25    0.47710    0.43540    3.08580   -3.91760   -5.09820    3.08580
 2700.00000   10.08000  296.83280    1.33000    0.08790    2.24540    -999.25    0.24520    0.27170    3.36890    0.08790   85.95400   85.95400    3.36890    2.91340    2.91340    -999.25    0.48020    0.43850    2.66950   -1.93170   -2.62180    2.66950
