~Version ---------------------------------------------------
VERS. 2.0 : CWLS log ASCII Standard -VERSION 2.0
WRAP. YES : Multiple lines per depth step
~Well ------------------------------------------------------
STRT.FT                          550.0 : START DEPTH
STOP.FT                         6150.0 : STOP DEPTH
STEP.FT                       50.00000 : STEP LENGTH
NULL.                          -999.25 : NULL VALUE
COMP.      UNITED PRODUCTION CO., INC. : COMPANY
WELL.                  GUY S. COMBS #3 : WELL
FLD .                          WILDCAT : FIELD
LOC .                                  : LOCATION
CNTY.                         ATASCOSA : COUNTY
STAT.                            TEXAS : STATE
CTRY.         UNITED STATES OF AMERICA : COUNTRY
SRVC. Schlumberger Well Surveying Corp : SERVICE COMPANY
DATE.                      08-Apr-1975 : LOGDATE
API .                   42013302760000 : API NUMBER
UWI .                   42013302760000 : UNIQUE WELL ID
SLAT.WGS84               28.9948086495 : SURFACE LATITUDE
SLON.WGS84              -98.4227720769 : SURFACE LONGITUDE
~Curve Information -----------------------------------------
DEPT    .FT    : DEPTH
CALDED  .IN    : CALIPER FROM DENSITY LOG (ADJ TO RES.)
CALWS   .IN    : CALIPER (CALDED)
CONDWS  .MMHO  : CONDUCTIVITY (1000/DRESWS)
CORRED  .G/C3  : DENSITY CORRECTION (ADJ TO RES.)
DCORWS  .G/C3  : DENSITY CORRECTION (CORRED)
DENWS   .G/C3  : BULK DENSITY  (RHOBED)
DPHILSED.V/V   : DENSITY POROSITY LIMESTONE  (ADJ TO RES.)
DPHISSED.V/V   : DENSITY POROSITY SANDSTONE  (ADJ TO RES.)
DPOWS   .V/V   : DENSITY POROSITY (M=2.71 F=1 FROM DENWS)
DRESWS  .OHMM  : DEEP RESISTIVITY (ILDED)
GRDED   .GAPI  : GAMMA RAY FROM DENSITY LOG (ADJ TO RES.)
GRWS    .GAPI  : GAMMA RAY (GRDED)
ILDED   .OHMM  : DEEP INDUCTION RESISTIVITY
ILMED   .OHMM  : MEDIUM INDUCTION RESISTIVITY
LL8ED   .OHMM  : LATEROLOG-8 RESISTIVITY
MRESWS  .OHMM  : MEDIUM RESISTIVITY (ILMED)
NPHILSED.V/V   : NEUTRON POROSITY LIMESTONE (ADJ TO RES.)
NPHISSED.V/V   : NEUTRON POROSITY SANDSTONE (ADJ TO RES.)
NPOWS   .V/V   : NEUTRON POROSITY LIMESTONE (NPHISSED CONVERTED TO LIMESTONE/NPHILSED)
RHOBED  .G/C3  : BULK DENSITY (ADJ TO RES.)
SPRED   .MV    : SPONTANEOUS POTENTIAL FROM RESISTIVITY
SPWS    .MV    : SPONTANEOUS POTENTIAL BASELINE 0 MV (SPRED)
SRESWS  .OHMM  : SHALLOW RESISTIVITY (LL8ED)
~Params ----------------------------------------------------
PD  .                     GL : PERMANENT DATUM
EPD .FT                  428 : ELEVATION PERMANENT DATUM
LMF .                     KB : LOG MEASURED FROM
DAPD.FT                   14 : FEET ABOVE PERMANENT DATUM
DMF .                     KB : DRILLING MEASURED FROM
EKB .FT                  442 : KELLY BUSHING
EDF .FT                  441 : DRILLING FLOOR
EGL .FT                  428 : GROUND LEVEL
DATE.             04/08/1975 : RUN DATE
RUN .                      1 : RUN NUMBER
DD  .FT                 6175 : DEPTH DRILLER
DL  .FT                 6168 : DEPTH LOGGER
BLI .FT                 6162 : BOTTOM LOG INTERVAL
TLI .FT                  537 : TOP LOG INTERVAL
CS  .IN                8.625 : CASING SIZE
CBD .FT                  536 : CASING BOTTOM DRILLER
CBL .FT                  537 : CASING BOTTOM LOGGER
BS  .IN                7.875 : BIT SIZE
BSD .FT                 6175 : BIT SIZE AT DEPTH
DFT .               SPER TAN : DRILLING FLUID TYPE
DFD .                   10.1 : DRILLING FLUID DENSITY
DFV .                     60 : DRILLING FLUID VISCOSITY
DFPH.                    9.5 : DRILLING FLUID PH
DFL .                    6.2 : DRILLING FLUID LOSS
MSS .               FLOWLINE : MUD SAMPLE SOURCE
RMS .OHMM               1.99 : RESISTIVITY MUD SAMPLE
MST .DEGF                 75 : MUD SAMPLE TEMPERATURE
RMF .OHMM               1.73 : RESISTIVITY MUD FILTRATE SAMPLE
MFST.DEGF                 75 : MUD FILTRATE SAMPLE TEMPERATURE
RMC .OHMM               1.78 : RESISTIVITY MUD CAKE
MCST.DEGF                 75 : MUD CAKE SAMPLE TEMPERATURE
MFSS.                      M : MUD FILTRATE SAMPLE SOURCE
MCSS.                      C : MUD CAKE SAMPLE SOURCE
RMB .OHMM               0.99 : RESISTIVITY MUD AT BHT
TCS .HRS                   3 : TIME CIRCULATED STOPPED
LUN .                   7676 : LOGGING UNIT NUMBER
LUL .                  PLEAS : LOGGING UNIT LOCATION
ENGI.                 ROGERS : RECORDING ENGINEER
WITN.               WILLIAMS : WITNESSED BY
CLNT.                A2DTECH : CLIENT CODE
ORIG.            2" 5" PRINT : ORIGIN OF DATA
UWI .         42013302760000 : UNIQUE WELL ID
DICO. A2D Technologies, Inc. : DIGITIZING COMPANY
~Other -----------------------------------------------------
~ASCII -----------------------------------------------------
# ...
 5200.00000   14.27130   14.27130  990.00100    0.18710    0.18710    2.18060    -999.25    0.28770    0.30960    1.01010   82.78790   82.78790    1.01010    1.03030    1.56520    1.03030    -999.25    0.48340    0.49840    2.18060  -21.88200   -1.37920    1.56520
 5250.00000   13.07260   13.07260  621.15660    0.15970    0.15970    2.06280    -999.25    0.35120    0.37850    1.60990   78.56230   78.56230    1.60990    1.64990    2.12550    1.64990    -999.25    0.45840    0.47340    2.06280  -27.62970   -6.87680    2.12550
 5300.00000   13.00350   13.00350  672.85690    0.10630    0.10630    2.22230    -999.25    0.26010    0.28520    1.48620   86.26970   86.26970    1.48620    1.51600    2.11690    1.51600    -999.25    0.35630    0.39810    2.22230  -31.96470  -10.96170    2.11690
 5350.00000   11.77500   11.77500  774.89340    0.11090    0.11090    2.28740    -999.25    0.22190    0.24710    1.29050   93.28250   93.28250    1.29050    1.31690    1.82790    1.31690    -999.25    0.37460    0.41160    2.28740  -27.35900   -6.10590    1.82790
 5400.00000   11.97610   11.97610  510.23010    0.21040    0.21040    2.40220    -999.25    0.16070    0.18000    1.95990   82.35960   82.35960    1.95990    1.99360    2.63690    1.99360    -999.25    0.32080    0.37110    2.40220  -29.88580   -8.38250    2.63690
 5450.00000   12.65950   12.65950  592.87370    0.19640    0.19640    2.32000    -999.25    0.19610    0.22810    1.68670   88.40250   88.40250    1.68670    1.75030    2.22740    1.75030    -999.25    0.34360    0.38850    2.32000  -32.47940  -10.72600    2.22740
 5500.00000   11.57190   11.57190  475.03680    0.12200    0.12200    2.43160    -999.25    0.14400    0.16280    2.10510   93.44920   93.44920    2.10510    2.16620    2.77570    2.16620    -999.25    0.33050    0.37860    2.43160  -33.56700  -11.56350    2.77570
 5550.00000    9.69480    9.69480  331.51000   -0.00050   -0.00050    2.49910    -999.25    0.08530    0.12330    3.01650   81.46260   81.46260    3.01650    3.20920    4.14180    3.20920    -999.25    0.23870    0.30470    2.49910  -30.20670   -7.95310    4.14180
 5600.00000   10.41060   10.41060  388.21380    0.02340    0.02340    2.52910    0.11880    -999.25    0.10580    2.57590   60.92610   60.92610    2.57590    2.65450    3.65050    2.65450    0.21610    -999.25    0.21610    2.52910  -29.19540   -6.69160    3.65050
 5650.00000    9.88010    9.88010  266.78760   -0.00470   -0.00470    2.56860    0.08900    -999.25    0.08270    3.74830   64.71950   64.71950    3.74830    3.94930    6.00920    3.94930    0.13710    -999.25    0.13710    2.56860  -30.42180   -7.66790    6.00920
 5700.00000   10.21410   10.21410  231.82490    0.01340    0.01340    2.61280    0.06610    -999.25    0.05680    4.31360   48.95590   48.95590    4.31360    4.44640    5.90620    4.44640    0.12290    -999.25    0.12290    2.61280  -28.34830   -5.34430    5.90620
 5750.00000   11.22350   11.22350  305.76360   -0.00070   -0.00070    2.57130    0.07980    -999.25    0.08110    3.27050   54.64940   54.64940    3.27050    3.37510    4.97480    3.37510    0.17830    -999.25    0.17830    2.57130  -26.60000   -3.34590    4.97480
 5800.00000   11.04400   11.04400  289.07580    0.01320    0.01320    2.58450    0.07410    -999.25    0.07340    3.45930   50.67890   50.67890    3.45930    3.56010    4.59990    3.56010    0.16740    -999.25    0.16740    2.58450  -28.10590   -4.60160    4.59990
 5850.00000    9.64070    9.64070  210.53070   -0.00660   -0.00660    2.56720    0.08190    -999.25    0.08350    4.74990   36.68940   36.68940    4.74990    4.93220    6.44160    4.93220    0.13270    -999.25    0.13270    2.56720  -38.27110  -14.51670    6.44160
 5900.00000    9.22770    9.22770   47.80370    0.00850    0.00850    2.54470    0.10700    -999.25    0.09670   20.91890   55.71270   55.71270   20.91890   22.73420   32.73850   22.73420    0.25780    -999.25    0.25780    2.54470  -39.04030  -15.03580   32.73850
 5950.00000    8.83490    8.83490  102.04910    0.00030    0.00030    2.61650    0.05570    -999.25    0.05470    9.79920   25.06750   25.06750    9.79920   10.50700   16.40950   10.50700    0.23480    -999.25    0.23480    2.61650  -36.10070  -11.84610   16.40950
 6000.00000    8.59570    8.59570   63.74500    0.03890    0.03890    2.59130    0.07950    -999.25    0.06940   15.68750   35.82770   35.82770   15.68750   14.86130   17.50550   14.86130    0.07790    -999.25    0.07790    2.59130  -43.29050  -18.78570   17.50550
 6050.00000    8.91550    8.91550  151.81190    0.01540    0.01540    2.49210    0.13460    -999.25    0.12740    6.58710  104.87860  104.87860    6.58710    6.90550   11.28840    6.90550    0.24930    -999.25    0.24930    2.49210  -25.52850   -0.77360   11.28840
 6100.00000    8.25330    8.25330   49.74580    0.02580    0.02580    2.69260    0.02300    -999.25    0.01020   20.10220   14.89910   14.89910   20.10220   18.13940   70.77480   18.13940    0.02940    -999.25    0.02940    2.69260  -76.57710  -51.57710   70.77480
 6150.00000    8.05410    8.05410   19.04490    0.04930    0.04930    2.73820   -0.00340    -999.25   -0.01650   52.50750   22.44770   22.44770   52.50750   55.74030   62.65980   55.74030    0.01150    -999.25    0.01150    2.73820  -63.68510  -38.68510   62.65980
