~Version ---------------------------------------------------
VERS. 2.0 : CWLS log ASCII Standard -VERSION 2.0
WRAP.  NO : ONE LINE PER DEPTH STEP
~Well ------------------------------------------------------
STRT.F                    2300.0 : START DEPTH
STOP.F                   10750.0 : STOP DEPTH
STEP.F                  50.00000 : STEP LENGTH
NULL.                    -999.25 : NULL VALUE
COMP.  CLAYTON W WILLIAMS JR INC : COMPANY
WELL. WINTERSHALL-PETERS UNIT #1 : WELL
FLD .                   GIDDINGS : FIELD
LOC .                            : LOCATION
CNTY.                     BRAZOS : COUNTY
STAT.                      TEXAS : STATE
CTRY.   UNITED STATES OF AMERICA : COUNTRY
SRVC.                            : SERVICE COMPANY
DATE.                            : LOGDATE
API .             42041315490000 : API NUMBER
UWI .             42041315490000 : UNIQUE WELL ID
SLAT.WGS84         30.6777769181 : SURFACE LATITUDE
SLON.WGS84        -96.2263773944 : SURFACE LONGITUDE
~Curve Information -----------------------------------------
DEPT.F                 : 
TENR.LBS  07 635 01 00 : TENSION FROM RESISTIVITY
SPR .MV   07 010 01 00 : SPONTANEOUS POTENTIAL
DCAL.IN   07 280 30 00 : DIFFERENTIAL CALIPER
IDPH.OHMM 07 120 46 00 : INDUCTION DEEP PHASOR RES
IMPH.OHMM 07 120 44 00 : INDUCTION MEDIUM PHASOR RES.
SFLU.OHMM 07 220 01 00 : SPHERICALLY FOCUSED LOG UNAVERAGED RESISTIVITY
DPHI.DEC  45 890 10 00 : DENSITY POROSITY LIMESTONE
NPHI.DEC  42 890 01 00 : NEUTRON POROSITY LIMESTONE
GRR .GAPI 07 310 01 00 : GAMMA RAY FROM RESISTIVITY
DRHO.G/C3 45 356 01 00 : DENSITY CORRECTION
~Params ----------------------------------------------------
EKB .F                 323.0 : KELLY BUSHING
EGL .F                   299 : ELEVATION GROUND LEVEL
EDF .                    322 : ELEVATION DERRICK FLOOR
EPD .                    299 : ELEVATION PERMANENT DATUM
TD  .F               10745.0 : TOTAL DEPTH
DATE.            16-DEC-1991 : DATE LOGGED
CLNT.                A2DTECH : CLIENT CODE
LMF .                    RKB : LOG MEASURED FROM
DMF .                    RKB : DRILLING MEASURED FROM
DAPD.F                    24 : FEET ABOVE PERMANENT DATUM
DD  .F                 10745 : DEPTH DRILLER
DL  .F                 10732 : DEPTH LOGGER
BLI .F                 10726 : BOTTOM LOG INTERVAL
TLI .F                  2352 : TOP LOG INTERVAL
CBD1.         10.75" @ 2350' : CASING DRILLER 1
CBL1.F                  2352 : CASING LOGGER 1
BS1 .IN                9.875 : BIT SIZE
BSD1.F                 10745 : DEPTH DRILLED WITH BIT1
DFT .       GEL/WATER/POLYAL : TYPE FLUID IN HOLE
DFD .                    9.6 : DENSITY
DFV .                     41 : VISCOSITY
DFPH.                    9.3 : PH
DFL .                      8 : FLUID LOSS
RMS .OHMM               2.67 : RM
RMF .OHMM               2.71 : RMF
RMC .OHMM               4.01 : RMC
TCS .HRS                1400 : TIME CIRC. STOPPED
TLAB.HRS                2130 : TIME LOGGER AT BOTTOM
LUN .                   2017 : LOGGING UNIT NUMBER
LUL .               VICTORIA : LOGGING UNIT LOCATION
ENGI.          WILKE/LOPUCKI : RECORDED BY
WITN.                PRATHER : WITNESSED BY
ORIG.               5" PRINT : ORIGIN OF DATA
UWI .         42041315490000 : UNIQUE WELL ID
DICO. A2D TECHNOLOGIES, INC. : DIGITIZING COMPANY
SL  .    775' FWL & 500' FEL : SURFACE LOCATION
PD  .                     GL : PERMANENT DATUM
CS1 .IN                10.75 : CASING SIZE
MSS .               MEASURED : SOURCE OF SAMPLE
MFSS.                   MEAS : SOURCE RMF.
MCSS.                   CALC : SOURCE RMC.
RMB .OHMM              1.026 : RM. AT BHT
BHT .F                   206 : BHT.
~Other -----------------------------------------------------
~ASCII -----------------------------------------------------
# ...
 5600.00000 2786.92500  -34.33500    0.87700    2.21000    2.32000    2.45200    0.15400    0.26900   79.87400    0.00500
 5650.00000 2708.12400  -34.58400    1.76500    2.17800    2.21500    2.23400    0.13500    0.31200   82.74000    0.01200
 5700.00000 2828.48510  -32.62200    1.98600    2.10400    2.11900    2.08000    0.14400    0.33200   83.89600    0.01000
 5750.00000 2792.48800  -29.53100    1.04300    2.15100    2.23000    2.24100    0.15500    0.25700   91.48600    0.03400
 5800.00000 2868.60600  -30.21800    0.80200    2.20900    2.25100    2.28800    0.14100    0.26700   85.28200    0.02000
 5850.00000 2915.57590  -28.78600    0.72300    2.09900    2.19900    2.15800    -999.25    -999.25   90.26800    -999.25
 5900.00000 2869.36010  -27.28000    0.97500    1.95000    2.03100    2.05900    -999.25    -999.25   83.17700    -999.25
 5950.00000 2934.82300  -28.52200    0.97800    2.23400    2.30300    2.45600    -999.25    -999.25   81.94000    -999.25
 6000.00000 2908.72610  -25.52400    1.56500    2.03700    2.09600    2.22000    -999.25    -999.25   82.52000    -999.25
 6050.00000 2948.84690  -23.65000    1.16300    1.92300    1.96600    2.06100    -999.25    -999.25   89.49900    -999.25
 6100.00000 2988.96700  -23.77800    0.73100    2.00500    2.02300    2.08400    -999.25    -999.25   96.42600    -999.25
 6150.00000 3012.42800  -29.37300    1.87800    1.96400    2.08800    2.13900    -999.25    -999.25   84.09000    -999.25
 6200.00000 3017.37400  -27.78500    3.04900    1.65100    1.71500    1.72900    -999.25    -999.25   82.75700    -999.25
 6250.00000 3053.19310  -23.77900    3.06700    1.49300    1.55900    1.68200    -999.25    -999.25   94.38300    -999.25
 6300.00000 3029.08690  -21.89500    2.07800    1.55300    1.51900    1.53400    -999.25    -999.25   96.73600    -999.25
 6350.00000 3029.08690  -24.45600    1.21800    2.04200    1.98700    2.09900    -999.25    -999.25   88.54800    -999.25
 6400.00000 3069.20800  -22.09900   -0.02500    2.19900    2.30800    2.36700    -999.25    -999.25   93.39300    -999.25
 6450.00000 3069.20800  -21.89500   -0.16100    2.20100    2.31100    2.50200    -999.25    -999.25   86.40900    -999.25
 6500.00000 3202.01610  -23.15200   -0.10300    1.96800    2.00300    2.12100    -999.25    -999.25  104.33800    -999.25
 6550.00000 3089.07500  -19.83300    0.75500    1.34300    1.37200    1.37400    -999.25    -999.25   93.05000    -999.25
 6600.00000 3069.20800  -20.13000    0.20100    2.13200    2.24000    2.11900    -999.25    -999.25   85.43800    -999.25
 6650.00000 3069.20800  -19.83000    0.16000    2.00500    2.04900    2.06900    -999.25    -999.25   84.92000    -999.25
 6700.00000 3130.69090  -18.06300    0.08000    1.50500    1.59100    1.72900    -999.25    -999.25   80.35700    -999.25
 6750.00000 3103.89700  -17.05600    0.41100    1.52800    1.64300    1.69400    -999.25    -999.25   94.28800    -999.25
 6800.00000 3123.56910  -18.98200    0.72200    1.47800    1.59100    1.65400    -999.25    -999.25   85.53300    -999.25
 6850.00000 3109.32790  -17.26300    1.52200    1.15500    1.23300    1.27200    -999.25    -999.25   89.66700    -999.25
 6900.00000 3115.89110  -18.10100    1.72500    1.60600    1.76100    2.09900    -999.25    -999.25   79.99500    -999.25
 6950.00000 3139.42700  -23.77400    2.61900    1.32300    1.41100    1.52300    -999.25    -999.25   93.89200    -999.25
 7000.00000 3189.56910  -24.25900    2.67800    1.27700    1.36000    1.48600    -999.25    -999.25   81.75500    -999.25
 7050.00000 3178.35210  -19.91400    1.81300    1.12000    1.15200    1.26100    -999.25    -999.25   89.31500    -999.25
 7100.00000 3189.56910  -19.38100    1.52500    1.33400    1.44100    1.47800    -999.25    -999.25   86.64100    -999.25
 7150.00000 3128.70000  -21.21600    2.13600    1.16200    1.21200    1.27700    -999.25    -999.25   85.63900    -999.25
 7200.00000 3125.33110  -21.06900    2.27000    1.22900    1.31500    1.40300    -999.25    -999.25   86.92900    -999.25
 7250.00000 3149.44800  -17.46000    1.28000    2.28600    2.49200    2.64500    -999.25    -999.25   72.10100    -999.25
 7300.00000 3269.80910  -14.23400    0.84100    3.57300    3.87400    3.91700    -999.25    -999.25   61.77400    -999.25
 7350.00000 3117.41090  -14.14900    0.40100    3.30500    3.63900    3.91200    -999.25    -999.25   61.25300    -999.25
 7400.00000 3189.56910  -13.67800    0.55200    1.89900    1.96800    2.02200    -999.25    -999.25   89.73400    -999.25
 7450.00000 3149.44800  -15.93700    0.75300    2.57400    2.73500    2.56400    -999.25    -999.25   69.96100    -999.25
 7500.00000 3189.56910  -15.37500    0.36100    2.34600    2.84800    3.56900    -999.25    -999.25   71.34200    -999.25
 7550.00000 3159.69410  -11.91300    0.46800    2.16400    2.19900    2.17400    -999.25    -999.25   98.92300    -999.25
 7600.00000 3201.06400  -19.63000    1.24400    2.84800    3.07500    3.08900    -999.25    -999.25   61.68100    -999.25
 7650.00000 3229.68900  -11.00600    2.52500    1.58000    1.66700    1.80700    -999.25    -999.25  115.84600    -999.25
 7700.00000 3157.01290   -9.56200    2.00800    1.68000    1.80200    1.83300    -999.25    -999.25   99.54000    -999.25
 7750.00000 3269.80910   -9.19400    1.57000    1.71200    1.85500    1.90300    -999.25    -999.25   93.42400    -999.25
 7800.00000 3218.77490   -8.23200    1.56500    1.73100    1.84500    1.87400    -999.25    -999.25   98.66600    -999.25
 7850.00000 3269.80910   -8.32400    2.24100    1.51900    1.60600    1.67200    -999.25    -999.25   90.98100    -999.25
 7900.00000 3229.68900   -8.35500    2.80400    1.56200    1.66600    1.73600    -999.25    -999.25   97.85200    -999.25
 7950.00000 3319.79590   -7.91900    2.76000    1.91400    1.98600    2.02300    -999.25    -999.25   96.62900    -999.25
 8000.00000 3356.46510   -7.11700    3.21000    1.74600    1.82900    1.93200    -999.25    -999.25   98.80700    -999.25
 8050.00000 3386.46090   -7.49400    3.57500    1.49600    1.60000    1.71300    -999.25    -999.25  101.46900    -999.25
 8100.00000 3383.72800   -6.10000    3.07900    1.51900    1.64200    1.76300    -999.25    -999.25  107.53200    -999.25
 8150.00000 3375.06200   -6.74200    1.90000    1.84500    2.03500    2.09500    -999.25    -999.25  102.82500    -999.25
 8200.00000 3390.17090   -6.55100    1.48400    2.01300    2.15800    2.24400    -999.25    -999.25   89.91700    -999.25
 8250.00000 3470.41090   -7.06200    1.52400    1.81000    1.95800    2.02300    -999.25    -999.25  123.71200    -999.25
 8300.00000 3458.35890   -8.15300    0.84500    1.95600    2.12200    2.32000    -999.25    -999.25  121.10400    -999.25
 8350.00000 3470.76900   -8.84100    0.04000    2.05800    2.11900    2.34000    -999.25    -999.25  106.79500    -999.25
 8400.00000 3532.46290   -8.71600    1.44500    2.22900    2.41900    2.58000    -999.25    -999.25   84.11000    -999.25
 8450.00000 3510.53200   -8.71200    3.01100    1.79400    1.96200    2.08800    -999.25    -999.25   92.70500    -999.25
 8500.00000 3550.65210   -7.69200    2.49800    2.36300    2.55600    2.84800    -999.25    -999.25   83.28900    -999.25
 8550.00000 3520.80000   -7.34300    1.63800    2.28400    2.45600    2.62000    -999.25    -999.25   82.99500    -999.25
 8600.00000 3550.65210   -8.39500    1.84800    2.08700    2.19900    2.31000    -999.25    -999.25   73.43200    -999.25
 8650.00000 3590.77200   -7.11500    0.80500    2.43400    2.60600    2.74400    -999.25    -999.25   83.31900    -999.25
 8700.00000 3525.63700   -6.78500    0.28300    4.77000    5.20000    5.33300    -999.25    -999.25   59.34700    -999.25
 8750.00000 3664.61010  -10.56000    1.11500    2.46300    2.69700    3.18200    -999.25    -999.25   79.80200    -999.25
 8800.00000 3510.53200   -7.45900    1.05300    2.38900    2.64500    3.09500    -999.25    -999.25   75.52100    -999.25
 8850.00000 3584.13310   -7.78200    1.21100    2.29800    2.48100    2.84700    -999.25    -999.25   77.01800    -999.25
