~Version ---------------------------------------------------
VERS. 2.0 : CWLS log ASCII Standard -VERSION 2.0
WRAP. YES : Multiple lines per depth step
~Well ------------------------------------------------------
STRT.FT                    1500.0 : START DEPTH
STOP.FT                    9700.0 : STOP DEPTH
STEP.FT                  50.00000 : STEP LENGTH
NULL.                     -999.25 : NULL VALUE
COMP.        MARATHON OIL COMPANY : COMPANY
WELL.                 NEWELL A #5 : WELL
FLD .                  BEAR GRASS : FIELD
LOC .                             : LOCATION
CNTY.                        LEON : COUNTY
STAT.                       TEXAS : STATE
CTRY.    UNITED STATES OF AMERICA : COUNTRY
SRVC. HALLIBURTON Sperry Drilling : SERVICE COMPANY
DATE.                 18-May-2000 : LOGDATE
API .              42289313250000 : API NUMBER
UWI .              42289313250000 : UNIQUE WELL ID
SLAT.WGS84          31.3623770117 : SURFACE LATITUDE
SLON.WGS84           -96.26513599 : SURFACE LONGITUDE
~Curve Information -----------------------------------------
DEPT    .FT    : DEPTH.FT
CALDED  .IN    : CALIPER FROM CNFD LOG
CALWS   .IN    : CALIPER [DCARLED+BIT SIZE]
CONDWS  .MMHO  : CONDUCTIVITY [1000/DRESWS]
DCALED  .IN    : DIFFERENTIAL CALIPER FROM HRIDN LOG
DCORED  .G/C3  : DENSITY CORRECTION FROM HRIDN LOG
DCORWS  .G/C3  : DENSITY CORRECTION [DCORED]
DENWS   .G/C3  : BULK DENSITY [M=2.71 F=1.0] [CALCULATED FROM DPOWS]
DFLED   .OHMM  : DIGITALLY FOCUSED LATEROLOG FROM HRIDN LOG
DPORLSED.V/V   : DENSITY POROSITY LIMESTONE FROM CNFD LOG
DPOWS   .V/V   : DENSITY POROSITY [M=2.71 F=1.0] [DPHILSED]
DRESWS  .OHMM  : DEEP RESISTIVITY [RILDED]
GRRED   .GAPI  : GAMMA RAY FROM IDN LOG
GRWS    .GAPI  : GAMMA RAY [GRRED]
MRESWS  .OHMM  : MEDIUM RESISTIVITY [RILMED]
NPORLSED.V/V   : NEUTRON POROSITY LIMESTONE FROM CNFD LOG
NPOWS   .V/V   : NEUTRON POROSITY LIMESTONE [NPHILSED]
RILDED  .OHMM  : INDUCTION DEEP RESISTIVITY FROM HRIDN LOG
RILMED  .OHMM  : INDUCTION MEDIUM RESISTIVITY FROM HRIDN LOG
SPRED   .MV    : SPONTANEOUS POTENTIAL FROM HRIDN LOG
SPWS    .MV    : SPONTANEOUS POTENTIAL [BASELINE 0 MV] [SPRED]
SRESWS  .OHMM  : SHALLOW RESISTIVITY [DFLED]
TENDED  .LBF   : TENSION FROM CNFD LOG
TENRED  .LBF   : TENSION FROM HRIDN LOG
~Params ----------------------------------------------------
PD  .                     GL : PERMANENT DATUM
EPD .FT                  501 : ELEVATION PERMANENT DATUM
LMF .                     KB : LOG MEASURED FROM
DAPD.FT                   12 : FEET ABOVE PERMANENT DATUM
DMF .                     KB : DRILLING MEASURED FROM
EKB .FT                  513 : KELLY BUSHING
EDF .FT                  512 : DRILLING FLOOR
EGL .FT                  501 : GROUND LEVEL
DATE.               05/18/00 : RUN DATE
RUN .                      1 : RUN NUMBER
DD  .FT                 9700 : DEPTH DRILLER
DL  .FT                 9688 : DEPTH LOGGER
BLI .FT                 9676 : BOTTOM LOG INTERVAL
TLI .FT                 1523 : TOP LOG INTERVAL
CS  .IN                9.625 : CASING SIZE
CBD .FT                 1530 : CASING BOTTOM DRILLER
CBL .FT                 1523 : CASING BOTTOM LOGGER
BS  .IN                7.875 : BIT SIZE
BSD .FT                 9700 : BIT SIZE AT DEPTH
DFT .         WATERBASED MUD : DRILLING FLUID TYPE
DFD .                    9.8 : DRILLING FLUID DENSITY
DFV .                     52 : DRILLING FLUID VISCOSITY
DFPH.                     10 : DRILLING FLUID PH
DFL .                    9.6 : DRILLING FLUID LOSS
MSS .               MUD TANK : MUD SAMPLE SOURCE
RMS .OHMM                1.9 : RESISTIVITY MUD SAMPLE
MST .DEGF                 84 : MUD SAMPLE TEMPERATURE
RMF .OHMM               1.56 : RESISTIVITY MUD FILTRATE SAMPLE
MFST.DEGF                 82 : MUD FILTRATE SAMPLE TEMPERATURE
RMC .OHMM               2.35 : RESISTIVITY MUD CAKE
MCST.DEGF                 82 : MUD CAKE SAMPLE TEMPERATURE
MFSS.                   MEAS : MUD FILTRATE SAMPLE SOURCE
MCSS.                   MEAS : MUD CAKE SAMPLE SOURCE
RMB .OHMM              0.738 : RESISTIVITY MUD AT BHT
TCS .HRS                1830 : TIME CIRCULATED STOPPED
TLAB.HRS                 200 : TIME LOGGER AT BOTTOM
LUN .                  52552 : LOGGING UNIT NUMBER
LUL .                KILGORE : LOGGING UNIT LOCATION
ENGI.                 GLEITZ : RECORDING ENGINEER
WITN.       EWBANK GALLAGHER : WITNESSED BY
CLNT.                A2DTECH : CLIENT CODE
ORIG.         1" 2" 5" PRINT : ORIGIN OF DATA
UWI .         42289313250000 : UNIQUE WELL ID
DICO. A2D Technologies, Inc. : DIGITIZING COMPANY
~Other -----------------------------------------------------
1. ALL CURVES APPEAR ON DEPTH. MATRIX LIMESTONE M=2.71 F=1
~ASCII -----------------------------------------------------
# ...
 3050.00000    -999.25    -999.25  790.45130    -999.25    -999.25    -999.25    -999.25    1.33420    -999.25    -999.25    1.26510  115.57800  115.57800    1.30120    -999.25    -999.25    1.26510    1.30120  -36.93960   -2.52670    1.33420    -999.25 2182.96800
 3100.00000    -999.25    -999.25  946.25280    -999.25    -999.25    -999.25    -999.25    1.11320    -999.25    -999.25    1.05680   86.99700   86.99700    1.08640    -999.25    -999.25    1.05680    1.08640  -37.18450   -3.08000    1.11320    -999.25 2139.61960
 3150.00000    -999.25    -999.25  808.99600    -999.25    -999.25    -999.25    -999.25    1.30370    -999.25    -999.25    1.23610   80.98530   80.98530    1.27150    -999.25    -999.25    1.23610    1.27150  -39.92790   -6.13180    1.30370    -999.25 2208.74170
 3200.00000    -999.25    -999.25  877.42390    -999.25    -999.25    -999.25    -999.25    1.21120    -999.25    -999.25    1.13970   89.47580   89.47580    1.17150    -999.25    -999.25    1.13970    1.17150  -39.23110   -5.74340    1.21120    -999.25 2194.89500
 3250.00000    -999.25    -999.25  930.31910    -999.25    -999.25    -999.25    -999.25    1.13210    -999.25    -999.25    1.07490   90.65710   90.65710    1.10490    -999.25    -999.25    1.07490    1.10490  -39.24800   -6.06870    1.13210    -999.25 2233.76980
 3300.00000    -999.25    -999.25  820.88330    -999.25    -999.25    -999.25    -999.25    1.28380    -999.25    -999.25    1.21820   93.90850   93.90850    1.25260    -999.25    -999.25    1.21820    1.25260  -39.75290   -6.88200    1.28380    -999.25 2221.56520
 3350.00000    -999.25    -999.25  765.05240    -999.25    -999.25    -999.25    -999.25    1.42090    -999.25    -999.25    1.30710   79.04380   79.04380    1.34350    -999.25    -999.25    1.30710    1.34350  -35.10110   -2.53860    1.42090    -999.25 2240.61670
 3400.00000    -999.25    -999.25  810.24150    -999.25    -999.25    -999.25    -999.25    1.31050    -999.25    -999.25    1.23420   91.72900   91.72900    1.27160    -999.25    -999.25    1.23420    1.27160  -36.58310   -4.32900    1.31050    -999.25 2254.23800
 3450.00000    -999.25    -999.25 1091.10750    -999.25    -999.25    -999.25    -999.25    1.00550    -999.25    -999.25    0.91650   81.36230   81.36230    0.95810    -999.25    -999.25    0.91650    0.95810  -35.21370   -3.26800    1.00550    -999.25 2295.11330
 3500.00000    -999.25    -999.25  951.92770    -999.25    -999.25    -999.25    -999.25    1.15210    -999.25    -999.25    1.05050  104.46480  104.46480    1.08450    -999.25    -999.25    1.05050    1.08450  -33.03260   -1.39530    1.15210    -999.25 2305.41310
 3550.00000    -999.25    -999.25 1155.13460    -999.25    -999.25    -999.25    -999.25    0.96390    -999.25    -999.25    0.86570   98.70820   98.70820    0.89340    -999.25    -999.25    0.86570    0.89340  -32.11340   -0.78450    0.96390    -999.25 2311.51150
 3600.00000    -999.25    -999.25  391.31290    -999.25    -999.25    -999.25    -999.25    2.69840    -999.25    -999.25    2.55550  111.74470  111.74470    2.63030    -999.25    -999.25    2.55550    2.63030  -52.59430  -21.31300    2.69840    -999.25 2419.57710
 3650.00000    -999.25    -999.25  601.21450    -999.25    -999.25    -999.25    -999.25    1.81230    -999.25    -999.25    1.66330  117.63500  117.63500    1.70980    -999.25    -999.25    1.66330    1.70980  -39.13600   -7.80570    1.81230    -999.25 2400.18970
 3700.00000    -999.25    -999.25  333.50010    -999.25    -999.25    -999.25    -999.25    3.79040    -999.25    -999.25    2.99850   94.41130   94.41130    3.15030    -999.25    -999.25    2.99850    3.15030  -39.48330   -8.10400    3.79040    -999.25 2409.83350
 3750.00000    -999.25    -999.25  688.04180    -999.25    -999.25    -999.25    -999.25    1.67250    -999.25    -999.25    1.45340   86.02570   86.02570    1.50950    -999.25    -999.25    1.45340    1.50950  -36.97530   -5.54710    1.67250    -999.25 2415.79740
 3800.00000    -999.25    -999.25  802.05330    -999.25    -999.25    -999.25    -999.25    1.46140    -999.25    -999.25    1.24680  101.58960  101.58960    1.29520    -999.25    -999.25    1.24680    1.29520  -35.70210   -4.22490    1.46140    -999.25 2402.36620
 3850.00000    -999.25    -999.25  680.54990    -999.25    -999.25    -999.25    -999.25    1.68230    -999.25    -999.25    1.46940   97.42210   97.42210    1.52610    -999.25    -999.25    1.46940    1.52610  -36.18390   -4.65770    1.68230    -999.25 2460.39360
 3900.00000    -999.25    -999.25  631.19360    -999.25    -999.25    -999.25    -999.25    2.00680    -999.25    -999.25    1.58430   92.95820   92.95820    1.64990    -999.25    -999.25    1.58430    1.64990  -35.91630   -4.34120    2.00680    -999.25 2455.59330
 3950.00000    -999.25    -999.25  904.56810    -999.25    -999.25    -999.25    -999.25    1.23870    -999.25    -999.25    1.10550   97.60810   97.60810    1.14850    -999.25    -999.25    1.10550    1.14850  -39.90290   -8.27880    1.23870    -999.25 2460.66480
 4000.00000    -999.25    -999.25  863.78160    -999.25    -999.25    -999.25    -999.25    1.40390    -999.25    -999.25    1.15770  105.99300  105.99300    1.20240    -999.25    -999.25    1.15770    1.20240  -39.77380   -8.10070    1.40390    -999.25 2521.63040
 4050.00000    -999.25    -999.25  891.34500    -999.25    -999.25    -999.25    -999.25    1.34010    -999.25    -999.25    1.12190   89.51610   89.51610    1.16530    -999.25    -999.25    1.12190    1.16530  -39.74270   -8.02070    1.34010    -999.25 2527.88770
 4100.00000    -999.25    -999.25  993.93700    -999.25    -999.25    -999.25    -999.25    1.20620    -999.25    -999.25    1.00610   73.17570   73.17570    1.04500    -999.25    -999.25    1.00610    1.04500  -37.77910   -6.00810    1.20620    -999.25 2569.11790
 4150.00000    -999.25    -999.25 1020.30410    -999.25    -999.25    -999.25    -999.25    1.14040    -999.25    -999.25    0.98010   84.93700   84.93700    1.01790    -999.25    -999.25    0.98010    1.01790  -34.14140   -2.32140    1.14040    -999.25 2557.12650
 4200.00000    -999.25    -999.25  931.09870    -999.25    -999.25    -999.25    -999.25    1.26560    -999.25    -999.25    1.07400  101.94380  101.94380    1.11730    -999.25    -999.25    1.07400    1.11730  -33.93660   -2.06770    1.26560    -999.25 2613.49760
 4250.00000    -999.25    -999.25  850.84660    -999.25    -999.25    -999.25    -999.25    1.33160    -999.25    -999.25    1.17530  104.69770  104.69770    1.22070    -999.25    -999.25    1.17530    1.22070  -32.92860   -1.01070    1.33160    -999.25 2636.54470
 4300.00000    -999.25    -999.25  628.81220    -999.25    -999.25    -999.25    -999.25    1.87670    -999.25    -999.25    1.59030   90.69360   90.69360    1.65160    -999.25    -999.25    1.59030    1.65160  -33.67440   -1.91150    1.87670    -999.25 2669.01980
 4350.00000    -999.25    -999.25  556.42110    -999.25    -999.25    -999.25    -999.25    2.00870    -999.25    -999.25    1.79720   98.19260   98.19260    1.87130    -999.25    -999.25    1.79720    1.87130  -36.93120   -5.32340    2.00870    -999.25 2712.37450
 4400.00000    -999.25    -999.25  678.88660    -999.25    -999.25    -999.25    -999.25    1.68020    -999.25    -999.25    1.47300   91.40140   91.40140    1.53000    -999.25    -999.25    1.47300    1.53000  -35.54180   -4.08900    1.68020    -999.25 2649.82890
 4450.00000    -999.25    -999.25  512.50510    -999.25    -999.25    -999.25    -999.25    2.17330    -999.25    -999.25    1.95120   73.99720   73.99720    2.02670    -999.25    -999.25    1.95120    2.02670  -33.90440   -2.60660    2.17330    -999.25 2706.12110
 4500.00000    -999.25    -999.25  603.31830    -999.25    -999.25    -999.25    -999.25    1.98900    -999.25    -999.25    1.65750   80.32430   80.32430    1.72830    -999.25    -999.25    1.65750    1.72830  -34.62130   -3.47860    1.98900    -999.25 2681.22290
 4550.00000    -999.25    -999.25  284.40600    -999.25    -999.25    -999.25    -999.25    4.26090    -999.25    -999.25    3.51610   30.30830   30.30830    3.65440    -999.25    -999.25    3.51610    3.65440  -45.16480  -14.17710    4.26090    -999.25 2708.98140
