~Version ---------------------------------------------------
VERS. 2.0 : CWLS log ASCII Standard -VERSION 2.0
WRAP. YES : MULTIPLE LINES PER DEPTH STEP
~Well ------------------------------------------------------
STRT.FT                           350.0 : START DEPTH
STOP.FT                          6650.0 : STOP DEPTH
STEP.FT                        50.00000 : STEP LENGTH
NULL.                           -999.25 : NULL VALUE
COMP. ENERGY RESOURCES  OIL & GAS CORP. : COMPANY
WELL.           LITTLE J LAND CO LTD #1 : WELL
FLD .                                WC : FIELD
LOC .                                   : LOCATION
CNTY.                          ATASCOSA : COUNTY
STAT.                             TEXAS : STATE
CTRY.          UNITED STATES OF AMERICA : COUNTRY
SRVC.                      Schlumberger : SERVICE COMPANY
DATE.                       11-Jul-1981 : LOGDATE
API .                    42013312950000 : API NUMBER
UWI .                    42013312950000 : UNIQUE WELL ID
SLAT.WGS84                28.9291009186 : SURFACE LATITUDE
SLON.WGS84               -98.5772566693 : SURFACE LONGITUDE
~Curve Information -----------------------------------------
DEPT    .FT    : DEPTH FEET
ASFLED  .OHMM  : AMPLIFIED SPHERICALLY FOCUSED LOG RESISTIVITY
CALDED  .IN    : CALIPER FROM DENSITY LOG [DEPTH ADJ. TO GRRED]
CALWS   .IN    : CALIPER [CALDED]
CILDED  .MMHO  : CONDUCTIVITY FROM RESISTIVITY LOG
CONDWS  .MMHO  : CONDUCTIVITY [1000/DRESWS]
DCORWS  .G/C3  : DENSITY CORRECTION [DRHOED]
DENWS   .G/C3  : BULK DENSITY [M=2.68 F=1.0] [RHOBED]
DPHISSED.V/V   : DENSITY POROSITY [M=2.68 F=1.0] FROM DENSITY LOG [DEPTH ADJ. TO GRRED]
DPOWS   .V/V   : DENSITY POROSITY [M=2.68 F=1.0] [CALCULATED FROM DENWS]
DRESWS  .OHMM  : DEEP RESISTIVITY [MERGED IF ILDED<1;THEN 1000/CILDED;ELSE ILDED/ILDED at 4650]
DRHOED  .G/C3  : DENSITY CORRECTION FROM DENSITY LOG [DEPTH ADJ. TO GRRED]
DTED    .US/F  : DELTA TIME FROM SONIC LOG
DTWS    .US/F  : DELTA TIME [DTED]
GRDED   .GAPI  : GAMMA RAY FROM DENSITY LOG [DEPTH ADJ. TO GRRED]
GRRED   .GAPI  : GAMMA RAY FROM RESISTIVITY LOG
GRWS    .GAPI  : GAMMA RAY [308 GRRED 4660.5 GRDED]
ILDED   .OHMM  : INDUCTION LOG DEEP RESISTIVITY
ILMED   .OHMM  : INDUCTION LOG MEDIUM RESISTIVITY
MRESWS  .OHMM  : MEDIUM RESISTIVITY [ILMED]
NPHISSED.V/V   : NEUTRON POROSITY SANDSTONE FROM DENSITY LOG [DEPTH ADJ. TO GRRED]
NPOWS   .V/V   : NEUTRON POROSITY SANDSTONE [NPHISSED]
RHOBED  .G/C3  : BULK DENSITY FROM DENSITY LOG [DEPTH ADJ. TO GRRED]
SFLUED  .OHMM  : SPHERICALLY FOCUSED LOG RESISTIVITY
SPRED   .MV    : SPONTANEOUS POTENTIAL FROM RESISTIVITY LOG
SPWS    .MV    : SPONTANEOUS POTENTIAL [BASELINE 0 MV] [SPRED]
SRESWS  .OHMM  : SHALLOW RESISTIVITY [MERGED ASFLED/SFLUED at 4650]
TENDED  .LBF   : TENSION FROM DENSITY LOG [DEPTH ADJ. TO GRRED]
~Params ----------------------------------------------------
PD  .                     GL : PERMANENT DATUM
EPD .FT                  492 : ELEVATION PERMANENT DATUM
LMF .                    RKB : LOG MEASURED FROM
DAPD.FT                   11 : FEET ABOVE PERMANENT DATUM
DMF .                    RKB : DRILLING MEASURED FROM
EKB .FT                  503 : KELLY BUSHING
EDF .FT                  502 : DRILLING FLOOR
EGL .FT                  492 : GROUND LEVEL
DATE.               07/11/81 : RUN DATE
RUN .                      2 : RUN NUMBER
DD  .FT                 6670 : DEPTH DRILLER
DL  .FT                 6660 : DEPTH LOGGER
BLI .FT                 6660 : BOTTOM LOG INTERVAL
TLI .FT                 4660 : TOP LOG INTERVAL
CS  .IN                10.75 : CASING SIZE
CBD .FT                  325 : CASING BOTTOM DRILLER
CBL .FT                  316 : CASING BOTTOM LOGGER
BS  .IN                9.875 : BIT SIZE
BSD .FT                 6670 : BIT SIZE AT DEPTH
DFT .              LIGNO GEL : DRILLING FLUID TYPE
DFD .                    9.3 : DRILLING FLUID DENSITY
DFV .                     36 : DRILLING FLUID VISCOSITY
DFPH.                   10.5 : DRILLING FLUID PH
DFL .                     10 : DRILLING FLUID LOSS
MSS .                    PIT : MUD SAMPLE SOURCE
RMS .OHMM               2.24 : RESISTIVITY MUD SAMPLE
MST .DEGF                109 : MUD SAMPLE TEMPERATURE
RMF .OHMM               1.68 : RESISTIVITY MUD FILTRATE SAMPLE
MFST.DEGF                109 : MUD FILTRATE SAMPLE TEMPERATURE
RMC .OHMM               2.58 : RESISTIVITY MUD CAKE
MCST.DEGF                109 : MUD CAKE SAMPLE TEMPERATURE
MFSS.                  PRESS : MUD FILTRATE SAMPLE SOURCE
MCSS.                   CACL : MUD CAKE SAMPLE SOURCE
RMB .OHMM              1.709 : RESISTIVITY MUD AT BHT
TCS .HRS                1200 : TIME CIRCULATED STOPPED
TLAB.HRS                1800 : TIME LOGGER AT BOTTOM
LUN .                   8145 : LOGGING UNIT NUMBER
LUL .             PLEASANTON : LOGGING UNIT LOCATION
ENGI.                  LEWIS : RECORDING ENGINEER
WITN.         WHITE WILLIAMS : WITNESSED BY
CLNT.                A2DTECH : CLIENT CODE
ORIG.               5" PRINT : ORIGIN OF DATA
UWI .         42013312950000 : UNIQUE WELL ID
DICO. A2D Technologies, Inc. : DIGITIZING COMPANY
~Other -----------------------------------------------------
~ASCII -----------------------------------------------------
# ...
 4250.00000    1.51250    -999.25    -999.25  700.88130  678.61020    -999.25    -999.25    -999.25    -999.25    1.47360    -999.25    -999.25    -999.25    -999.25  103.95950  103.95950    1.47360    -999.25    -999.25    -999.25    -999.25    -999.25    -999.25  -21.95700   -4.20340    1.51250    -999.25
 4300.00000    1.66100    -999.25    -999.25  675.65550  662.03250    -999.25    -999.25    -999.25    -999.25    1.51050    -999.25    -999.25    -999.25    -999.25   78.01810   78.01810    1.51050    -999.25    -999.25    -999.25    -999.25    -999.25    -999.25  -24.51390   -6.89310    1.66100    -999.25
 4350.00000    2.55030    -999.25    -999.25  405.34680  401.75160    -999.25    -999.25    -999.25    -999.25    2.48910    -999.25    -999.25    -999.25    -999.25   78.66620   78.66620    2.48910    -999.25    -999.25    -999.25    -999.25    -999.25    -999.25  -22.54080   -5.05290    2.55030    -999.25
 4400.00000    2.30170    -999.25    -999.25  468.13460  481.85810    -999.25    -999.25    -999.25    -999.25    2.07530    -999.25    -999.25    -999.25    -999.25   79.48580   79.48580    2.07530    -999.25    -999.25    -999.25    -999.25    -999.25    -999.25  -22.61240   -5.25730    2.30170    -999.25
 4450.00000    2.52040    -999.25    -999.25  446.56480  438.82750    -999.25    -999.25    -999.25    -999.25    2.27880    -999.25    -999.25    -999.25    -999.25   76.11620   76.11620    2.27880    -999.25    -999.25    -999.25    -999.25    -999.25    -999.25  -25.89040   -8.66810    2.52040    -999.25
 4500.00000    2.81490    -999.25    -999.25  416.96970  407.61420    -999.25    -999.25    -999.25    -999.25    2.45330    -999.25    -999.25    -999.25    -999.25   75.83880   75.83880    2.45330    -999.25    -999.25    -999.25    -999.25    -999.25    -999.25  -26.93120   -9.84170    2.81490    -999.25
 4550.00000    2.91050    -999.25    -999.25  379.49700  365.97860    -999.25    -999.25    -999.25    -999.25    2.73240    -999.25    -999.25    -999.25    -999.25   72.09360   72.09360    2.73240    -999.25    -999.25    -999.25    -999.25    -999.25    -999.25  -23.86020   -6.90350    2.91050    -999.25
 4600.00000    2.03470    -999.25    -999.25  560.49050  528.51330    -999.25    -999.25    -999.25    -999.25    1.89210    -999.25    -999.25    -999.25    -999.25   87.64170   87.64170    1.89210    -999.25    -999.25    -999.25    -999.25    -999.25    -999.25  -25.09090   -8.26710    2.03470    -999.25
 4650.00000    -999.25    9.73630    9.73630    -999.25  659.80470    0.20680    2.20950    0.28060    0.28010    1.51560    0.20680  104.78680  104.78680   69.11880   86.64010   86.64010    1.51560    1.55940    1.55940    0.44100    0.44100    2.20950    1.69910  -29.88200  -13.19090    1.69910 1872.78640
 4700.00000    -999.25   10.10420   10.10420    -999.25  481.62600    0.17560    2.29550    0.23090    0.22890    2.07630    0.17560   98.22820   98.22820   67.77260   86.02900   67.77260    2.07630    2.14560    2.14560    0.40890    0.40890    2.29550    2.20330  -26.81890  -10.26070    2.20330 1874.76500
 4750.00000    -999.25    9.90840    9.90840    -999.25  623.59690    0.19460    2.30670    0.22330    0.22220    1.60360    0.19460  105.37230  105.37230   65.33720   89.15910   65.33720    1.60360    1.64990    1.64990    0.47180    0.47180    2.30670    1.77430  -30.83950  -14.41410    1.77430 1882.60970
 4800.00000    -999.25   10.12020   10.12020    -999.25  556.20450    0.11870    2.27600    0.24190    0.24050    1.79790    0.11870  102.81440  102.81440   67.66380   84.65010   67.66380    1.79790    1.85240    1.85240    0.46500    0.46500    2.27600    1.87750  -27.10250  -10.80990    1.87750 1882.03030
 4850.00000    -999.25   10.42690   10.42690    -999.25  563.98390    0.22430    2.17700    0.28420    0.29940    1.77310    0.22430  103.23120  103.23120   65.96350   86.49940   65.96350    1.77310    1.83790    1.83790    0.46040    0.46040    2.17700    1.97470  -28.59130  -12.43160    1.97470 1900.35770
 4900.00000    -999.25   10.05500   10.05500    -999.25  475.01430    0.14450    2.32590    0.21220    0.21080    2.10520    0.14450   97.85480   97.85480   63.77680   84.70380   63.77680    2.10520    2.16880    2.16880    0.40250    0.40250    2.32590    2.25830  -23.47250   -7.44560    2.25830 1909.95940
 4950.00000    -999.25   10.46730   10.46730    -999.25  533.16270    0.20990    2.30130    0.22300    0.22540    1.87560    0.20990   96.41820   96.41820   61.35960   86.97360   61.35960    1.87560    1.95040    1.95040    0.43030    0.43030    2.30130    2.32580  -32.61490  -16.72080    2.32580 1932.40880
 5000.00000    -999.25    9.57760    9.57760    -999.25  495.12300    0.11770    2.36680    0.19030    0.18640    2.01970    0.11770   99.11670   99.11670   62.63620   90.07700   62.63620    2.01970    2.06970    2.06970    0.43000    0.43000    2.36680    2.20550  -22.68610   -6.92480    2.20550 1940.38230
 5050.00000    -999.25    9.33060    9.33060    -999.25  346.21240    0.13340    2.50650    0.10640    0.10330    2.88840    0.13340   91.74940   91.74940   61.17900   75.25390   61.17900    2.88840    2.91340    2.91340    0.35280    0.35280    2.50650    2.36180  -12.21730    3.41120    2.36180 1959.88870
 5100.00000    -999.25    9.31580    9.31580    -999.25  840.40670    0.04360    2.19090    0.29270    0.29110    1.18990    0.04360  115.64720  115.64720   84.20870  105.79870   84.20870    1.18990    1.25440    1.25440    0.46800    0.46800    2.19090    0.99670  -25.95730  -10.46170    0.99670 2012.92070
 5150.00000    -999.25    9.17980    9.17980    -999.25  456.57930    0.20140    2.48500    0.10700    0.11610    2.19020    0.20140   90.87810   90.87810   89.40480    -999.25   89.40480    2.19020    2.25310    2.25310    0.41550    0.41550    2.48500    2.10940  -23.21150   -7.84870    2.10940 2025.92700
 5200.00000    -999.25    9.30120    9.30120    -999.25  613.49690    0.04280    2.27790    0.24200    0.23930    1.63000    0.04280  102.13860  102.13860   83.35750   94.39610   83.35750    1.63000    1.69240    1.69240    0.41860    0.41860    2.27790    1.51210  -23.05160   -7.82160    1.51210 2009.43300
 5250.00000    -999.25    9.45940    9.45940    -999.25  438.26970    0.15140    2.34990    0.19600    0.19650    2.28170    0.15140   90.84550   90.84550   79.54890   95.81450   79.54890    2.28170    2.34120    2.34120    0.32160    0.32160    2.34990    2.17440  -20.59210   -5.49490    2.17440 2032.40040
 5300.00000    -999.25    9.97780    9.97780    -999.25  560.72670    0.09510    2.34680    0.19850    0.19830    1.78340    0.09510   93.02290   93.02290   77.96040   97.42390   77.96040    1.78340    1.83460    1.83460    0.41210    0.41210    2.34680    1.89140  -23.12580   -8.16150    1.89140 2061.47660
 5350.00000    -999.25    9.99700    9.99700    -999.25  825.55930    0.07960    2.25620    0.25290    0.25230    1.21130    0.07960  108.74740  108.74740   87.72250   95.96450   87.72250    1.21130    1.26630    1.26630    0.51410    0.51410    2.25620    1.17730  -25.23590  -10.40440    1.17730 2070.76510
 5400.00000    -999.25   10.02000   10.02000    -999.25  547.58510    0.09830    2.33790    0.19790    0.20360    1.82620    0.09830  102.01820  102.01820   92.46070  106.24060   92.46070    1.82620    1.90330    1.90330    0.43310    0.43310    2.33790    1.43170  -25.06680  -10.39410    1.43170 2052.82570
 5450.00000    -999.25   10.80080   10.80080    -999.25  485.90860    0.24510    2.27360    0.24030    0.24190    2.05800    0.24510   92.41540   92.41540   85.27400  107.15450   85.27400    2.05800    2.20320    2.20320    0.38680    0.38680    2.27360    2.20280  -22.45530   -7.95950    2.20280 2079.78590
 5500.00000    -999.25   10.04040   10.04040    -999.25  912.40880    0.10010    2.22320    0.27600    0.27190    1.09600    0.10010  105.07650  105.07650   79.31700   93.95880   79.31700    1.09600    1.18330    1.18330    0.50490    0.50490    2.22320    1.18060  -34.16260  -19.84380    1.18060 2099.24580
