~Version ---------------------------------------------------
VERS. 2.0 : CWLS log ASCII Standard -VERSION 2.0
WRAP.  NO : ONE LINE PER DEPTH STEP
~Well ------------------------------------------------------
STRT.FT                            2500.0 : START DEPTH
STOP.FT                           14300.0 : STOP DEPTH
STEP.FT                          50.00000 : STEP LENGTH
NULL.                             -999.25 : NULL VALUE
COMP. BASS ENTERPRISES PRODUCTION COMPANY : COMPANY
WELL.                 MUELLER GAS UNIT #2 : WELL
FLD .                            WORD, N. : FIELD
LOC .                                     : LOCATION
CNTY.                              LAVACA : COUNTY
STAT.                               TEXAS : STATE
CTRY.            UNITED STATES OF AMERICA : COUNTRY
SRVC.                        Schlumberger : SERVICE COMPANY
DATE.                         05-Jan-1981 : LOGDATE
API .                      42285315200000 : API NUMBER
UWI .                      42285315200000 : UNIQUE WELL ID
SLAT.WGS84                  29.4041630679 : SURFACE LATITUDE
SLON.WGS84                 -96.9765206245 : SURFACE LONGITUDE
~Curve Information -----------------------------------------
DEPT.FT                : 
CALR.IN   07 280 01 00 : CALIPER FROM RESISTIVITY LOG
DT  .US/F 60 500 00 00 : DELTA-T (INTERVAL TRANSIT TIME)
GRR .GAPI 07 310 01 00 : GAMMA RAY FROM RESISTIVITY LOG
ILD .OHMM 07 120 46 00 : INDUCTION DEEP RESISTIVITY
ILM .OHMM 07 120 44 00 : INDUCTION MEDIUM RESISTIVITY
SFLU.OHMM 07 220 01 00 : SHALLOW FOCUSED RESISTIVITY (UNAVERAGED)
SPR .MV   07 010 01 00 : SPONTANEOUS POTENTIAL FROM RESISTIVITY LOG
~Params ----------------------------------------------------
PD  .                     GL : PERMANENT DATUM
EPD .FT                218.8 : ELEVATION PERMANENT DATUM
LMF .                     KB : LOG MEASURED FROM
DAPD.FT                 18.9 : FEET ABOVE PERMANENT DATUM
DMF .                     KB : DRILLING MEASURED FROM
EKB .FT                237.7 : KELLY BUSHING
EDF .FT                235.8 : DRILLING FLOOR
EGL .FT                218.8 : GROUND LEVEL
DATE.               01/05/81 : RUN DATE
RUN .                      1 : RUN NUMBER
DD  .FT                14340 : DEPTH DRILLER
DL  .FT                14320 : DEPTH LOGGER
BLI .FT                14320 : BOTTOM LOG INTERVAL
TLI .FT                 2500 : TOP LOG INTERVAL
CS  .IN                10.75 : CASING SIZE
CBD .FT                 2498 : CASING BOTTOM DRILLER
CBL .FT                 2500 : CASING BOTTOM LOGGER
BS  .IN                 8.75 : BIT SIZE
BSD .FT                14340 : BIT SIZE AT DEPTH
DFT .         LICNOSULFONATE : DRILLING FLUID TYPE
DFD .                   10.8 : DRILLING FLUID DENSITY
DFV .                     41 : DRILLING FLUID VISCOSITY
DFPH.                   11.5 : DRILLING FLUID PH
DFL .                    5.6 : DRILLING FLUID LOSS
MSS .              CIRC TANK : MUD SAMPLE SOURCE
RMS .OHMM              0.567 : RESISTIVITY MUD SAMPLE
MST .DEGF                 96 : MUD SAMPLE TEMPERATURE
RMF .OHMM              0.673 : RESISTIVITY MUD FILTRATE SAMPLE
MFST.DEGF                 62 : MUD FILTRATE SAMPLE TEMPERATURE
RMC .OHMM              1.346 : RESISTIVITY MUD CAKE
MCST.DEGF                 62 : MUD CAKE SAMPLE TEMPERATURE
MFSS.                      M : MUD FILTRATE SAMPLE SOURCE
MCSS.                      C : MUD CAKE SAMPLE SOURCE
RMB .OHMM               0.19 : RESISTIVITY MUD AT BHT
TCS .HRS                1500 : TIME CIRCULATED STOPPED
TLAB.HRS                 130 : TIME LOGGER AT BOTTOM
LUN .                   8015 : LOGGING UNIT NUMBER
LUL .               VICTORIA : LOGGING UNIT LOCATION
ENGI.          BAILEY HUGHES : RECORDING ENGINEER
WITN.         KNISELY HOOVER : WITNESSED BY
CLNT.                A2DTECH : CLIENT CODE
ORIG.            2" 5" PRINT : ORIGIN OF DATA
UWI .         42285315200000 : UNIQUE WELL ID
DICO. A2D Technologies, Inc. : DIGITIZING COMPANY
~Other -----------------------------------------------------
~ASCII -----------------------------------------------------
# ...
 7000.00000   11.19340   96.24850  115.99950    2.82420    2.72780    2.61800  -28.71340
 7050.00000   11.97120  102.72000   92.33910    1.88220    2.02820    1.94340  -21.46620
 7100.00000   12.14300  101.43610   88.46910    1.80540    1.93780    2.31300  -24.40340
 7150.00000   11.89440   95.82750  122.96340    2.56650    2.72960    2.64260  -25.21290
 7200.00000   10.20150   77.67450   65.71380    4.54090    5.75380   10.25740  -46.80140
 7250.00000   10.66940   95.64190  100.53380    2.03500    2.34290    2.41960  -39.97330
 7300.00000   10.78960   93.59350   99.50630    2.10570    2.33060    2.76840  -36.66220
 7350.00000    9.80180   90.24520   90.08960    2.42430    3.38850    4.42920  -66.77010
 7400.00000   10.64810   89.83590   97.60230    3.05940    3.01660    3.64860  -33.88900
 7450.00000   11.55480  102.60720   93.41920    1.95150    1.75140    1.77630  -26.06750
 7500.00000   11.07020   98.59730   88.93370    2.31070    2.46730    2.58490  -26.92150
 7550.00000    9.66390   89.22130   67.10700    2.07030    3.14600    4.63310  -71.40350
 7600.00000    9.51900   88.22590   67.57170    2.05610    2.98800    5.14430  -71.86100
 7650.00000    9.34550   90.04840   66.97780    0.82280    1.11070    2.32750  -99.48290
 7700.00000    9.18880   90.10350   59.98630    0.83980    1.20680    2.17620 -106.28500
 7750.00000    9.49090   90.68730   73.97700    1.97220    2.64620    2.85510  -70.89910
 7800.00000    9.46850   85.59820   92.07610    1.71910    2.25220    4.59280  -62.19400
 7850.00000    9.26040   89.27230   57.97370    0.93870    1.55530    3.23480 -105.75480
 7900.00000    9.34490   92.70580   48.32860    0.32220    0.44020    0.89300  -93.13730
 7950.00000    9.46410   75.17290   64.63010    1.75340    2.68880    9.42600  -81.35440
 8000.00000   10.74970  100.94690  108.28330    1.78950    2.06460    2.06770  -36.29800
 8050.00000    9.28540   83.80420   51.17710    1.82880    2.68260    5.77080 -104.37820
 8100.00000    9.55850   83.47460   55.86880    4.32570    6.19510   10.18990  -60.99460
 8150.00000   10.07260   85.41700   98.83630    3.42830    4.39360    5.28060  -54.42590
 8200.00000    9.34060   88.75620   69.08090    1.55670    2.46230    4.21170  -91.67490
 8250.00000    9.46850   83.85290   76.66130    1.66620    2.48470    4.85020  -84.77470
 8300.00000    9.50050   86.92240   54.10390    1.78870    2.81570    4.55980  -83.53590
 8350.00000    9.57680   85.29550   30.57350    0.70990    1.05810    1.92600  -90.87570
 8400.00000    9.49300   87.45170   52.55580    1.34550    2.14950    4.07030  -97.82880
 8450.00000    9.31880   85.68490   42.95830    1.28540    2.20340    4.54790 -102.38680
 8500.00000   10.39380  103.04410   82.86530    1.52320    1.77160    3.02750  -60.84820
 8550.00000    9.25880   83.02280   48.08070    1.53380    2.49880    5.71020  -92.85690
 8600.00000    9.23960   85.62520   47.65380    0.86040    1.32270    3.06530 -105.21220
 8650.00000   10.27430   86.58680  102.40100    2.64490    3.25660    3.58340  -44.61740
 8700.00000    9.35740   83.46670   34.44430    1.27580    1.98430    4.31200  -96.88010
 8750.00000   10.04320   78.53410   56.91270    2.68190    4.19170    7.60730  -70.31580
 8800.00000   10.87640   97.66840   78.97130    2.40700    2.59430    2.76650  -38.62170
 8850.00000   10.48070   86.68300   94.21760    2.04250    2.60720    2.82390  -35.01130
 8900.00000   10.29620   80.45170   89.24330    3.66990    4.13550    5.15450  -35.83270
 8950.00000   11.00030   96.11860  106.01990    2.59960  402.62220    2.61940  -20.41020
 9000.00000   10.30400   80.09650   61.07240    4.23910    4.53050    6.64520  -32.01640
 9050.00000    9.80110   84.93370   51.00780    2.34870    3.49370    5.91310  -82.64830
 9100.00000   12.04840   80.68130   82.58680    3.04940    3.89620    3.68440  -27.72750
 9150.00000   12.11600  143.63660   87.84950    1.43820    1.27980    1.16340  -29.58810
 9200.00000   11.54550  120.81530  109.21130    1.53930    1.35260    1.25200  -30.44690
 9250.00000   11.80440  103.75340   96.53680    1.35290    1.25820    1.45970  -29.47160
 9300.00000   12.67550  104.69570  103.71620    1.50610    1.52860    1.47520  -27.51350
 9350.00000   12.12080   94.59640   88.85900    1.90450    1.84030    1.93960  -28.37120
 9400.00000   12.92790  102.11490  111.44770    1.45040    1.40300    1.51270  -27.29360
 9450.00000   12.95840  102.41800   87.82100    2.02540    1.12220    1.30710  -28.41620
 9500.00000   14.17810  123.33890   99.44710    1.25920    1.03230    1.07850  -27.05630
 9550.00000   14.16570  124.31070  105.12540    1.21670    1.03720    1.16970  -27.14950
 9600.00000   14.11600  111.60600   86.69380    1.19710    1.07740    1.24720  -26.01100
 9650.00000   10.72500   88.24040  111.58650    2.47880    2.38330    2.67990  -27.59360
 9700.00000   11.99790  100.54170  105.57440    1.77750    1.82880    1.95380  -24.97060
 9750.00000   10.93960  110.29230   93.10690    3.62960    3.40600    3.49790  -28.51020
 9800.00000   11.78330  100.09970  111.11790    2.03470    2.09380    2.18400  -25.54730
 9850.00000   13.38370   95.75690  119.75780    2.00070    1.90740    2.05340  -25.36940
 9900.00000   11.84540  103.14140  112.88110    1.95030    1.88500    2.03770  -25.30700
 9950.00000   11.22400   99.38270   94.48750    1.93540    1.89380    2.01600  -25.71500
 10000.00000   12.10250   96.93540  103.43750    2.04070    2.03100    2.21010  -25.28630
 10050.00000   12.73830  100.63140   98.31480    1.95670    1.86740    2.09290  -25.81980
 10100.00000   11.00110   99.36350  123.07550    2.45640    2.59950    2.37730  -25.90270
 10150.00000   12.69490  100.72270   94.74300    2.16970    2.08480    2.24080  -25.15050
 10200.00000   11.88970   95.72760  104.46260    2.00460    1.90990    2.08800  -25.81170
 10250.00000   10.92960   93.93710   99.51500    2.55310    2.56280    2.87230  -25.23590
 10300.00000   11.11710   92.71720   95.07980    2.72420    2.85600    3.04900  -26.58670
 10350.00000   11.43510   94.56610  113.36660    2.58440    2.74530    2.99120  -25.27150
 10400.00000   12.20150   97.28520  102.64700    2.33470    2.22240    2.29570  -25.91840
 10450.00000   13.01630  101.12690  102.11570    2.04140    1.89220    1.86070  -25.32600
 10500.00000   12.38530   92.65060   97.30060    2.66290    2.40900    2.74020  -25.59980
 10550.00000   12.34410   96.25410  101.95290    2.60240    2.73490    2.42440  -26.02900
 10600.00000   13.52030   92.71670   94.83820    2.19870    1.97010    2.49100  -25.45120
 10650.00000   11.88590   84.67670   66.69820    4.08860    3.92860    9.11210  -25.85290
 10700.00000   12.08330   89.32080   75.61040    2.55790    3.13360    4.29820  -28.70430
 10750.00000   13.41840   80.32010   52.53440    2.77600    2.52900    2.45890  -56.30940
 10800.00000   12.88960   85.60040   56.56510    5.30260    5.84300    6.71090  -39.42850
 10850.00000   12.88380   95.07240   92.11700    2.47230    2.72130    2.28770  -25.15190
 10900.00000   13.62650   90.63210   94.99530    3.12310    2.97100    2.93120  -26.53020
 10950.00000   14.07260   90.05570  101.84640    3.15380    3.32170    2.96820  -26.82180
 11000.00000   14.00930   90.41680   93.48910    2.66320    2.76300    3.23560  -26.53570
 11050.00000   14.09890   97.13470   92.11540    2.26560    1.93710    2.01230  -28.32830
 11100.00000   13.69010  108.78610   87.66940    2.80510    2.29610    2.65190  -28.04280
 11150.00000   12.02970   93.08410   87.55650    3.25870    3.04290    2.80580  -29.73810
 11200.00000   14.20830  117.95090   85.03150    2.50670    1.93090    1.83580  -28.95490
 11250.00000   14.21090   91.68240  100.06510    2.13520    1.71630    1.82850  -27.42590
 11300.00000   11.39610   93.39490   92.88020    2.12420    2.02100    2.39580  -27.35820
 11350.00000   11.16060   92.40530  102.64470    2.22540    1.95070    2.53510  -27.33010
 11400.00000   11.42760   87.82940   73.55740    3.01330    3.25610    3.37610  -26.91460
 11450.00000   12.70310   96.46670   95.47710    2.47830    2.64580    2.76570  -27.58250
