~Version ---------------------------------------------------
VERS. 2.0 : CWLS log ASCII Standard -VERSION 2.0
WRAP.  NO : One line per depth step
~Well ------------------------------------------------------
STRT.FT                     1050.0 : START DEPTH
STOP.FT                    19600.0 : STOP DEPTH
STEP.FT                   50.00000 : STEP LENGTH
NULL.                      -999.25 : NULL VALUE
COMP. PAN AMERICAN PETROLEUM CORP. : COMPANY
WELL.           MURRAY FRANKLIN #1 : WELL
FLD .                      WILDCAT : FIELD
LOC .                              : LOCATION
CNTY.                    MC MULLEN : COUNTY
STAT.                        TEXAS : STATE
CTRY.     UNITED STATES OF AMERICA : COUNTRY
SRVC.                 Schlumberger : SERVICE COMPANY
DATE.                  30-Aug-1964 : LOGDATE
API .               42311001580000 : API NUMBER
UWI .               42311001580000 : UNIQUE WELL ID
SLAT.WGS84           28.5946649186 : SURFACE LATITUDE
SLON.WGS84          -98.6650291661 : SURFACE LONGITUDE
~Curve Information -----------------------------------------
DEPT  .FT    : DEPTH
ASNED .OHMM  : AMPLIFIED SHORT NORMAL 16 IN.
CALWS .IN    : CALIPER (CALSED)
CALSED.IN    : CALIPER FROM SONIC LOG (ADJ TO RES.)
CILDED.MMHO  : CONDUCTIVITY FROM LOG
CONDWS.MMHO  : CONDUCTIVITY (1000/DREWS)
DRESWS.OHMM  : DEEP RESISTIVITY (IF ILDED<1, THEN 1000/CILDED)
DTED  .US/F  : DELTA TIME  (ADJ TO RES.)
DTWS  .US/F  : DELTA TIME  (DTED)
GRNED .GAPI  : GAMMA RAY FROM NEUTRON LOG (ADJ TO RES.)
GRWS  .GAPI  : GAMMA RAY (GRNED)
ILDED .OHMM  : DEEP INDUCTION RESISTIVITY
NEUTED.CU    : NEUTRON FROM GAMMA RAY NEUTRON LOG (ADJ TO RES.)
NEUTWS.CU    : NEUTRON FROM GAMMA RAY NEUTRON LOG (NEUTED)
SPWS  .MV    : SPONTANEOUS POTENTIAL BASELINE 0 MV (SPRED)
SPRED .MV    : SPONTANEOUS POTENTIAL FROM RESISTIVITY
SRESWS.OHMM  : SHALLOW RESISTIVITY (ASNED)
~Params ----------------------------------------------------
PD  .                 2" BHO : PERMANENT DATUM
EPD .F                   395 : ELEVATION PERMANENT DATUM
LMF .                     KB : LOG MEASURED FROM
DAPD.F                  23.7 : FEET ABOVE PERMANENT DATUM
DMF .                     KB : DRILLING MEASURED FROM
EKB .F                 418.7 : KELLING BUSHING
EDF .F                 416.0 : DRILLING FLOOR
EGL .F                 395.0 : GROUND LEVEL
DATE.             08-30-1964 : RUN DATE
RUN .                      6 : RUN NUMBER
DD  .F                 19636 : DEPTH DRILLER
DL  .F                 19632 : DEPTH LOGGER
BLI .F                 19632 : BOTTOM LOG INTERVAL
TLI .F                 18788 : TOP LOG INTERVAL
CS  .IN                    5 : CASING SIZE
CBD .F                 16836 : CASING BOTTOM DRILLER
BS  .IN                 4.25 : BIT SIZE
BSD .F                 19636 : BIT SIZE AT DEPTH
DFT .        UNICAL OIL EMUL : DRILLING FLUID TYPE
TCS .HRS                   3 : TIME CURCULATED STOPPED
LUN .                   4521 : LOGGING UNIT NUMBER
LUL .                    KEN : LOGGING UNIT LOCATION
ENGI.                  ELLIS : RECORDING ENGINEER
WITN.       FREEMAN, SHAPLEY : WITNESSED BY
CLNT.                A2DTECH : CLIENT CODE
ORIG.               5" PRINT : ORIGIN OF DATA
UWI .         42311001580000 : UNIQUE WELL ID
DICO. A2D Technologies, Inc. : DIGITIZING COMPANY
~Other -----------------------------------------------------
~ASCII -----------------------------------------------------
# ...
 7500.00000    2.41100   14.04300   14.04300  536.54980  551.87630    1.81200   92.20970   92.20970    -999.25    -999.25    1.81200    -999.25    -999.25   -4.10120  -21.45600    2.41100
 7550.00000    1.88100   14.49600   14.49600  695.60880  666.22250    1.50100   98.87790   98.87790    -999.25    -999.25    1.50100    -999.25    -999.25   -4.45700  -21.84700    1.88100
 7600.00000    2.18300   13.53500   13.53500  526.89810  551.57200    1.81300   81.81010   81.81010    -999.25    -999.25    1.81300    -999.25    -999.25  -10.10070  -27.52600    2.18300
 7650.00000    2.06300   13.56100   13.56100  578.79110  568.18180    1.76000   87.94060   87.94060    -999.25    -999.25    1.76000    -999.25    -999.25   -8.27450  -25.73500    2.06300
 7700.00000    1.82300   14.67300   14.67300  659.66360  615.00610    1.62600   89.64920   89.64920    -999.25    -999.25    1.62600    -999.25    -999.25   -4.47620  -21.97200    1.82300
 7750.00000    1.57900   14.81300   14.81300  819.36130  786.78200    1.27100   70.84830   70.84830    -999.25    -999.25    1.27100    -999.25    -999.25   -3.84100  -21.40900    1.57900
 7800.00000    1.97300   14.34200   14.34200  552.49500  580.04640    1.72400   87.47660   87.47660    -999.25    -999.25    1.72400    -999.25    -999.25   -4.87980  -22.52500    1.97300
 7850.00000    1.88400   15.27900   15.27900  629.70060  557.72450    1.79300   86.11770   86.11770    -999.25    -999.25    1.79300    -999.25    -999.25   -5.72860  -23.45100    1.88400
 7900.00000    2.53000   14.18700   14.18700  460.76600  436.10990    2.29300   82.91540   82.91540    -999.25    -999.25    2.29300    -999.25    -999.25   -5.05340  -22.85300    2.53000
 7950.00000    2.65200   14.10900   14.10900  398.20360  407.99670    2.45100   78.85860   78.85860    -999.25    -999.25    2.45100    -999.25    -999.25   -5.57320  -23.45000    2.65200
 8000.00000    2.83700   14.09900   14.09900  410.17960  389.10510    2.57000   79.93320   79.93320    -999.25    -999.25    2.57000    -999.25    -999.25   -4.69690  -22.65100    2.83700
 8050.00000    2.12300   15.35600   15.35600  525.21230  528.54130    1.89200   82.52820   82.52820    -999.25    -999.25    1.89200    -999.25    -999.25   -4.53370  -22.56500    2.12300
 8100.00000    1.82300   15.80600   15.80600  604.43260  593.47180    1.68500   89.79740   89.79740    -999.25    -999.25    1.68500    -999.25    -999.25   -3.22650  -21.33500    1.82300
 8150.00000    1.87800   15.51100   15.51100  628.94350  587.19910    1.70300   95.99660   95.99660    -999.25    -999.25    1.70300    -999.25    -999.25   -3.00830  -21.19400    1.87800
 8200.00000    2.06300   15.85400   15.85400  520.40430  519.21080    1.92600   92.36800   92.36800    -999.25    -999.25    1.92600    -999.25    -999.25   -4.87000  -23.13300    2.06300
 8250.00000    1.88100   15.73100   15.73100  599.48000  517.59830    1.93200   96.42580   96.42580    -999.25    -999.25    1.93200    -999.25    -999.25   -3.82480  -22.16500    1.88100
 8300.00000    2.22200   14.24500   14.24500  495.35840  477.09920    2.09600   85.85240   85.85240    -999.25    -999.25    2.09600    -999.25    -999.25   -7.02960  -25.44700    2.22200
 8350.00000    2.78800   14.42200   14.42200  408.17160  383.58260    2.60700   79.47460   79.47460    -999.25    -999.25    2.60700    -999.25    -999.25   -6.07940  -24.57400    2.78800
 8400.00000    2.75600   14.42000   14.42000  422.15570  395.25690    2.53000   81.93630   81.93630    -999.25    -999.25    2.53000    -999.25    -999.25   -5.34020  -23.91200    2.75600
 8450.00000    2.27400   15.63000   15.63000  533.36630  484.26150    2.06500   86.23730   86.23730    -999.25    -999.25    2.06500    -999.25    -999.25   -5.59890  -24.24800    2.27400
 8500.00000    2.36000   15.43200   15.43200  496.00800  447.62760    2.23400   86.00830   86.00830    -999.25    -999.25    2.23400    -999.25    -999.25   -5.92570  -24.65200    2.36000
 8550.00000    2.54000   15.60600   15.60600  447.65310  414.76570    2.41100   83.74320   83.74320    -999.25    -999.25    2.41100    -999.25    -999.25   -6.52350  -25.32700    2.54000
 8600.00000    2.60500   15.63100   15.63100  430.13970  422.11900    2.36900   83.68810   83.68810    -999.25    -999.25    2.36900    -999.25    -999.25   -5.06930  -23.95000    2.60500
 8650.00000    2.61100   15.57200   15.57200  432.66620  410.50900    2.43600   81.13410   81.13410    -999.25    -999.25    2.43600    -999.25    -999.25   -4.56400  -23.52200    2.61100
 8700.00000    2.14000   15.56700   15.56700  519.83220  476.19050    2.10000   87.64210   87.64210    -999.25    -999.25    2.10000    -999.25    -999.25   -5.90080  -24.93600    2.14000
 8750.00000    1.96900   15.55200   15.55200  550.61240  565.93100    1.76700   92.58230   92.58230    -999.25    -999.25    1.76700    -999.25    -999.25   -6.53460  -25.64700    1.96900
 8800.00000    2.83400   15.55200   15.55200  378.46570  360.49030    2.77400   82.82790   82.82790    -999.25    -999.25    2.77400    -999.25    -999.25   -5.65240  -24.84200    2.83400
 8850.00000    3.10700   15.55100   15.55100  341.31540  336.92720    2.96800   76.84760   76.84760    -999.25    -999.25    2.96800    -999.25    -999.25   -5.91020  -25.17700    3.10700
 8900.00000    3.71800   15.54500   15.54500  290.91820  296.12080    3.37700   77.48550   77.48550    -999.25    -999.25    3.37700    -999.25    -999.25   -6.30290  -25.64700    3.71800
 8950.00000    8.06300   13.81500   13.81500  124.66170  133.10260    7.51300   62.71370   62.71370    -999.25    -999.25    7.51300    -999.25    -999.25   -7.23770  -26.65900    8.06300
 9000.00000    1.69300   14.55400   14.55400  456.04650  587.54410    1.70200   62.74200   62.74200    -999.25    -999.25    1.70200    -999.25    -999.25  -10.11750  -29.61600    1.69300
 9050.00000    7.13700   14.14700   14.14700  147.79780  159.41340    6.27300   66.28500   66.28500    -999.25    -999.25    6.27300    -999.25    -999.25   -7.98630  -27.56200    7.13700
 9100.00000    6.32600   14.97000   14.97000  162.12850  156.78900    6.37800   68.85730   68.85730    -999.25    -999.25    6.37800    -999.25    -999.25   -6.19510  -25.84800    6.32600
 9150.00000    4.19800   15.53000   15.53000  271.44620  234.13720    4.27100   81.84170   81.84170    -999.25    -999.25    4.27100    -999.25    -999.25   -4.91880  -24.64900    4.19800
 9200.00000    4.02700   15.55900   15.55900  284.83040  244.91790    4.08300   77.07820   77.07820    -999.25    -999.25    4.08300    -999.25    -999.25   -4.21460  -24.02200    4.02700
 9250.00000    3.94300   15.56900   15.56900  293.49080  235.57130    4.24500   82.21840   82.21840    -999.25    -999.25    4.24500    -999.25    -999.25   -3.89140  -23.77600    3.94300
 9300.00000    5.80000   15.16400   15.16400  190.21960  156.86270    6.37500   68.56630   68.56630    -999.25    -999.25    6.37500    -999.25    -999.25   -3.88420  -23.84600    5.80000
 9350.00000    4.89100   15.56400   15.56400  207.11080  208.03000    4.80700   68.86160   68.86160    -999.25    -999.25    4.80700    -999.25    -999.25   -3.54090  -23.58000    4.89100
 9400.00000   11.70300   14.77440   14.77440   80.32570   82.34520   12.14400   60.50970   60.50970    -999.25    -999.25   12.14400    -999.25    -999.25  -11.29270  -30.64200   11.70300
 9450.00000   16.51100   15.57140   15.57140   54.34330   60.13590   16.62900   61.04950   61.04950    -999.25    -999.25   16.62900    -999.25    -999.25   -7.49860  -25.92900   16.51100
 9500.00000   15.40100   15.58650   15.58650   66.57500   66.48050   15.04200   77.84120   77.84120    -999.25    -999.25   15.04200    -999.25    -999.25   -6.14450  -23.65600   15.40100
 9550.00000   24.83800   15.58650   15.58650   32.33630   35.90410   27.85200   70.10530   70.10530    -999.25    -999.25   27.85200    -999.25    -999.25   -6.17440  -22.76700   24.83800
 9600.00000   30.45100   15.04660   15.04660   31.67760   34.71020   28.81000   52.31690   52.31690    -999.25    -999.25   28.81000    -999.25    -999.25   -8.77830  -24.45200   30.45100
