~Version ---------------------------------------------------
VERS. 2.0 : CWLS log ASCII Standard -VERSION 2.0
WRAP.  NO : ONE LINE PER DEPTH STEP
~Well ------------------------------------------------------
STRT.F                       300.0 : START DEPTH
STOP.F                     14150.0 : STOP DEPTH
STEP.F                    50.00000 : STEP LENGTH
NULL.                      -999.25 : NULL VALUE
COMP. HOWELL DRILLING INCORPORATED : COMPANY
WELL.           CARSON GAS UNIT #1 : WELL
FLD .                      WILDCAT : FIELD
LOC .                              : LOCATION
CNTY.                       LAVACA : COUNTY
STAT.                        TEXAS : STATE
CTRY.     UNITED STATES OF AMERICA : COUNTRY
SRVC.                 Schlumberger : SERVICE COMPANY
DATE.                  12-Nov-1978 : LOGDATE
API .               42285313350000 : API NUMBER
UWI .               42285313350000 : UNIQUE WELL ID
SLAT.WGS84           29.5916068374 : SURFACE LATITUDE
SLON.WGS84          -96.8551872622 : SURFACE LONGITUDE
~Curve Information -----------------------------------------
DEPT.F                 : 
DPHI.DEC  45 890 10 00 : DENSITY POROSITY
NPHI.DEC  42 890 01 00 : NEUTRON POROSITY
RHOB.G/C3 45 350 01 00 : BULK DENSITY
CALD.IN   45 280 60 00 : CALIPER FROM DENSITY LOG
CORR.G/C3 45 356 01 00 : DENSITY CORRECTION
GRD .GAPI 45 310 01 00 : GAMMA RAY FROM DENSITY LOG
ASFL.OHMM 06 221 01 00 : AMPLIFIED SPHERICALLY FOCUSED LOG
CILD.MMHO 06 110 46 00 : INDUCTION DEEP CONDUCTIVITY
SPR .MV   06 010 01 00 : SPONTANEOUS POTENTIAL FROM RESISTIVITY LOG
RILD.OHMM 06 120 46 00 : RAW DEEP INDUCTION RESISTIVITY
~Params ----------------------------------------------------
PD  .                          GL : PERMANENT DATUM
EPD .FT                     308.4 : ELEVATION PERMANENT DATUM
LMF .                          KB : LOG MEASURED FROM
DAPD.FT                        17 : FEET ABOVE PERMANENT DATUM
DMF .                          KB : DRILLING MEASURED FROM
EKB .FT                     325.4 : KELLY BUSHING
EDF .FT                     324.5 : DRILLING FLOOR
EGL .FT                     308.4 : GROUND LEVEL
DATE.                    11/12/78 : RUN DATE
RUN .                           2 : RUN NUMBER
DD  .FT                     14209 : DEPTH DRILLER
DL  .FT                     14205 : DEPTH LOGGER
BLI .FT                     14198 : BOTTOM LOG INTERVAL
TLI .FT                      3902 : TOP LOG INTERVAL
CS  .IN                     10.75 : CASING SIZE
CBD .FT                      3905 : CASING BOTTOM DRILLER
CBL .FT                      3902 : CASING BOTTOM LOGGER
BS  .IN                     9.875 : BIT SIZE
BSD .FT                     14209 : BIT SIZE AT DEPTH
DFT .                         GYP : DRILLING FLUID TYPE
DFD .                        10.6 : DRILLING FLUID DENSITY
DFV .                          44 : DRILLING FLUID VISCOSITY
DFPH.                         8.5 : DRILLING FLUID PH
DFL .                         8.8 : DRILLING FLUID LOSS
MSS .                    CIRC PIT : MUD SAMPLE SOURCE
RMS .OHMM                    1.19 : RESISTIVITY MUD SAMPLE
MST .DEGF                      90 : MUD SAMPLE TEMPERATURE
RMF .OHMM                    0.96 : RESISTIVITY MUD FILTRATE SAMPLE
MFST.DEGF                      77 : MUD FILTRATE SAMPLE TEMPERATURE
RMC .OHMM                    1.79 : RESISTIVITY MUD CAKE
MCST.DEGF                      90 : MUD CAKE SAMPLE TEMPERATURE
MFSS.                           M : MUD FILTRATE SAMPLE SOURCE
MCSS.                           C : MUD CAKE SAMPLE SOURCE
RMB .OHMM                    0.37 : RESISTIVITY MUD AT BHT
TCS .HRS                      130 : TIME CIRCULATED STOPPED
TLAB.HRS                     1430 : TIME LOGGER AT BOTTOM
LUN .                        8013 : LOGGING UNIT NUMBER
LUL .                        VICT : LOGGING UNIT LOCATION
ENGI.            HENDERICK FISLER : RECORDING ENGINEER
WITN. RYAN HOWELL WILLIAMS GARCIA : WITNESSED BY
CLNT.                     A2DTECH : CLIENT CODE
ORIG.                    1" PRINT : ORIGIN OF DATA
UWI .              42285313350000 : UNIQUE WELL ID
DICO.      A2D Technologies, Inc. : DIGITIZING COMPANY
~Other -----------------------------------------------------
~ASCII -----------------------------------------------------
# ...
 6900.00000    0.27130    0.45120    2.21910   11.73630    0.07200   86.97790    1.35020  899.89400  -41.31750    1.24750
 6950.00000    0.14100    0.33130    2.44700   10.77510    0.11830   75.34770    2.35280  501.71440  -50.00000    1.78890
 7000.00000    0.21330    0.29610    2.32180   10.40300    0.09360   93.25580    2.49530  459.45950  -52.49490    2.06590
 7050.00000    0.18040    0.30720    2.38430   10.40310    0.04890   96.04650    2.56550  454.09740  -50.82330    2.21060
 7100.00000    0.20770    0.25250    2.33100    9.03880    0.04660   54.18530    5.04340  918.41300 -124.05200    1.11780
 7150.00000    0.20170    0.23630    2.33870    9.27140    0.08210   63.48740    4.20660  577.00620  -88.94610    1.73650
 7200.00000    0.14280    0.30630    2.44140    9.70540    0.09050   89.76740    3.66310  427.42580  -75.74850    2.28540
 7250.00000    0.16550    0.32290    2.40740   10.23250    0.08360  103.02330    2.37970  517.05240  -60.47900    1.85130
 7300.00000    0.22720    0.25620    2.29320    9.06970    0.03740   56.74480    5.23170  786.28460 -127.19560    1.29240
 7350.00000    0.21830    0.28860    2.31100    9.25590    0.05660   64.88370    4.85300  659.26760 -115.54390    1.55690
 7400.00000    0.13150    0.27570    2.44830    9.58140    0.04200   86.97670    3.84860  420.42040  -76.04790    2.21560
 7450.00000    0.20680    0.26380    2.33640    9.24030    0.03270   70.93020    4.96410  714.71470 -122.40510    1.31740
 7500.00000    0.18270    0.24460    2.36850    9.50390    0.03200   78.83720    5.32440  478.47930 -100.79810    1.98100
 7550.00000    0.15950    0.21270    2.39940    9.16280    0.04430   66.27980    6.54910  615.17560 -135.40440    1.68160
 7600.00000    0.21890    0.25250    2.29610    8.94570    0.04120   59.53390    5.46670  827.83950 -136.12720    1.10780
 7650.00000    0.17860    0.31740    2.27520    9.37990    0.08280   70.93020    6.63530  482.41140 -106.86140    1.97600
 7700.00000    0.21000    0.25710    2.31230    8.88370    0.02660   66.27960    5.82660  468.96440 -102.94390    1.63170
 7750.00000    0.12060    0.30160    2.48030    9.73640    0.07130  104.75470    3.43940  325.82690  -48.27840    2.87180
 7800.00000    0.14560    0.23900    2.43250    8.74420    0.06120   58.83660    6.81020  494.49860 -118.26360    2.07590
 7850.00000    0.20400    0.25990    2.33800    9.28670    0.04040   70.46660    4.61820  485.73560  -75.87300    1.99100
 7900.00000    0.17740    0.21500    2.38220    9.78290    0.15580   50.46470    3.86440  626.62200  -63.62280    1.27740
 7950.00000    0.11220    0.25990    2.51310   10.85280    0.02810  102.09440    3.33230  536.57150  -78.31820    2.10820
 8000.00000    0.18480    0.26920    2.36500    9.67440    0.06890   56.28000    5.54860  610.61890 -120.35940    1.52690
 8050.00000    0.22350    0.20900    2.29090    8.92990    0.04580   25.81490    2.78770 1286.78690 -141.31750    0.81090
 8100.00000    0.17900    0.22750    2.37650    9.36430    0.04890   51.62790    5.49890  600.60060 -113.37270    1.72150
 8150.00000    0.15670    0.20460    2.40900    9.03870    0.07280   44.41920    7.02240  536.03600 -100.57330    1.97360
 8200.00000    0.16690    0.24830    2.42900    9.68990    0.05350   91.63080    3.87050  348.34840  -92.51500    2.72460
 8250.00000    0.18360    0.18530    2.35110    9.31790    0.02940   52.79130   15.73980  504.50450 -125.77450    2.34270
 8300.00000    0.18130    0.17850    2.36110    8.52710    0.07510   25.11630    4.25030  849.84990 -143.26350    1.05280
 8350.00000    0.09840    0.22010    2.52780    9.45760    0.08280   80.00000    6.04150  376.87380  -81.21230    2.66260
 8400.00000    0.18960    0.20980    2.35260    8.96120    0.06000   46.98020    5.97520  762.76280 -141.31740    1.43710
 8450.00000    0.18500    0.23680    2.37650    9.00780    0.04820   51.86050    6.15100  749.24920 -139.37170    1.38470
 8500.00000    0.27300    0.37200    2.20830   12.20160    0.09590   97.32730    2.47140  432.43240  -38.32340    2.29040
 8550.00000    0.14290    0.23890    2.43520    9.11640    0.08590   77.90790    8.10800  371.87190 -104.64210    2.79190
 8600.00000    0.21010    0.21640    2.31950    9.00780    0.04350   45.81740    3.27450 2057.05690 -137.42520    0.44910
 8650.00000    0.18050    0.22890    2.39040    8.79060    0.06360   49.76740    6.00610  632.88130 -119.46200    1.53210
 8700.00000    0.40320    0.31370    1.88430   10.77530   -0.00960   74.18830    7.97610  393.89390 -105.08980    2.22720
 8750.00000    0.15700    0.21080    2.41130    9.55050    0.07590   63.48970    8.62090  367.11710 -108.38240    2.69810
 8800.00000    0.20050    0.35540    2.33180   12.94570    0.07670   97.44380    3.91440  292.29230  -37.12570    3.13900
 8850.00000    0.16940    0.19300    2.38890    9.22490    0.03350   52.78840    8.96120  418.16320 -130.23950    2.18990
 8900.00000    0.05520    0.21990    2.58640   10.32570    0.03810  103.72280    4.48930  246.24620  -47.90420    4.02090
 8950.00000    0.15870    0.21310    2.38500    9.10070    0.06130   40.93200    7.25950  599.30650 -126.64670    1.74890
 9000.00000    0.11600    0.21850    2.50080    9.25730    0.07130   82.87040    7.62320  292.29220  -95.80840    3.34830
 9050.00000    0.16290    0.27260    2.40590   11.05440    0.07380   96.29720    3.04180  341.90960  -46.95600    2.90730
 9100.00000    0.13690    0.18630    2.44140    9.47290    0.05910   54.62940   10.78330  268.26830 -103.09390    3.60240
 9150.00000    0.06870    0.24180    2.55250   10.12410    0.06660  103.63210    4.96420  288.28830  -60.47900    3.42800
 9200.00000    0.08170    0.23490    2.52780   10.31020    0.08980  102.47180    4.44630  271.76550  -55.88830    3.88640
 9250.00000    0.04960    0.13260    2.58580    9.72100    0.08750   41.03480   29.89410  199.69820 -116.66590    4.89290
 9300.00000    0.09510    0.25440    2.55950   11.05420    0.15400  100.38490    5.03530  216.21630  -48.50350    4.38960
 9350.00000    0.09930    0.27940    2.42670   11.44200    0.21750   98.37890    4.17470  252.89580  -48.65280    4.01340
 9400.00000    0.11230    0.27290    2.50150   10.83740    0.06660  101.29030    4.58000  231.23120  -53.49370    4.31480
 9450.00000    0.06680    0.24970    2.55800   10.94590    0.04640   90.50910    5.08370  245.74740  -57.68590    4.36220
 9500.00000    0.16750    0.29930    2.38720   11.50370    0.09750  102.08330    3.87340  265.26530  -48.70290    3.66220
 9550.00000    0.13800    0.23310    2.44690   10.53000    0.07510   52.16380    6.74750  222.72100  -72.60400    4.28990
 9600.00000    0.12670    0.32340    2.46210   13.18030    0.11380  103.16810    3.00340  374.37440  -39.28040    2.81020
 9650.00000    0.15590    0.26550    2.35090   11.27140    0.14010   92.96750    4.11680  290.54050  -44.82760    3.38570
 9700.00000    0.08400    0.25390    2.46830   10.71320   -0.00080   89.72120    4.56560  202.70270  -46.57630    4.18040
 9750.00000    0.20370    0.33310    2.34160   12.07740    0.04640   95.05350    2.79720  409.15910  -39.73000    2.44390
 9800.00000    0.05380    0.23070    2.59970   11.13200    0.05030   88.56030    4.83310  231.23120  -48.27590    4.18540
 9850.00000    -999.25    -999.25    -999.25    -999.25    -999.25    -999.25    3.89630  271.02250  -47.72660    3.59990
 9900.00000    -999.25    -999.25    -999.25    -999.25    -999.25    -999.25    3.89040  279.77980  -46.47680    3.34330
 9950.00000    -999.25    -999.25    -999.25    -999.25    -999.25    -999.25    3.47590  320.56910  -41.97900    3.04930
 10000.00000    -999.25    -999.25    -999.25    -999.25    -999.25    -999.25    3.82260  285.28530  -45.76960    3.52770
 10050.00000    -999.25    -999.25    -999.25    -999.25    -999.25    -999.25    3.79870  298.04800  -45.12740    3.32590
 10100.00000    -999.25    -999.25    -999.25    -999.25    -999.25    -999.25    3.36620  334.83490  -43.07840    2.95960
 10150.00000    -999.25    -999.25    -999.25    -999.25    -999.25    -999.25    3.56350  335.58560  -42.32880    2.97460
