~Version ---------------------------------------------------
VERS. 2.0 : CWLS log ASCII Standard -VERSION 2.0
WRAP. YES : MULTIPLE LINES PER DEPTH STEP
~Well ------------------------------------------------------
STRT.FT                      500.0 : START DEPTH
STOP.FT                     8050.0 : STOP DEPTH
STEP.FT                   50.00000 : STEP LENGTH
NULL.                      -999.25 : NULL VALUE
COMP. ADDINGTON-STAMPER EXPL. INC. : COMPANY
WELL.                   MANFORD #1 : WELL
FLD .                   SMILEY, SE : FIELD
LOC .                              : LOCATION
CNTY.                     GONZALES : COUNTY
STAT.                        TEXAS : STATE
CTRY.     UNITED STATES OF AMERICA : COUNTRY
SRVC.                     Gearhart : SERVICE COMPANY
DATE.                  14-May-1982 : LOGDATE
API .               42177313020000 : API NUMBER
UWI .               42177313020000 : UNIQUE WELL ID
SLAT.WGS84           29.2601634087 : SURFACE LATITUDE
SLON.WGS84           -97.649653003 : SURFACE LONGITUDE
~Curve Information -----------------------------------------
DEPT   .FT                         : DEPTH FEET
CALWS  .IN                         : CALIPER [CALDED/CALXRED@3000,(CALXRED+CALYED)/2@7290]
CALXDED.IN                         : CALIPER X FROM DENSITY LOG
CALXRED.IN                         : CALIPER X FROM RES. LOG
CALYED .IN                         : CALIPER Y FROM DENSITY LOG [DEPTH SHIFTED TO RES.]
CDLLSED.V/V                        : DENSITY POROSITY LIMESTONE FROM DENSITY LOG [DEPTH SHIFTED TO RES.]
CDLSSED.V/V                        : DENSITY POROSITY SANDSTONE FROM DENSITY LOG
CNSLSED.V/V                        : NEUTRON POROSITY LIMESTONE FROM DENSITY LOG [DEPTH SHIFTED TO RES.]
CONDWS .MMHO                       : CONDUCTIVITY [1000/DRESWS]
DCORWS .G/C3                       : DENSITY CORRECTION [DRHOED]
DENWS  .G/C3                       : BULK DENSITY [M=2.65 F=1.0 TO 2500 FEET, THEN M=2.71, F=1 FROM 7000 FEET TO TD] [CALCULATED FROM CDLSSED AND CDLLSED]
DPOWS  .V/V                        : DENSITY POROSITY [M=2.71 F=1.0] [CALCULATED FROM DENWS]
DRESWS .OHMM                       : DEEP RESISTIVITY [RILDED]
DRHOED .G/C3                       : DENSITY CORRECTION FROM DENSITY LOG [DEPTH SHIFTED TO RES. IN DEEP SECTION]
DTED   .US/F                       : DELTA TIME FROM SONIC LOG
DTWS   .US/F                       : DELTA TIME [DTED]
GRDED  .GAPI                       : GAMMA RAY FROM DENSITY LOG [DEPTH SHIFTED TO RES. IN DEEP SECTION]
GRRED  .GAPI                       : GAMMA RAY FROM RESISTIVITY LOG
GRWS   .GAPI :   GAMMA RAY [SPLICE : GRDED/GRRED@3500, GRDED@7916]
MRESWS .OHMM                       : MEDIUM RESISTIVITY [RILMED]
NPOWS  .V/V                        : NEUTRON POROSITY LIMESTONE [CNSLSED]
RHOBED .G/C3                       : BULK DENSITY FROM DENSITY LOG [DEPTH SHIFTED TO RES. IN DEEP SECTION]
RILDED .OHMM                       : INDUCTION LOG DEEP RESISTIVITY
RILMED .OHMM                       : INDUCTION LOG MEDIUM RESISTIVITY
RLLED  .OHMM                       : LATEROLOG RESISTIVITY
SPRED  .MV                         : SPONTANEOUS POTENTIAL FROM RESISTIVITY LOG
SPWS   .MV                         : SPONTANEOUS POTENTIAL [BASELINE 0 MV] [SPRED]
SRESWS .OHMM                       : SHALLOW RESISTIVITY [SFLUED]
TENDED .LBF                        : TENSION FROM DENSITY LOG
~Params ----------------------------------------------------
PD  .                     GL : PERMANENT DATUM
EPD .FT                  261 : ELEVATION PERMANENT DATUM
LMF .                     KB : LOG MEASURED FROM
DAPD.FT                   11 : FEET ABOVE PERMANENT DATUM
DMF .                     KB : DRILLING MEASURED FROM
EKB .FT                  272 : KELLY BUSHING
EDF .FT                  271 : DRILLING FLOOR
EGL .FT                  261 : GROUND LEVEL
DATE.               05/14/82 : RUN DATE
RUN .                      1 : RUN NUMBER
DD  .FT                 8140 : DEPTH DRILLER
DL  .FT                 8090 : DEPTH LOGGER
BLI .FT                 8089 : BOTTOM LOG INTERVAL
CS  .IN                9.625 : CASING SIZE
CBD .FT                 8421 : CASING BOTTOM DRILLER
CBL .FT                 8428 : CASING BOTTOM LOGGER
BS  .IN                  8.5 : BIT SIZE
BSD .FT                 8140 : BIT SIZE AT DEPTH
DFT .          NON DISPERSED : DRILLING FLUID TYPE
DFD .                    9.2 : DRILLING FLUID DENSITY
DFV .                     50 : DRILLING FLUID VISCOSITY
DFPH.                   1.05 : DRILLING FLUID PH
DFL .                      6 : DRILLING FLUID LOSS
MSS .               FLOWLINE : MUD SAMPLE SOURCE
MST .DEGF                 75 : MUD SAMPLE TEMPERATURE
MFST.DEGF                 75 : MUD FILTRATE SAMPLE TEMPERATURE
RMC .OHMM                3.7 : RESISTIVITY MUD CAKE
MCST.DEGF                 75 : MUD CAKE SAMPLE TEMPERATURE
MFSS.                      M : MUD FILTRATE SAMPLE SOURCE
MCSS.                      M : MUD CAKE SAMPLE SOURCE
TCS .HRS                1210 : TIME CIRCULATED STOPPED
LUL .                  BRYAN : LOGGING UNIT LOCATION
CLNT.                A2DTECH : CLIENT CODE
ORIG.               5" PRINT : ORIGIN OF DATA
UWI .         42177313020000 : UNIQUE WELL ID
DICO. A2D Technologies, Inc. : DIGITIZING COMPANY
~Other -----------------------------------------------------
~ASCII -----------------------------------------------------
# ...
 6750.00000    9.38100    -999.25    9.38100    -999.25    -999.25    -999.25    -999.25  819.73930    -999.25    -999.25    -999.25    1.21990    -999.25   96.16350   96.16350    -999.25   79.63570   79.63570    1.27620    -999.25    -999.25    1.21990    1.27620    1.45180  -30.43580  -11.89820    1.45180    -999.25
 6800.00000    9.86150    -999.25    9.86150    -999.25    -999.25    -999.25    -999.25  811.42490    -999.25    -999.25    -999.25    1.23240    -999.25   91.78970   91.78970    -999.25   76.85420   76.85420    1.29360    -999.25    -999.25    1.23240    1.29360    1.49820  -28.33560   -9.59030    1.49820    -999.25
 6850.00000   10.01810    -999.25   10.01810    -999.25    -999.25    -999.25    -999.25  743.82620    -999.25    -999.25    -999.25    1.34440    -999.25   91.65450   91.65450    -999.25   79.66370   79.66370    1.45350    -999.25    -999.25    1.34440    1.45350    1.69940  -27.75430   -8.80140    1.69940    -999.25
 6900.00000   10.01940    -999.25   10.01940    -999.25    -999.25    -999.25    -999.25  788.33270    -999.25    -999.25    -999.25    1.26850    -999.25   93.66330   93.66330    -999.25   86.07600   86.07600    1.34850    -999.25    -999.25    1.26850    1.34850    1.44100  -27.88530   -8.72480    1.44100    -999.25
 6950.00000    9.96450    -999.25    9.96450    -999.25    -999.25    -999.25    -999.25  704.42380    -999.25    -999.25    -999.25    1.41960    -999.25   91.49020   91.49020    -999.25   80.88800   80.88800    1.52760    -999.25    -999.25    1.41960    1.52760    1.58990  -27.11920   -7.75100    1.58990    -999.25
 7000.00000    9.76450    -999.25    9.76450    -999.25    -999.25    -999.25    -999.25  624.64860    -999.25    -999.25    -999.25    1.60090    -999.25   89.82520   89.82520    -999.25   72.27170   72.27170    1.68590    -999.25    -999.25    1.60090    1.68590    1.77480  -25.08520   -5.50940    1.77480    -999.25
 7050.00000   10.14610    -999.25   10.14610    -999.25    -999.25    -999.25    -999.25  695.21690    -999.25    -999.25    -999.25    1.43840    -999.25   90.01350   90.01350    -999.25   72.21200   72.21200    1.51330    -999.25    -999.25    1.43840    1.51330    1.56690  -22.82770   -3.04430    1.56690    -999.25
 7100.00000   10.14200    -999.25   10.14200    -999.25    -999.25    -999.25    -999.25  839.20780    -999.25    -999.25    -999.25    1.19160    -999.25   95.75120   95.75120    -999.25   73.19110   73.19110    1.24680    -999.25    -999.25    1.19160    1.24680    1.31480  -21.71720   -1.72610    1.31480    -999.25
 7150.00000   10.75660    -999.25   10.75660    -999.25    -999.25    -999.25    -999.25  816.72660    -999.25    -999.25    -999.25    1.22440    -999.25   94.85600   94.85600    -999.25   71.54580   71.54580    1.28720    -999.25    -999.25    1.22440    1.28720    1.37250  -22.18740   -2.47920    1.37250    -999.25
 7200.00000   10.16220    -999.25   10.16220    -999.25    -999.25    -999.25    -999.25  759.99390    -999.25    -999.25    -999.25    1.31580    -999.25   97.99190   97.99190    -999.25   84.68170   84.68170    1.26140    -999.25    -999.25    1.31580    1.26140    1.17820  -21.06020   -1.75000    1.17820    -999.25
 7250.00000   10.02390    -999.25   10.02390    -999.25    -999.25    -999.25    -999.25  588.13150    -999.25    -999.25    -999.25    1.70030    -999.25   88.12340   88.12340    -999.25   74.26860   74.26860    1.60800    -999.25    -999.25    1.70030    1.60800    1.54330  -23.52700   -4.61470    1.54330    -999.25
 7300.00000   11.81720    -999.25   11.76310   11.87120    0.15110    -999.25    0.36600  658.54460    0.12930    2.40070    0.18090    1.51850    0.12930   92.09830   92.09830   65.08520   72.46670   72.46670    1.42920    0.36600    2.45070    1.51850    1.42920    1.38150  -24.82760   -6.31320    1.38150    -999.25
 7350.00000   13.40210    -999.25   13.48950   13.31470    0.23510    -999.25    0.40970 1030.82160    0.16610    2.26210    0.26190    0.97010    0.16610   98.81320   98.81320   69.25010   71.30800   71.30800    1.03340    0.40970    2.30460    0.97010    1.03340    1.09480  -25.93120   -7.81480    1.09480    -999.25
 7400.00000   11.03600    -999.25   11.09210   10.98000    0.17750    -999.25    0.36070  853.60650    0.16400    2.35710    0.20640    1.17150    0.16400  100.45660  100.45660   80.78530   83.17810   83.17810    1.10200    0.36070    2.40530    1.17150    1.10200    0.93880  -24.73910   -7.02060    0.93880    -999.25
 7450.00000    9.99050    -999.25    9.94680   10.03420    0.08480    -999.25    0.16670  292.62010    0.02840    2.51010    0.11690    3.41740    0.02840   74.90910   74.90910   52.74090   56.97150   56.97150    3.55210    0.16670    2.56370    3.41740    3.55210    3.60130  -23.68480   -6.36420    3.60130    -999.25
 7500.00000    9.93700    -999.25    9.84960   10.02440    0.07830    -999.25    0.14670  236.68080    0.02560    2.52080    0.11060    4.22510    0.02560   72.82280   72.82280   43.92410   47.36090   47.36090    4.35780    0.14670    2.57500    4.22510    4.35780    4.49140  -29.14990  -12.22720    4.49140    -999.25
 7550.00000   10.02010    -999.25    9.97480   10.06530    0.06730    -999.25    0.11940  219.51970    0.03180    2.53900    0.10000    4.55540    0.03180   68.30550   68.30550   28.61610   29.71430   29.71430    4.72040    0.11940    2.59350    4.55540    4.72040    4.92590  -23.69880   -7.17410    4.92590    -999.25
 7600.00000    9.24220    -999.25    9.12560    9.35880    0.08980    -999.25    0.11450  328.51510    0.11220    2.50180    0.12170    3.04400    0.11220   64.43580   64.43580   51.45000   53.16330   53.16330    3.73190    0.11450    2.56110    3.04400    3.73190   12.71590  -22.10950   -5.98270   12.71590    -999.25
 7650.00000    9.34670    -999.25    9.23000    9.46330    0.05160    -999.25    0.06670  134.38510    0.03070    2.56490    0.08490    7.44130    0.03070   58.54910   58.54910   24.11910   24.84470   24.84470    8.36770    0.06670    2.62160    7.44130    8.36770   10.06130  -35.03510  -18.96800   10.06130    -999.25
 7700.00000    8.89270    -999.25    8.74520    9.04020    0.07370    -999.25    0.07230  107.59510    0.02890    2.52840    0.10620    9.29410    0.02890   59.88890   59.88890   21.06680   26.48760   26.48760   10.93570    0.07230    2.57860    9.29410   10.93570   13.11550  -37.74760  -21.68050   13.11550    -999.25
 7750.00000    8.95500    -999.25    8.89080    9.01920    0.05840    -999.25    0.06770   95.94630    0.04840    2.55360    0.09140   10.42250    0.04840   60.58820   60.58820   22.18730   23.68850   23.68850   14.90530    0.06770    2.60750   10.42250   14.90530   21.77400  -42.68100  -26.61390   21.77400    -999.25
 7800.00000    8.97480    -999.25    8.92030    9.02940    0.08220    -999.25    0.11160   47.38260    0.02370    2.51440    0.11440   21.10480    0.02370   71.37640   71.37640   38.37330   48.84740   48.84740   28.26600    0.11160    2.56600   21.10480   28.26600   34.32060  -29.97900  -13.91190   34.32060    -999.25
 7850.00000    9.15950    -999.25    9.02690    9.29220    0.10600    -999.25    0.16290   64.69940    0.04180    2.47510    0.13740   15.45610    0.04180   76.00980   76.00980   50.20490   50.85410   50.85410   16.00350    0.16290    2.52740   15.45610   16.00350   18.69550  -41.93620  -25.86910   18.69550    -999.25
 7900.00000    9.25630    -999.25    9.13370    9.37880    0.11560    -999.25    0.19490   38.63840    0.03710    2.45930    0.14660   25.88100    0.03710   74.94340   74.94340   76.78970   80.59050   80.59050   28.89840    0.19490    2.51690   25.88100   28.89840   48.84050  -32.09040  -16.02330   48.84050    -999.25
 7950.00000    8.91460    -999.25    8.83660    8.99260    0.03360    -999.25    0.03080   24.74650    0.02710    2.59460    0.06750   40.40980    0.02710   51.57680   51.57680   16.20060    -999.25   16.20060   38.05390    0.03080    2.65340   40.40980   38.05390   73.01860  -59.75450  -43.68740   73.01860    -999.25
