~Version ---------------------------------------------------
VERS. 2.0 : CWLS log ASCII Standard -VERSION 2.0
WRAP.  NO : ONE LINE PER DEPTH STEP
~Well ------------------------------------------------------
STRT.F                     1050.0 : START DEPTH
STOP.F                     8950.0 : STOP DEPTH
STEP.F                   50.00000 : STEP LENGTH
NULL.                     -999.25 : NULL VALUE
COMP. GOLDKING PRODUCTION COMPANY : COMPANY
WELL.                   ARNOLD #1 : WELL
FLD .                    MAPLETON : FIELD
LOC .                             : LOCATION
CNTY.                     HOUSTON : COUNTY
STAT.                       TEXAS : STATE
CTRY.    UNITED STATES OF AMERICA : COUNTRY
SRVC.                Schlumberger : SERVICE COMPANY
DATE.                 12-Dec-1983 : LOGDATE
API .              42225305060000 : API NUMBER
UWI .              42225305060000 : UNIQUE WELL ID
SLAT.WGS84          31.1486438715 : SURFACE LATITUDE
SLON.WGS84         -95.7163273837 : SURFACE LONGITUDE
~Curve Information -----------------------------------------
DEPT   .F    0   1   0  0 : 1 MEASURED DEPTH
CALR   .IN   07 280 01 00 : CALIPER FROM RESISTIVITY LOG
ILD    .OHMM 07 120 46 00 : INDUCTION DEEP RESISTIVITY
ILM    .OHMM 07 120 44 00 : INDUCTION MEDIUM RESISTIVITY
SFLU   .OHMM 07 220 01 00 : SHALLOW FOCUSED RESISTIVITY (UNAVERAGED)
SPR    .MV   07 010 01 00 : SPONTANEOUS POTENTIAL FROM RESISTIVITY LOG
DRHO   .G/C3 45 356 01 00 : BULK DENSITY CORRECTION
DPHI_LS.DEC  45 890 10 00 : DENSITY POROSITY LIMESTONE
NPHI_LS.DEC  42 890 01 00 : NEUTRON POROSITY LIMESTONE
GRR    .GAPI 07 310 01 00 : GAMMA RAY FROM RESISTIVITY LOG
DPHI_SS.DEC  45 890 12 00 : DENSITY POROSITY SANDSTONE
NPHI_SS.DEC  42 890 03 00 : NEUTRON POROSITY SANDSTONE
~Params ----------------------------------------------------
PD  .                     GL : PERMANENT DATUM
EPD .FT                162.6 : ELEVATION PERMANENT DATUM
LMF .                    RKB : LOG MEASURED FROM
DAPD.FT                   22 : FEET ABOVE PERMANENT DATUM
DMF .                    RKB : DRILLING MEASURED FROM
EKB .FT                184.6 : KELLY BUSHING
EDF .FT                183.6 : DRILLING FLOOR
EGL .FT                162.6 : GROUND LEVEL
DATE.               12/12/83 : RUN DATE
RUN .                      1 : RUN NUMBER
DD  .FT                 9000 : DEPTH DRILLER
DL  .FT                 8999 : DEPTH LOGGER
BLI .FT                 8993 : BOTTOM LOG INTERVAL
TLI .FT                 1009 : TOP LOG INTERVAL
CS  .IN                9.625 : CASING SIZE
CBD .FT                 1008 : CASING BOTTOM DRILLER
CBL .FT                 1009 : CASING BOTTOM LOGGER
BS  .IN                 8.75 : BIT SIZE
BSD .FT                 9000 : BIT SIZE AT DEPTH
DFT .                LIG CLS : DRILLING FLUID TYPE
DFD .                    9.9 : DRILLING FLUID DENSITY
DFV .                     46 : DRILLING FLUID VISCOSITY
DFPH.                   10.5 : DRILLING FLUID PH
DFL .                    2.8 : DRILLING FLUID LOSS
MSS .                    PIT : MUD SAMPLE SOURCE
RMS .OHMM                  2 : RESISTIVITY MUD SAMPLE
MST .DEGF                 73 : MUD SAMPLE TEMPERATURE
RMF .OHMM               1.78 : RESISTIVITY MUD FILTRATE SAMPLE
MFST.DEGF                 73 : MUD FILTRATE SAMPLE TEMPERATURE
RMC .OHMM               1.76 : RESISTIVITY MUD CAKE
MCST.DEGF                 73 : MUD CAKE SAMPLE TEMPERATURE
MFSS.                     PR : MUD FILTRATE SAMPLE SOURCE
MCSS.                   CALC : MUD CAKE SAMPLE SOURCE
RMB .OHMM              0.769 : RESISTIVITY MUD AT BHT
TCS .HRS                1700 : TIME CIRCULATED STOPPED
TLAB.HRS                 110 : TIME LOGGER AT BOTTOM
LUN .                   8276 : LOGGING UNIT NUMBER
LUL .                  TYLER : LOGGING UNIT LOCATION
ENGI.                HAWKINS : RECORDING ENGINEER
CLNT.                A2DTECH : CLIENT CODE
ORIG.            1" 5" PRINT : ORIGIN OF DATA
UWI .         42225305060000 : UNIQUE WELL ID
DICO. A2D Technologies, Inc. : DIGITIZING COMPANY
~Other -----------------------------------------------------
~ASCII -----------------------------------------------------
# ...
 7150.00000    9.71370    3.97500    4.11210    4.47140  -13.59570    0.03890    0.06360    0.15960   61.79400    -999.25    -999.25
 7200.00000    9.74510    3.25670    3.36960    3.69080  -17.09070    0.04650    0.05930    0.20150   89.93700    -999.25    -999.25
 7250.00000   10.99490    1.95520    2.02240    2.13450  -19.55670    -999.25    0.09530    0.29800  112.60350    -999.25    -999.25
 7300.00000   11.58450    2.03750    2.10610    2.34840  -18.96690    -999.25    0.09290    0.28160   98.41840    -999.25    -999.25
 7350.00000   11.64890    1.88010    1.94650    2.16460  -21.50050    -999.25    0.07080    0.26080   99.01790    -999.25    -999.25
 7400.00000   12.16290    1.75980    1.82060    2.07270  -21.40240    -999.25    0.09620    0.31050  102.31220    -999.25    -999.25
 7450.00000   11.09560    2.27250    2.34900    2.71210  -21.35510    0.10220    0.05610    0.20480   81.34510    -999.25    -999.25
 7500.00000   11.99200    1.69480    1.75210    1.96250  -22.64640    0.09480    0.09260    0.28800  100.15480    -999.25    -999.25
 7550.00000    9.52520    4.01440    4.34590    4.99030  -19.51380    0.01340    0.06700    0.14260   60.31500    -999.25    -999.25
 7600.00000    9.81530    6.58830    7.19120   11.60490  -19.81600    0.02460    0.03530    0.07830   38.61780    -999.25    -999.25
 7650.00000    9.32670    8.53580    9.13640    9.21010  -20.85390    0.01980    0.05880    0.10110   42.55370    -999.25    -999.25
 7700.00000    9.30600    8.03900    8.77520    7.30030  -32.64040   -0.00300    0.08310    0.10450   52.48770    -999.25    -999.25
 7750.00000    9.24720   11.67550   13.35490   14.76320  -29.27200    0.00220    0.06560    0.07290   51.22450    -999.25    -999.25
 7800.00000    9.03250    2.04330    2.52750    3.76520  -73.01840    0.08480    -999.25    -999.25   51.21460    0.11940    0.22450
 7850.00000   11.39140    2.14900    2.40220    2.36130  -23.61610    -999.25    -999.25    -999.25   93.58830    0.10660    0.36820
 7900.00000   15.98680    1.43430    1.48610    1.67390  -23.17380    -999.25    -999.25    -999.25   93.27270    0.12330    0.44770
 7950.00000    8.79930    1.88770    2.44230    8.88450 -102.31060    0.10200    -999.25    -999.25   26.90940    0.11570    0.16500
 8000.00000    8.73560    1.01510    1.39960    5.21500 -104.56170    0.08780    -999.25    -999.25   30.25730    0.14920    0.17930
 8050.00000    8.93550    0.89310    1.33760    7.52370 -130.43810    0.01570    -999.25    -999.25   16.34960    0.18340    0.14110
 8100.00000   10.21250    1.21070    1.69140    5.51780 -104.91840    0.09570    -999.25    -999.25   30.45830    0.14350    0.18830
 8150.00000    9.18420    3.11350    3.26660    6.82660  -64.79380    -999.25    -999.25    -999.25   37.30670    0.08030    0.15030
 8200.00000    9.65740    7.10730    7.36820    8.36890  -17.02400    0.03750    -999.25    -999.25   72.12650    0.04870    0.16030
 8250.00000   11.58140    2.71500    2.81260    4.35250  -15.25540    -999.25    -999.25    -999.25   86.71130    0.05110    0.37190
 8300.00000   10.28400    2.51710    2.69730    2.85870  -15.16550    -999.25    -999.25    -999.25   84.01590    0.12510    0.30270
 8350.00000    9.54180    3.77900    5.14500   10.69630  -65.32090    0.03620    -999.25    -999.25   30.52820    0.10360    0.14460
 8400.00000   13.83840    2.01250    2.09930    1.98810  -14.43230    -999.25    -999.25    -999.25   84.32210    0.41220    0.36810
 8450.00000   10.83130    2.09760    2.19110    2.83950  -11.67260    -999.25    -999.25    -999.25   97.70980    0.02800    0.29810
 8500.00000   10.56040    1.95730    2.04860    2.09680  -13.78530    -999.25    -999.25    -999.25   94.75820    0.09200    0.36410
 8550.00000    9.86100    2.10990    2.25390    3.08690  -18.98350    -999.25    -999.25    -999.25   91.64670    0.08730    0.32300
 8600.00000   10.64590    1.70390    1.77300    2.09420  -18.21290    -999.25    -999.25    -999.25   92.35630    0.13340    0.36510
 8650.00000   11.88230    1.70100    1.76200    2.28940  -15.32540    -999.25    -999.25    -999.25   95.99800    0.08050    0.38850
 8700.00000   11.92020    2.14760    1.88010    2.79940  -17.58950    -999.25    0.08610    0.81000   95.91150    -999.25    -999.25
 8750.00000   10.84340    2.83230    2.47120    4.80020  -16.10560    -999.25    0.11870    0.80940  100.37000    -999.25    -999.25
 8800.00000    9.53680    2.02250    1.95110    2.32200  -15.09770    0.09990    0.05020    0.79600   85.44650    -999.25    -999.25
 8850.00000    9.32300   24.03270   25.00780   22.45000  -28.87070    0.03800    0.02120    0.52270   18.34780    -999.25    -999.25
 8900.00000    8.95880   17.26990   19.06070   25.23880   -4.41870    0.02600    0.03370    0.54040   24.99430    -999.25    -999.25
 8950.00000    8.89520   20.50240   23.66200   25.16410  -16.10290    0.00900    0.04360    0.52470   25.85540    -999.25    -999.25
