~Version ---------------------------------------------------
VERS. 2.0 : CWLS log ASCII Standard -VERSION 2.0
WRAP.  NO : ONE LINE PER DEPTH STEP
~Well ------------------------------------------------------
STRT.FT                 2900.0 : START DEPTH
STOP.FT                 7750.0 : STOP DEPTH
STEP.FT               50.00000 : STEP LENGTH
NULL.                  -999.25 : NULL VALUE
COMP.  ENERGETICS INCORPORATED : COMPANY
WELL.       W. D. NORRIS JR #1 : WELL
FLD .               SMILEY, SE : FIELD
LOC .                          : LOCATION
CNTY.                 GONZALES : COUNTY
STAT.                    TEXAS : STATE
CTRY. UNITED STATES OF AMERICA : COUNTRY
SRVC.             Schlumberger : SERVICE COMPANY
DATE.              23-Apr-1981 : LOGDATE
API .           42177309400000 : API NUMBER
UWI .           42177309400000 : UNIQUE WELL ID
SLAT.WGS84       29.2479234294 : SURFACE LATITUDE
SLON.WGS84      -97.6816438125 : SURFACE LONGITUDE
~Curve Information -----------------------------------------
DEPT  .FT    : DEPTH FEET
DCALR .IN    : DIFFERENTIAL CALIPER FROM RESISTIVITY LOG
DPHILS.V/V   : DENSITY POROSITY LIMESTONE FROM DENSITY LOG
DPHISS.V/V   : DENSITY POROSITY SANDSTONE FROM DENSITY LOG
DRHO  .G/C3  : DENSITY CORRECTION FROM DENSITY LOG
GRR   .GAPI  : GAMMA RAY FROM RESISTIVITY LOG
ILD   .OHMM  : INDUCTION LOG DEEP RESISTIVITY
ILM   .OHMM  : INDUCTION LOG MEDIUM RESISTIVITY
NPHILS.V/V   : NEUTRON POROSITY LIMESTONE FROM DENSITY LOG
NPHISS.V/V   : NEUTRON POROSITY SANDSTONE FROM DENSITY LOG
SFLU  .OHMM  : SPHERICALLY FOCUSED LOG RESISTIVITY
SPR   .MV    : SPONTANEOUS POTENTIAL FROM RESISTIVITY LOG
~Params ----------------------------------------------------
PD  .                     GL : PERMANENT DATUM
EPD .FT                  280 : ELEVATION PERMANENT DATUM
LMF .                     KB : LOG MEASURED FROM
DMF .                     KB : DRILLING MEASURED FROM
EGL .FT                  280 : GROUND LEVEL
DATE.               04/23/81 : RUN DATE
RUN .                      1 : RUN NUMBER
DD  .FT                 7775 : DEPTH DRILLER
DL  .FT                 7759 : DEPTH LOGGER
BLI .FT                 7752 : BOTTOM LOG INTERVAL
TLI .FT                 2896 : TOP LOG INTERVAL
CS  .IN                8.625 : CASING SIZE
CBD .FT                 2926 : CASING BOTTOM DRILLER
CBL .FT                 2896 : CASING BOTTOM LOGGER
BS  .IN                7.875 : BIT SIZE
BSD .FT                 7775 : BIT SIZE AT DEPTH
DFT .             LIGNOSULF. : DRILLING FLUID TYPE
DFD .                    9.3 : DRILLING FLUID DENSITY
DFV .                     38 : DRILLING FLUID VISCOSITY
DFPH.                   10.5 : DRILLING FLUID PH
DFL .                    8.4 : DRILLING FLUID LOSS
MSS .              CIRC TANK : MUD SAMPLE SOURCE
RMS .OHMM               1.35 : RESISTIVITY MUD SAMPLE
MST .FT                   75 : MUD SAMPLE TEMPERATURE
RMF .OHMM               1.22 : RESISTIVITY MUD FILTRATE SAMPLE
MFST.FT                   75 : MUD FILTRATE SAMPLE TEMPERATURE
RMC .OHMM               2.03 : RESISTIVITY MUD CAKE
MCST.FT                   75 : MUD CAKE SAMPLE TEMPERATURE
MFSS.                      M : MUD FILTRATE SAMPLE SOURCE
MCSS.                      C : MUD CAKE SAMPLE SOURCE
RMB .OHMM               0.55 : RESISTIVITY MUD AT BHT
TCS .HRS                1300 : TIME CURCULATED STOPPED
TLAB.HRS                1830 : TIME LOGGER AT BOTTOM
LUN .                   8005 : LOGGING UNIT NUMBER
LUL .               VICTORIA : LOGGING UNIT LOCATION
ENGI.            LOEVY LANCI : RECORDING ENGINEER
WITN.        WALTERS RUSSELL : WITNESSED BY
CLNT.                A2DTECH : CLIENT CODE
ORIG.               5" PRINT : ORIGIN OF DATA
UWI .         42177309400000 : UNIQUE WELL ID
DICO. A2D Technologies, Inc. : DIGITIZING COMPANY
~Other -----------------------------------------------------
~ASCII -----------------------------------------------------
 2900.00000   44.77260    -999.25    0.30320    0.10070   89.05800    5.31830    2.56020    -999.25    0.45130    3.58960   -8.48690
 2950.00000   41.98830    -999.25    0.25080    0.07240   88.34060    2.60680    2.70630    -999.25    0.42310    2.89070   -6.38070
 3000.00000   41.42930    -999.25    0.12420    0.03700   74.52190    3.19130    3.99130    -999.25    0.29990   10.03710   -6.09110
 3050.00000   42.00890    -999.25    0.28170    0.07910   92.58340    2.35130    2.46930    -999.25    0.51390    2.22300   -6.75700
 3100.00000   41.98610    -999.25    0.23980    0.09170   97.00300    2.31060    2.22630    -999.25    0.40850    2.67520   -5.80780
 3150.00000   41.51410    -999.25    0.28410    0.02060   85.03920    2.01240    2.15330    -999.25    0.44830    2.24840   -7.75780
 3200.00000   41.03960    -999.25    0.23320    0.01090   97.85150    3.88400    4.02340    -999.25    0.35150    4.16120   -8.93600
 3250.00000   41.48220    -999.25    0.21840    0.04850   92.57610    3.46100    3.58890    -999.25    0.36780    4.26100   -6.63210
 3300.00000   40.67860    -999.25    0.30200    0.00500   67.83270    7.32940    7.00820    -999.25    0.34540    6.80830   -6.59770
 3350.00000   40.30750    -999.25    0.30410    0.00450   69.99120    7.34900    7.22200    -999.25    0.37280    7.02800   -5.92050
 3400.00000   40.41170    -999.25    0.24980    0.01420   84.94620    5.87130    5.67440    -999.25    0.35180    5.53050  -11.43100
 3450.00000   40.48840    -999.25    0.27870    0.02740  101.33720    5.75030    5.43370    -999.25    0.33980    5.34360   -6.51420
 3500.00000   40.45550    -999.25    0.30350    0.00650   65.89020    7.14390    6.64050    -999.25    0.35100    6.26890   -7.38520
 3550.00000   40.57800    -999.25    0.30060    0.00220   81.06440    6.13780    6.60990    -999.25    0.35240    6.71160   -8.55570
 3600.00000   40.54840    -999.25    0.25500    0.03230   75.09480    5.74960    5.88350    -999.25    0.34400    6.00140   -8.92440
 3650.00000   40.59490    -999.25    0.23500    0.00100   61.33310    8.88380    9.67900    -999.25    0.28040   10.36200   -7.25250
 3700.00000   40.00810    -999.25    0.28920    0.01030   69.87270    8.22040    7.96880    -999.25    0.36080    7.63270   -6.50740
 3750.00000   40.06080    -999.25    0.31330   -0.00030   64.01500    6.51560    5.82100    -999.25    0.34780    6.69130   -7.56340
 3800.00000   40.23670    -999.25    0.28880    0.01090   63.36570    7.13970    7.01490    -999.25    0.32370    6.79980   -7.12230
 3850.00000   39.85510    -999.25    0.30550    0.00220   65.54690    7.07070    6.87000    -999.25    0.35750    6.73330   -5.82530
 3900.00000   40.13590    -999.25    0.31100   -0.00030   66.02330    6.77800    6.63850    -999.25    0.32100    6.53190   -6.41170
 3950.00000   42.46380    -999.25    0.21520    0.05120  102.53970    1.30870    1.37800    -999.25    0.41500    1.45970   -0.98280
 4000.00000   40.06480    -999.25    0.24160    0.02120   76.54610    2.87020    2.99870    -999.25    0.37510    4.03560   -4.09820
 4050.00000   40.02450    -999.25    0.28500   -0.00050   48.61530    6.15180    6.34100    -999.25    0.32350    6.55960   -4.55180
 4100.00000   40.03380    -999.25    0.28100    0.01360   44.96370    7.31490    7.11030    -999.25    0.30420    6.70500   -3.39970
 4150.00000   40.01790    -999.25    0.29420    0.01230   49.98000    6.60900    6.80070    -999.25    0.32180    7.13580   -5.59480
 4200.00000   40.38230    -999.25    0.33730    0.07080   69.05890    5.43640    5.00200    -999.25    0.34390    4.50960   -2.18930
 4250.00000   39.89190    -999.25    0.27220    0.01480   55.27680    6.92200    7.28740    -999.25    0.32260    7.44230   -5.40920
 4300.00000   40.21270    -999.25    0.27330    0.01650   52.55650    7.18330    6.91540    -999.25    0.31350    7.56690   -8.76420
 4350.00000   40.08430    -999.25    0.25110    0.01630   61.82110    5.86220    6.02680    -999.25    0.31250    6.30290   -8.61160
 4400.00000   39.89850    -999.25    0.28250    0.00210   49.41790    7.77610    7.85610    -999.25    0.29970    8.11170   -7.60750
 4450.00000   40.01490    -999.25    0.26740    0.00990   57.15110    6.02860    6.20180    -999.25    0.31040    6.53750   -8.71550
 4500.00000   40.49850    -999.25    0.19480    0.06580  108.65730    2.05090    1.87630    -999.25    0.35010    2.27940   -3.95700
 4550.00000   39.88810    -999.25    0.25360    0.00200   58.66500    7.45190    7.77860    -999.25    0.32420    8.27800   -9.74970
 4600.00000   40.05890    -999.25    0.23900    0.01630   64.19450    6.08940    6.46290    -999.25    0.32630    6.84060  -11.59600
 4650.00000   40.23490    -999.25    0.24670    0.02270   93.77510    3.84120    4.24200    -999.25    0.35090    4.36030   -9.10060
 4700.00000   40.17110    -999.25    0.18910    0.08670   98.87600    2.11560    2.30900    -999.25    0.35840    2.72490   -3.67000
 4750.00000   39.97050    -999.25    0.20140    0.03560   47.55370    6.01600    7.01820    -999.25    0.30040    8.49700  -25.58020
 4800.00000   40.64200    -999.25    0.13100    0.07210  121.03400    2.13300    2.18380    -999.25    0.34730    2.50670   -2.33820
 4850.00000   42.38420    -999.25    0.28500    -999.25  117.32410    1.59840    1.69310    -999.25    0.37170    1.94990   -6.01580
 4900.00000   40.49000    -999.25    0.11910    0.04970  109.34810    2.52020    2.62980    -999.25    0.32910    2.92070   -6.05670
 4950.00000   40.55830    -999.25    0.18500    0.01310  106.92480    2.82130    3.37180    -999.25    0.30450    4.71560  -24.26250
 5000.00000   40.95450    -999.25    0.14310    0.01140  102.34740    2.52620    2.54110    -999.25    0.30180    2.98920   -6.46190
 5050.00000   41.03690    -999.25    0.14040    0.01800  114.03900    2.24120    2.34670    -999.25    0.32610    2.72970   -2.88310
 5100.00000   41.24840    -999.25    0.11040    0.01930  110.04900    2.38890    2.46420    -999.25    0.29860    2.84590   -3.09040
 5150.00000   42.48350    -999.25    0.13450    0.09010  100.87670    1.80940    1.88830    -999.25    0.35960    1.98240   -2.29040
 5200.00000   41.75400    -999.25    0.12000    0.08020  109.86560    1.89750    1.99160    -999.25    0.36320    2.20410   -1.33270
 5250.00000   42.59610    -999.25    0.11520    0.09420  110.19110    1.51740    1.59550    -999.25    0.35630    1.82530   -2.42420
 5300.00000   42.89900    -999.25    0.11620    0.06630  107.77960    1.39410    1.48170    -999.25    0.36450    1.71350  -91.16390
 5350.00000   42.58430    -999.25    0.09970    0.08430  105.87370    1.43400    1.53780    -999.25    0.35840    1.71830  -10.11610
 5400.00000   42.90540    -999.25    0.13340    0.09970  104.81050    1.28290    1.36460    -999.25    0.37550    1.58020  -13.09760
 5450.00000   42.45320    -999.25    0.15130    -999.25  113.32470    1.13400    1.23640    -999.25    0.39340    1.41950  -15.00040
 5500.00000   42.60340    -999.25    0.14960    -999.25  112.00650    1.22250    1.32270    -999.25    0.40410    1.46640  -16.34320
 5550.00000   42.84340    -999.25    0.21620    -999.25  101.23810    1.04610    1.11510    -999.25    0.37510    1.28570  -15.85750
 5600.00000   42.63360    -999.25    0.17130    -999.25   91.31670    1.15110    1.24510    -999.25    0.33410    1.36570  -13.60410
 5650.00000   41.25170    -999.25    0.12770    0.05020   84.72430    1.24970    1.40250    -999.25    0.31310    1.60420  -20.64880
 5700.00000   41.87900    -999.25    0.22320    -999.25  106.40370    0.96540    1.02540    -999.25    0.39760    1.05920  -17.74390
 5750.00000   40.67680    -999.25    0.10660    0.01840  100.45120    1.89350    2.02560    -999.25    0.27920    2.28200  -16.48820
 5800.00000   41.44530    -999.25    0.08120    -999.25   93.74990    1.58680    1.66600    -999.25    0.33920    1.86550  -10.01470
 5850.00000   40.62720    -999.25    0.08920    0.01070   83.32870    2.60360    2.75520    -999.25    0.24790    2.95300  -12.59170
 5900.00000   41.52280    -999.25    0.12020    0.09580   89.66870    1.54230    1.66120    -999.25    0.31180    2.02530  -12.16850
