~Version ---------------------------------------------------
VERS. 2.0 : CWLS log ASCII Standard -VERSION 2.0
WRAP.  NO : ONE LINE PER DEPTH STEP
~Well ------------------------------------------------------
STRT.F                    2300.0 : START DEPTH
STOP.F                   10750.0 : STOP DEPTH
STEP.F                  50.00000 : STEP LENGTH
NULL.                    -999.25 : NULL VALUE
COMP.  CLAYTON W WILLIAMS JR INC : COMPANY
WELL. WINTERSHALL-PETERS UNIT #1 : WELL
FLD .                   GIDDINGS : FIELD
LOC .                            : LOCATION
CNTY.                     BRAZOS : COUNTY
STAT.                      TEXAS : STATE
CTRY.   UNITED STATES OF AMERICA : COUNTRY
SRVC.                            : SERVICE COMPANY
DATE.                            : LOGDATE
API .             42041315490000 : API NUMBER
UWI .             42041315490000 : UNIQUE WELL ID
SLAT.WGS84         30.6777769181 : SURFACE LATITUDE
SLON.WGS84        -96.2263773944 : SURFACE LONGITUDE
~Curve Information -----------------------------------------
DEPT.F                 : 
TENR.LBS  07 635 01 00 : TENSION FROM RESISTIVITY
SPR .MV   07 010 01 00 : SPONTANEOUS POTENTIAL
DCAL.IN   07 280 30 00 : DIFFERENTIAL CALIPER
IDPH.OHMM 07 120 46 00 : INDUCTION DEEP PHASOR RES
IMPH.OHMM 07 120 44 00 : INDUCTION MEDIUM PHASOR RES.
SFLU.OHMM 07 220 01 00 : SPHERICALLY FOCUSED LOG UNAVERAGED RESISTIVITY
DPHI.DEC  45 890 10 00 : DENSITY POROSITY LIMESTONE
NPHI.DEC  42 890 01 00 : NEUTRON POROSITY LIMESTONE
GRR .GAPI 07 310 01 00 : GAMMA RAY FROM RESISTIVITY
DRHO.G/C3 45 356 01 00 : DENSITY CORRECTION
~Params ----------------------------------------------------
EKB .F                 323.0 : KELLY BUSHING
EGL .F                   299 : ELEVATION GROUND LEVEL
EDF .                    322 : ELEVATION DERRICK FLOOR
EPD .                    299 : ELEVATION PERMANENT DATUM
TD  .F               10745.0 : TOTAL DEPTH
DATE.            16-DEC-1991 : DATE LOGGED
CLNT.                A2DTECH : CLIENT CODE
LMF .                    RKB : LOG MEASURED FROM
DMF .                    RKB : DRILLING MEASURED FROM
DAPD.F                    24 : FEET ABOVE PERMANENT DATUM
DD  .F                 10745 : DEPTH DRILLER
DL  .F                 10732 : DEPTH LOGGER
BLI .F                 10726 : BOTTOM LOG INTERVAL
TLI .F                  2352 : TOP LOG INTERVAL
CBD1.         10.75" @ 2350' : CASING DRILLER 1
CBL1.F                  2352 : CASING LOGGER 1
BS1 .IN                9.875 : BIT SIZE
BSD1.F                 10745 : DEPTH DRILLED WITH BIT1
DFT .       GEL/WATER/POLYAL : TYPE FLUID IN HOLE
DFD .                    9.6 : DENSITY
DFV .                     41 : VISCOSITY
DFPH.                    9.3 : PH
DFL .                      8 : FLUID LOSS
RMS .OHMM               2.67 : RM
RMF .OHMM               2.71 : RMF
RMC .OHMM               4.01 : RMC
TCS .HRS                1400 : TIME CIRC. STOPPED
TLAB.HRS                2130 : TIME LOGGER AT BOTTOM
LUN .                   2017 : LOGGING UNIT NUMBER
LUL .               VICTORIA : LOGGING UNIT LOCATION
ENGI.          WILKE/LOPUCKI : RECORDED BY
WITN.                PRATHER : WITNESSED BY
ORIG.               5" PRINT : ORIGIN OF DATA
UWI .         42041315490000 : UNIQUE WELL ID
DICO. A2D TECHNOLOGIES, INC. : DIGITIZING COMPANY
SL  .    775' FWL & 500' FEL : SURFACE LOCATION
PD  .                     GL : PERMANENT DATUM
CS1 .IN                10.75 : CASING SIZE
MSS .               MEASURED : SOURCE OF SAMPLE
MFSS.                   MEAS : SOURCE RMF.
MCSS.                   CALC : SOURCE RMC.
RMB .OHMM              1.026 : RM. AT BHT
BHT .F                   206 : BHT.
~Other -----------------------------------------------------
~ASCII -----------------------------------------------------
 2300.00000    -999.25    -999.25    -999.25    -999.25    -999.25    -999.25    -999.25    0.59500   34.24700    -999.25
 2350.00000    -999.25    -999.25    -999.25    -999.25    -999.25    -999.25    0.27900    0.52500   44.86300    -999.25
 2400.00000 1745.23600   -2.57700    1.77900    3.14400    3.46000    3.68300    0.28300    0.42500   64.40800   -0.00100
 2450.00000 1745.23600   15.84500    3.00800    2.31300    2.29600    2.41500    0.29500    0.45600   80.91800    0.04500
 2500.00000 1748.21590  -23.68900    3.52600    4.04500    5.08300    5.58900    0.33400    0.37700   52.55200    0.00700
 2550.00000 1806.90800  -27.01800    2.06300    3.53900    4.17800    4.93800    0.32600    0.34100   50.95800   -0.01800
 2600.00000 1785.35600  -11.81500    0.88600    4.37100    4.73200    4.96600    0.23900    0.31500   63.20300   -0.00600
 2650.00000 1802.09200    1.30300    0.40900    3.03800    3.03800    3.11300    0.24400    0.40800   83.77900    0.05300
 2700.00000 1865.59700  -32.59000    0.34800    2.95800    3.59400    4.72600    0.34500    0.39100   61.16000   -0.00200
 2750.00000 1825.47600  -37.17100   -0.08300    3.12300    3.95300    5.49900    0.33700    0.35600   58.42600    0.00000
 2800.00000 1864.31300    4.78400    1.07000    2.29200    2.49200    2.99100    0.29400    0.39300   73.12000    0.06500
 2850.00000 1888.49900  -21.86500    0.38200    3.86300    4.60000    5.87800    0.29400    0.36700   63.21000   -0.00600
 2900.00000 1907.87900  -26.80100   -0.01400    3.48900    4.09600    4.95700    0.29000    0.36800   77.72100    0.00300
 2950.00000 1905.71700  -18.73800   -0.03300    3.05500    3.45700    3.86700    0.27400    0.37000   76.13300   -0.00200
 3000.00000 1905.71700  -15.80800    0.27900    2.82000    3.03800    3.33200    0.25600    0.36800   73.46600    0.00200
 3050.00000 1909.40410  -30.29600    0.00000    3.01000    3.70000    4.64700    0.29500    0.36900   53.50100   -0.01000
 3100.00000 1954.34590  -25.04800    0.20100    3.07700    3.75700    5.80000    0.31700    0.36300   59.58800   -0.01400
 3150.00000 1945.83800  -48.78100   -0.08100    3.13400    3.79200    5.74000    0.32500    0.35500   56.90100   -0.00400
 3200.00000 1985.95800   -4.55300    0.96400    2.08000    1.91400    1.70300    0.29600    0.40500   85.07900    0.04700
 3250.00000 1985.95800  -13.72900    0.62600    2.21400    2.50800    3.53400    0.32100    0.40700   86.03700    0.05500
 3300.00000 2051.79910  -56.61000   -0.05000    2.71900    3.21100    5.04000    0.33500    0.34500   54.94500   -0.01400
 3350.00000 2056.99800  -38.85800   -0.03600    3.01000    3.51800    4.21100    0.24500    0.35100   64.46200    0.00600
 3400.00000 2101.31490  -30.87500    0.07600    4.03500    4.96200    6.31600    0.25200    0.32000   71.84900   -0.00200
 3450.00000 2066.19900  -40.76400   -0.04000    3.68800    4.39600    5.09600    0.26100    0.30900   71.18600   -0.00200
 3500.00000 2040.54500  -26.10800    0.54800    2.64500    2.85700    2.36700    0.22000    0.34300   87.45100    0.05100
 3550.00000 2084.28000  -54.24300    0.32100    4.57900    5.43700    6.72400    0.31700    0.33000   59.26800    0.01400
 3600.00000 2193.59200  -58.30900    0.15300    4.52000    5.53800    7.01600    0.33700    0.35300   50.71300    0.00000
 3650.00000 2146.43900  -55.73200    0.68100    4.60400    5.16900    6.13000    0.35700    0.35100   48.41200    0.01200
 3700.00000 2106.31910  -66.18000    0.07900    3.23200    4.27900    6.53700    0.29700    0.35600   68.18200    0.00400
 3750.00000 2101.10690  -71.56800    0.11300    2.87500    3.72300    6.78600    0.32800    0.36600   57.70400    0.00200
 3800.00000 2182.54710  -79.24900    0.42100    3.31200    4.39700    7.81700    0.31400    0.34900   53.64800    0.00600
 3850.00000 2252.90600  -69.58900    1.20400    2.98200    3.72300    5.94900    0.31400    0.36000   50.79700    0.01300
 3900.00000 2266.80000  -83.93800    1.28400    2.33200    3.18000    4.92000    0.30200    0.33100   40.52600    0.00900
 3950.00000 2266.80000  -82.74800    1.68500    2.46500    3.09500    5.40900    0.30500    0.35500   40.31800    0.01200
 4000.00000 2266.80000  -86.14500    1.61300    2.21800    2.69100    5.33300    0.31600    0.37400   46.91400    0.01000
 4050.00000 2266.80000  -88.48600    0.60200    1.86200    2.16000    4.04500    0.32500    0.34600   48.57100    0.01200
 4100.00000 2306.92090  -89.81400    0.80200    1.93700    2.11900    3.31100    0.33700    0.32000   45.11900    0.00500
 4150.00000 2306.92090  -49.13800    0.64200    3.69700    4.43700    6.01800    0.18200    0.29200   77.11400    0.00000
 4200.00000 2304.29490  -94.23800    1.16400    1.86200    2.35600    5.22700    0.29800    0.29000   52.02600   -0.00800
 4250.00000 2306.92090  -93.66900    1.73800    1.81100    2.38500    5.35000    0.28500    0.31500   58.35500   -0.00500
 4300.00000 2379.64310  -82.81500    1.41900    2.20800    2.69400    4.61400    0.21000    0.26500   73.81400    0.02100
 4350.00000 2403.57100  -98.17500    0.97300    1.37600    1.54700    3.21200    0.31200    0.30800   54.43600   -0.02800
 4400.00000 2412.82010  -30.95900    0.37700    3.39900    3.93700    3.93500    0.12100    0.30300   97.01900    0.00200
 4450.00000 2427.28200 -109.09500   -0.33200    1.31900    1.64600    5.06400    0.30800    0.33200   53.65600   -0.00400
 4500.00000 2410.44510 -111.61300   -0.24100    1.19700    1.56900    5.56500    0.29500    0.32000   55.48600   -0.01100
 4550.00000 2427.28200 -112.01700   -0.44100    1.24100    1.66800    5.94100    0.28700    0.32200   61.78400    0.00100
 4600.00000 2467.40210  -60.73700   -0.33200    2.64500    3.30100    6.62600    0.17400    0.28000   84.36800    0.01800
 4650.00000 2451.69510 -116.14900   -0.44100    1.38000    1.72500    5.99100    0.26700    0.30000   56.48900    0.00600
 4700.00000 2467.40210 -116.77600   -0.28800    0.89000    0.89200    3.21800    0.32600    0.31400   38.20900    0.01000
 4750.00000 2507.52290 -119.39000   -0.21100    1.11500    1.52300    6.99300    0.27900    0.29300   44.92700   -0.00600
 4800.00000 2507.52290  -85.37600    0.15500    1.31400    1.46400    3.16800    0.30100    0.37100   83.62500    0.01400
 4850.00000 2481.56910  -67.51500    0.36500    1.36200    2.15700    4.34400    0.20100    0.30600   91.57900    0.01700
 4900.00000 2547.64310 -126.96100   -0.44200    0.70400    0.83300    4.39600    0.32100    0.32400   53.38900    0.00600
 4950.00000 2503.51490 -124.05600   -0.60200    0.80000    1.08000    5.31300    0.29700    0.31000   56.18400    0.03600
 5000.00000 2555.77200 -120.05000   -0.52200    0.84400    1.17400    5.98000    0.28300    0.34100   66.28100    0.01200
 5050.00000 2621.24900 -128.35400   -0.44100    0.67400    0.78900    4.53100    0.30300    0.31600   57.79900    0.02500
 5100.00000 2609.05810 -130.39400   -0.59800    1.09600    1.56200    7.98400    0.19600    0.28600   49.17200    0.06500
 5150.00000 2660.27590 -111.56500   -0.24100    1.07600    1.50500    7.70100    0.23200    0.26700   54.43600    0.00700
 5200.00000 2627.88400 -132.31200   -0.32100    0.78300    1.02600    5.75000    0.26100    0.29700   44.65200    0.00500
 5250.00000 2652.47610  -95.04600   -0.06300    1.75300    2.84800   12.92200    0.09000    0.22900   69.64900    0.02800
 5300.00000 2668.00390  -88.65700   -0.49200    1.44100    1.87200    5.28000    0.22000    0.29000   74.60400    0.01200
 5350.00000 2683.32500  -33.20400   -0.27500    2.33700    2.71500    2.98800    0.15800    0.33300   92.50600    0.02600
 5400.00000 2689.57200  -36.09900   -0.02600    2.38900    2.46500    2.77000    0.14400    0.29300   91.56300    0.01000
 5450.00000 2708.12400  -38.98000    0.36700    2.02300    2.47900    2.17800    0.19000    0.30200   92.99600    0.07400
 5500.00000 2681.74710  -31.84700    0.28100    2.26100    2.30900    2.32400    0.16300    0.33400   97.40200    0.09600
 5550.00000 2810.81200  -61.76800    0.02200    1.90800    2.18700    3.14600    0.17100    0.28600   84.21800    0.01800
