~Version ---------------------------------------------------
VERS. 2.0 : CWLS log ASCII Standard -VERSION 2.0
WRAP. YES : MULTIPLE LINES PER DEPTH STEP
~Well ------------------------------------------------------
STRT.FT                   3650.0 : START DEPTH
STOP.FT                   9600.0 : STOP DEPTH
STEP.FT                 50.00000 : STEP LENGTH
NULL.                    -999.25 : NULL VALUE
COMP. LADD PETROLEUM CORPORATION : COMPANY
WELL.                   KELLY #1 : WELL
FLD .              ALABAMA FERRY : FIELD
LOC .                            : LOCATION
CNTY.                       LEON : COUNTY
STAT.                      TEXAS : STATE
CTRY.   UNITED STATES OF AMERICA : COUNTRY
SRVC.                            : SERVICE COMPANY
DATE.                            : LOGDATE
API .             42289308110000 : API NUMBER
UWI .             42289308110000 : UNIQUE WELL ID
SLAT.WGS84         31.2591611688 : SURFACE LATITUDE
SLON.WGS84        -95.8375326441 : SURFACE LONGITUDE
~Curve Information -----------------------------------------
DEPT  .FT    : DEPTH
CILDED.MMHO  : CONDUCTIVITY
RILDED.OHMM  : DEEP INDUCTION RESISTIVITY
RILMED.OHMM  : INDUCTION LOG MEDIUM RESISTIVITY
RFOCED.OHMM  : FOCUSED RESISTIVITY
GRRED .GAPI  : GAMMA RAY FROM RESISTIVITY LOG
CORRED.G/C3  : DENSITY CORRECTION
PORDED.V/V   : DENSITY POROSITY SANDSTONE (M=2.71 F=1) FILLED OFFSCALE VALUES @.3 WHERE NULL
CALDED.IN    : CALIPER FROM DENSITY LOG
NPHIED.V/V   : NEUTRON POROSITY LIMESTONE
RNMLED.OHMM  : MICRONORMAL RESISTIVITY
RLMLED.OHMM  : MICROINVERSE RESISTIVITY
SPED  .MV    : SPONTANEOUS POTENTIAL [BASELINE -10 MV]
DPOWS .V/V   : DENSITY POROSITY [M=2.71, F=1.0]
DENWS .G/C3  : BULK DENSITY [FROM DPOWS M=2.71, F=1.0]
CALWS .IN    : CALIPER
DRESWS.OHMM  : DEEP RESISTIVITY
GRWS  .GAPI  : GAMMA RAY
NPOWS .V/V   : NEUTRON POROSITY LIMESTONE
SPWS  .MV    : SPONTANEOUS POTENTIAL [BASELINE -10 MV]
CONDWS.MMHO  : CONDUCTIVITY FROM DEEP RESISTIVITY
DCORWS.G/C3  : DENSITY CORRECTION
MRESWS.OHMM  : MEDIUM RESISTIVITY
SRESWS.OHMM  : SHALLOW RESISTIVITY
~Params ----------------------------------------------------
EKB .F                 294.0 : KELLY BUSHING
EGL .F                   277 : ELEVATION GROUND LEVEL
EDF .F                   293 : ELEVATION DERRICK FLOOR
EPD .F                   277 : ELEVATION PERMANENT DATUM
TD  .F                9600.0 : TOTAL DEPTH
DATE.            04-MAR-1987 : DATE LOGGED
CLNT.                A2DTECH : CLIENT CODE
SL  .  2797' FNL & 6000' FEL : SURFACE LOCATION
PD  .                     GL : PERMANENT DATUM
LMF .                     KB : LOG MEASURED FROM
DMF .                     KB : DRILLING MEASURED FROM
DAPD.F                    17 : FEET ABOVE PERMANENT DATUM
DD  .F                  9600 : DEPTH DRILLER
DL  .F                  9606 : DEPTH LOGGER
BLI .F                  9624 : BOTTOM LOG INTERVAL
TLI .F                  3611 : TOP LOG INTERVAL
CS1 .IN                8.625 : CASING SIZE
CBD1.         8.625" @ 3595' : CASING DRILLER 1
CBL1.F                  3611 : CASING LOGGER 1
BS1 .IN                7.875 : BIT SIZE
BSD1.F                  9600 : DEPTH DRILLED WITH BIT1
DFT .               GEL CHEM : TYPE FLUID IN HOLE
DFD .                   10.3 : DENSITY
DFV .                     50 : VISCOSITY
DFPH.                     10 : PH
DFL .                    9.6 : FLUID LOSS
MSS .                MUD PIT : SOURCE OF SAMPLE
RMS .OHMM               3.43 : RM
RMF .OHMM               2.57 : RMF
RMC .OHMM               4.29 : RMC
MFSS.                   CALC : SOURCE RMF.
MCSS.                   CALC : SOURCE RMC.
RMB .OHMM                1.6 : RM. AT BHT
BHT .F                   204 : BHT.
TCS .HRS                 4.5 : TIME CIRC. STOPPED
LUN .                HL-6380 : LOGGING UNIT NUMBER
LUL .              TYLER, TX : LOGGING UNIT LOCATION
ENGI.                 HANKLA : RECORDED BY
WITN.                  GROVE : WITNESSED BY
ORIG.          5" & 1" PRINT : ORIGIN OF DATA
UWI .         42289308110000 : UNIQUE WELL ID
DICO. A2D TECHNOLOGIES, INC. : DIGITIZING COMPANY
~Other -----------------------------------------------------
~ASCII -----------------------------------------------------
# ...
 8300.00000   24.39020   20.21740   22.44850   30.25020    -999.25    -999.25    -999.25   10.39850    -999.25    -999.25    -999.25  -44.50410    -999.25    -999.25   10.39850   20.21740    -999.25    -999.25  -44.50410   24.39020    -999.25   22.44850   30.25020
 8350.00000  104.42200    9.69350   10.86800   11.20690    -999.25    -999.25    -999.25   10.66170    -999.25    -999.25    -999.25  -11.78890    -999.25    -999.25   10.66170    9.69350    -999.25    -999.25  -11.78890  104.42200    -999.25   10.86800   11.20690
 8400.00000   85.36590   11.61310   12.64650   11.89160    -999.25    -999.25    -999.25   10.54890    -999.25    -999.25    -999.25  -10.99700    -999.25    -999.25   10.54890   11.61310    -999.25    -999.25  -10.99700   85.36590    -999.25   12.64650   11.89160
 8450.00000  125.25240    7.27900    7.98270    7.35600    -999.25    -999.25    -999.25   10.28060    -999.25    -999.25    -999.25  -10.19060    -999.25    -999.25   10.28060    7.27900    -999.25    -999.25  -10.19060  125.25240    -999.25    7.98270    7.35600
 8500.00000  403.96340    2.25260    2.51980    3.49320    -999.25    -999.25    -999.25   12.12780    -999.25    -999.25    -999.25  -16.59850    -999.25    -999.25   12.12780    2.25260    -999.25    -999.25  -16.59850  403.96340    -999.25    2.51980    3.49320
 8550.00000  250.25740    3.88830    4.62030    5.35020    -999.25    -999.25    -999.25   10.60150    -999.25    -999.25    -999.25  -13.70640    -999.25    -999.25   10.60150    3.88830    -999.25    -999.25  -13.70640  250.25740    -999.25    4.62030    5.35020
 8600.00000   42.68290   24.56020   29.42670   55.36340    -999.25    -999.25    -999.25   10.27820    -999.25    -999.25    -999.25  -16.21340    -999.25    -999.25   10.27820   24.56020    -999.25    -999.25  -16.21340   42.68290    -999.25   29.42670   55.36340
 8650.00000  237.04270    4.17140    5.09310    6.71140    -999.25    -999.25    -999.25   10.66170    -999.25    -999.25    -999.25  -10.13920    -999.25    -999.25   10.66170    4.17140    -999.25    -999.25  -10.13920  237.04270    -999.25    5.09310    6.71140
 8700.00000  509.60560    1.63560    1.80130    2.72530    -999.25    -999.25    -999.25   13.72190    -999.25    -999.25    -999.25  -26.88120    -999.25    -999.25   13.72190    1.63560    -999.25    -999.25  -26.88120  509.60560    -999.25    1.80130    2.72530
 8750.00000  850.86380    1.19660    1.26010    1.93980    -999.25    -999.25    -999.25   13.78200    -999.25    1.14160    1.01980  -25.51960    -999.25    -999.25   13.78200    1.19660    -999.25    -999.25  -25.51960  850.86380    -999.25    1.26010    1.93980
 8800.00000  208.33340    5.18150    5.67570    6.74780   35.04820    0.00750    0.01680   10.81960    0.06740    6.75800    9.37600  -19.95160    0.01680    2.68130   10.81960    5.18150   35.04820    0.06740  -19.95160  208.33340    0.00750    5.67570    6.74780
 8850.00000  161.58540    6.02430    6.42850    5.67920   35.04780    0.01990    0.09150   10.33330    0.08030    4.71840    5.01530  -17.99720    0.09150    2.55350   10.33330    6.02430   35.04780    0.08030  -17.99720  161.58540    0.01990    6.42850    5.67920
 8900.00000  579.26830    2.22830    2.02910    5.80150   34.81310    0.03550    0.27990   11.34390    0.09270    4.76410    4.79460  -20.55740    0.27990    2.23140   11.34390    2.22830   34.81310    0.09270  -20.55740  579.26830    0.03550    2.02910    5.80150
 8950.00000  123.47560    7.68320    8.33560    9.53190   28.65000   -0.03920    0.05520   10.43890    0.05500    9.08680    9.34550  -14.83280    0.05520    2.61560   10.43890    7.68320   28.65000    0.05500  -14.83280  123.47560   -0.03920    8.33560    9.53190
 9000.00000   52.84550   14.15140   18.67500   12.75610   26.63550   -0.02680    0.03040   10.52940    0.03370    9.48250    9.61950  -15.43690    0.03040    2.65800   10.52940   14.15140   26.63550    0.03370  -15.43690   52.84550   -0.02680   18.67500   12.75610
 9050.00000   80.28290   12.40840   12.71520   12.35030   26.98770   -0.01160    0.02880   10.30320    0.04170   11.36990   11.36990  -13.32650    0.02880    2.66080   10.30320   12.40840   26.98770    0.04170  -13.32650   80.28290   -0.01160   12.71520   12.35030
 9100.00000  112.80490    8.89020    9.54370   10.05990   27.57090   -0.02370    0.04120   10.49930    0.04390    9.40640    9.65000  -11.22000    0.04120    2.63950   10.49930    8.89020   27.57090    0.04390  -11.22000  112.80490   -0.02370    9.54370   10.05990
 9150.00000  132.62690    6.67580    7.98250    8.55630   34.58140   -0.03460    0.04490   10.08450    0.07230    7.93760    9.67280   -9.41280    0.04490    2.63320   10.08450    6.67580   34.58140    0.07230   -9.41280  132.62690   -0.03460    7.98250    8.55630
 9200.00000  151.42280    6.15590    6.46270    9.63530   42.52340   -0.03920    0.05000   10.33330    0.07520    4.73370    5.14460  -10.65410    0.05000    2.62450   10.33330    6.15590   42.52340    0.07520  -10.65410  151.42280   -0.03920    6.46270    9.63530
 9250.00000  529.72560    2.78110    3.04530    4.76410   50.23530    0.22250    0.24710   10.73310    0.18600    3.34860    2.24670  -23.50490    0.24710    2.28750   10.73310    2.78110   50.23530    0.18600  -23.50490  529.72560    0.22250    3.04530    4.76410
 9300.00000   56.40240   24.29670   26.98570   80.34670   43.92640    0.00750    0.02060    9.53400    0.01120    -999.25    -999.25  -19.78290    0.02060    2.67480    9.53400   24.29670   43.92640    0.01120  -19.78290   56.40240    0.00750   26.98570   80.34670
 9350.00000  119.66710    7.68320    8.89540    9.40420   39.83860   -0.02680    0.04490    9.56670    0.07580    8.72150    9.58910  -12.44810    0.04490    2.63320    9.56670    7.68320   39.83860    0.07580  -12.44810  119.66710   -0.02680    8.89540    9.40420
 9400.00000  245.66930    3.99480    4.23690    6.67540   43.22430   -0.04550    0.05900    9.29260    0.09170    4.85540    4.97730  -10.54030    0.05900    2.60910    9.29260    3.99480   43.22430    0.09170  -10.54030  245.66930   -0.04550    4.23690    6.67540
 9450.00000   66.94350   12.83940   14.09260   14.21010   47.43050   -0.03150    0.03370    8.98340    0.06070   11.94070   10.82190  -14.65800    0.03370    2.65240    8.98340   12.83940   47.43050    0.06070  -14.65800   66.94350   -0.03150   14.09260   14.21010
 9500.00000  201.56460    4.35570    4.42440    5.55610   67.05610   -0.02360    0.04730    8.74960    0.13900    3.68340    4.03340  -10.93830    0.04730    2.62910    8.74960    4.35570   67.05610    0.13900  -10.93830  201.56460   -0.02360    4.42440    5.55610
 9550.00000  176.06710    6.32460    6.74870   16.43790   65.30680   -0.01270    0.02970    8.53850    0.07160   15.73830   19.93160  -10.53090    0.02970    2.65920    8.53850    6.32460   65.30680    0.07160  -10.53090  176.06710   -0.01270    6.74870   16.43790
 9600.00000    -999.25    -999.25    -999.25    4.82910    -999.25    -999.25    -999.25    -999.25    -999.25    -999.25    -999.25    -999.25    -999.25    -999.25    -999.25    -999.25    -999.25    -999.25    -999.25    -999.25    -999.25    -999.25    4.82910
