~Version ---------------------------------------------------
VERS. 2.0 : CWLS log ASCII Standard -VERSION 2.0
WRAP.  NO : ONE LINE PER DEPTH STEP
~Well ------------------------------------------------------
STRT.F                       2550.0 : START DEPTH
STOP.F                      16500.0 : STOP DEPTH
STEP.F                     50.00000 : STEP LENGTH
NULL.                       -999.25 : NULL VALUE
COMP.       UNION PACIFIC RESOURCES : COMPANY
WELL. UPR T BAR X LIGHTNING UNIT #1 : WELL
FLD .                       WILDCAT : FIELD
LOC .                               : LOCATION
CNTY.                     ROBERTSON : COUNTY
STAT.                         TEXAS : STATE
CTRY.      UNITED STATES OF AMERICA : COUNTRY
SRVC.                               : SERVICE COMPANY
DATE.                               : LOGDATE
API .                42395304830000 : API NUMBER
UWI .                42395304830000 : UNIQUE WELL ID
SLAT.WGS84            31.1540924699 : SURFACE LATITUDE
SLON.WGS84           -96.3276535393 : SURFACE LONGITUDE
~Curve Information -----------------------------------------
DEPT.F                 : 
DCAL.IN   07 280 30 00 : DIFFERENTIAL CALIPER
AT90.OHMM 07 120 90 00 : 2FT VERT. RES. 90IN D.I.
AT20.OHMM 07 120 20 00 : 2FT VERT. RES. 20IN D.I.
SP  .MV   07 010 01 00 : SPONTANEOUS POTENTIAL
GR  .GAPI 07 310 01 00 : GAMMA RAY - GAPI
ILD .OHMM 07 120 46 00 : DEEP INDUCTION RESISTIVITY
SFL .OHMM 07 220 01 00 : SPHERICAL FOCUSED RESISTIVITY
DT  .US/F 07 520 00 00 : 
AT30.OHMM 06 120 30 00 : 
HDRA.G/C3 45 356 01 00 : 
PEFZ.B/E  45 358 01 00 : 
ILM .OHMM 00 120 44 00 : MEDIUM IND.
DPHI.DEC  45 890 10 00 : 
NPHI.DEC  42 890 01 00 : 
CAL .IN   07 280 01 00 : 
~Params ----------------------------------------------------
EKB .F                399.0 : KELLY BUSHING
EGL .F                  373 : ELEVATION GROUND LEVEL
EDF .F                  398 : ELEVATION DERRICK FLOOR
EPD .F                  373 : ELEVATION PERMANENT DATUM
TD  .F              16500.0 : TOTAL DEPTH
CLNT.               A2DTECH : CLIENT CODE
PD  .                    GL : PERMANENT DATUM
LMF .                   RKB : LOG MEASURED FROM
DMF .                   RKB : DRILLING MEASURED FROM
DAPD.F                 26.9 : FEET ABOVE PERMANENT DATUM
DATE.           26-MAY-1997 : DATE LOGGED
DD  .F                16500 : DEPTH DRILLER
DL  .F                16500 : DEPTH LOGGER
BLI .F                16498 : BOTTOM LOG INTERVAL
TLI .F                15524 : TOP LOG INTERVAL
CS1 .IN               7.625 : CASING SIZE
CBD1.        7.625" @ 15550 : CASING DRILLER 1
CBL1.F                15524 : CASING LOGGER 1
BS1 .IN                6.75 : BIT SIZE
BSD1.F                16500 : DEPTH DRILLED WITH BIT1
DFT .         LOW-LIME DISP : TYPE FLUID IN HOLE
DFD .                  17.7 : DENSITY
DFV .                  46 S : VISCOSITY
DFPH.                  11.3 : PH
DFL .                  18.2 : FLUID LOSS
MSS .              FLOWLINE : SOURCE OF SAMPLE
RMS .OHMM              0.75 : RM
RMF .OHMM              0.56 : RMF
MFSS.                  CALC : SOURCE RMF.
RMC .OHMM              0.94 : RMC
MCSS.                  CALC : SOURCE RMC.
RMB .OHMM               0.4 : RM. AT BHT
BHT .F                  360 : BHT.
TCS .HRS                 17 : TIME CIRC. STOPPED
LUN .               HL 6542 : LOGGING UNIT NUMBER
LUL .                 TYLER : LOGGING UNIT LOCATION
ENGI.                DIDUCH : RECORDED BY
WITN.               CLAWSON : WITNESSED BY
ORIG.              5" PRINT : ORIGIN OF DATA
UWI .        42395304830000 : UNIQUE WELL ID
DICO. A2D TECHNOLOGIES INC. : DIGITIZING COMPANY
SL  .       845' FWL & 1' F : SURFACE LOCATION
~Other -----------------------------------------------------
~ASCII -----------------------------------------------------
# ...
 11750.00000    -999.25    -999.25    -999.25  -37.82270   85.37480    9.99990    8.78020   77.49000    -999.25   -0.00220    6.63050   14.27990    0.05720    0.10710    8.85020
 11800.00000    -999.25    -999.25    -999.25  -46.22060   39.62700   37.56190   37.86330   60.77780    -999.25   -0.02210    3.16690   37.84650    0.09290    0.02570    8.78580
 11850.00000    -999.25    -999.25    -999.25  -54.51530   42.46650   56.50020   67.22650   56.50960    -999.25   -0.00530    3.19780   43.55700    0.07430    0.02450    8.99300
 11900.00000    -999.25    -999.25    -999.25  -44.19810   72.89450   21.48490   23.02230   67.97890    -999.25   -0.05860    7.84700   27.86390    0.04240    0.05820    8.93070
 11950.00000    -999.25    -999.25    -999.25  -44.66660   52.76850   22.18830   34.45060   56.92730    -999.25   -0.01630    2.82380   20.21740    0.06380    0.02370    8.99300
 12000.00000    -999.25    -999.25    -999.25  -51.56450   35.09950   25.51430   47.06820   54.85100    -999.25   -0.02410    3.17680   32.31240    0.06570    0.02060    9.14350
 12050.00000    -999.25    -999.25    -999.25  -54.08200   27.65240   33.73580   60.53010   65.47560    -999.25   -0.03840    5.56960   31.57110    0.09550    0.01510    8.99640
 12100.00000    -999.25    -999.25    -999.25  -42.57350   52.53510   36.37060   75.78570   55.20310    -999.25   -0.01320    3.29140   37.03370    0.03010    0.03550    9.17990
 12150.00000    -999.25    -999.25    -999.25  -44.25070   40.35990   39.63470   52.51560   56.62920    -999.25   -0.01790    3.97830   25.37150    0.08990    0.01190    9.08470
 12200.00000    -999.25    -999.25    -999.25  -50.26490   54.13450   28.90670   44.21700   60.69000    -999.25   -0.02410    3.10470   33.24140    0.08850    0.01300    8.90000
 12250.00000    -999.25    -999.25    -999.25  -30.32310   81.08420   19.92850   24.17840   59.86670    -999.25   -0.00220    4.07180   21.79840    0.06880    0.05150    8.99390
 12300.00000    -999.25    -999.25    -999.25  -47.72450   37.58100   29.97570   50.39430   60.21960    -999.25   -0.06930    9.96700   29.19670    0.08050    0.03240    9.72500
 12350.00000    -999.25    -999.25    -999.25  -32.68440   28.43440   65.98920  111.46980   59.27910    -999.25   -0.01470    3.89740   42.62280    0.11790    0.01780    9.21110
 12400.00000    -999.25    -999.25    -999.25  -60.21710   32.61640   11.93250   21.41500   67.22050    -999.25   -0.04140    5.19450   18.82920    0.14030    0.02610    9.05530
 12450.00000    -999.25    -999.25    -999.25  -25.84700   77.43450   31.08670   32.75430   60.84640    -999.25   -0.01980    4.19660   28.57320    0.17480    0.09170    9.72520
 12500.00000    -999.25    -999.25    -999.25  -41.55580   29.32770   17.62770   58.35190   65.06200    -999.25   -0.02100    4.82020   31.34690    0.13190    0.05090    9.12800
 12550.00000    -999.25    -999.25    -999.25  -32.61180   38.13760   17.16870   30.19810   59.69720    -999.25   -0.01000    2.41840   20.68150    0.08960    0.01350    9.06830
 12600.00000    -999.25    -999.25    -999.25  -14.49460   83.87620   13.53650   19.87510   62.24440    -999.25   -0.00690    3.54850   15.34120    0.03070    0.08110    9.24220
 12650.00000    -999.25    -999.25    -999.25  -34.09020   29.90540   36.52960   81.53730   58.23350    -999.25   -0.02390    4.44640   24.72490    0.09300    0.01040    9.07660
 12700.00000    -999.25    -999.25    -999.25   -3.60560  122.19760    7.33740   10.89990   69.36260    -999.25   -0.00870    4.40460    7.77830    0.03220    0.16920    9.54070
 12750.00000    -999.25    -999.25    -999.25   -8.48020   53.98180   14.28320   29.92180   55.80150    -999.25   -0.04080    4.89780   11.64920    0.07190    0.03360    9.27340
 12800.00000    -999.25    -999.25    -999.25  -21.27930   27.55760   49.13530  110.15980   54.43310    -999.25   -0.01530    3.38140   48.53260    0.06240    0.00660    8.89950
 12850.00000    -999.25    -999.25    -999.25   17.41030   95.22870    3.17430    5.57960   71.97440    -999.25   -0.01630    9.95530    3.03800    0.18410    0.22740   12.21730
 12900.00000    -999.25    -999.25    -999.25   16.37230  100.96550    6.59040    8.08280   69.08190    -999.25   -0.02730    4.87670    6.65130    0.03300    0.14910   10.10650
 12950.00000    -999.25    -999.25    -999.25   10.23300   72.84160    6.80630   10.93010   59.74910    -999.25   -0.01160    5.54200   10.23190    0.03080    0.11790   10.34290
 13000.00000    -999.25    -999.25    -999.25    5.68500   42.54210   13.98010   27.80250   62.25610    -999.25    0.00970    6.09590   14.00260    0.13020    0.03960    9.28110
 13050.00000    -999.25    -999.25    -999.25   -7.54940   76.52000   18.88630   54.62370   55.38350    -999.25   -0.00850    4.30880   24.91010    0.12960    0.00200    8.96180
 13100.00000    -999.25    -999.25    -999.25   22.09300   88.64000    4.89940    5.20320   83.57350    -999.25   -0.01320    4.22440    5.21940    0.09770    0.10550    9.67840
 13150.00000    -999.25    -999.25    -999.25  -14.41230   24.22630   30.32340   77.78550   68.21320    -999.25   -0.02670    3.35410   44.89390    0.05740    0.00720    9.22130
 13200.00000    -999.25    -999.25    -999.25   15.41130   96.44510    3.00160    4.78530   90.29900    -999.25   -0.06960   10.00000    3.01600    0.28830    0.22660   12.04590
 13250.00000    -999.25    -999.25    -999.25    1.52320   81.25970    3.97740    6.59060   83.09810    -999.25   -0.08840   10.05560    6.64030    0.18660    0.14090   12.69220
 13300.00000    -999.25    -999.25    -999.25   18.47560   91.78570    3.89830    4.59090   70.09400    -999.25   -0.01160    9.94950    3.99500    0.21450    0.18960   10.91170
 13350.00000    -999.25    -999.25    -999.25   20.39500   96.51780    2.39780    2.88330  100.53860    -999.25    0.03540   10.00000    2.22830    0.16680    0.26910   11.49550
 13400.00000    -999.25    -999.25    -999.25   23.45160   94.93760    3.49660    4.63860   83.26040    -999.25    0.09180   10.03270    3.62450    0.12570    0.18140   10.25210
 13450.00000    -999.25    -999.25    -999.25   25.94090   83.57710    5.37150    7.76460   69.85970    -999.25    0.00740    5.15810    6.15590    0.06290    0.13070    9.40840
 13500.00000    -999.25    -999.25    -999.25   25.94090   91.46060    2.70190    3.63650   79.73370    -999.25    0.01980   10.00000    2.61780    0.12080    0.24780   12.13940
 13550.00000    -999.25    -999.25    -999.25   36.10370   95.11210    5.14810    6.09980   83.26060    -999.25    0.02290    9.98540    5.12250    0.12250    0.15270   10.87160
 13600.00000    -999.25    -999.25    -999.25   -4.95760   39.64450   31.62850   58.76440   64.17710    -999.25   -0.02100    2.25580   54.65410    0.21680    0.14730    9.27340
 13650.00000    -999.25    -999.25    -999.25   44.29240   87.28730    2.08780    2.85340  107.39810    -999.25    0.07770   10.00000    2.25250    0.09180    0.27430    9.74070
 13700.00000    -999.25    -999.25    -999.25   15.53820   87.05560    4.22480    4.42870   72.37630    -999.25    0.03500    4.10320    4.26470    0.09560    0.13070   10.58180
 13750.00000    -999.25    -999.25    -999.25   16.47490   95.81290    4.15330    4.67320   68.56560    -999.25   -0.06800   10.00000    3.56480    0.16070    0.08430   11.02270
 13800.00000    -999.25    -999.25    -999.25   -4.12060   45.01560    8.99950   16.24410   62.37460    -999.25   -0.00850    3.66610    9.38410    0.12190    0.07260    9.12530
 13850.00000    -999.25    -999.25    -999.25   13.35410   88.05970    2.27510    2.95180   77.93100    -999.25   -0.14010   10.04610    2.30180    0.30820    0.23160   10.50470
 13900.00000    -999.25    -999.25    -999.25    9.99600   91.22880    3.19840    4.88840   77.69880    -999.25   -0.02260   10.00000    3.62400    0.15490    0.16060   10.14370
 13950.00000    -999.25    -999.25    -999.25    6.65630   90.19270    2.82050    3.09630   77.77430    -999.25    0.05580    9.94420    2.82090    0.12510    0.22220   10.94710
