~Version ---------------------------------------------------
VERS.      2.0 : CWLS log ASCII Standard -VERSION 2.0
WRAP.      YES : Multiple lines per depth step
CREA. 08/01/20 : LAS Creation Date
~Well ------------------------------------------------------
STRT.FT                       3500.0 : START DEPTH
STOP.FT                       9850.0 : STOP DEPTH
STEP.FT                     50.00000 : STEP LENGTH
NULL.                        -999.25 : NULL VALUE
COMP. INTERNATIONAL DRILLING SYSTEMS : COMPANY
WELL.                        COOK #1 : WELL
FLD .                         KURTEN : FIELD
LOC .                                : LOCATION
CNTY.                         BRAZOS : COUNTY
STAT.                          TEXAS : STATE
CTRY.       UNITED STATES OF AMERICA : COUNTRY
SRVC.                   Schlumberger : SERVICE COMPANY
DATE.                    18-Apr-1986 : LOGDATE
API .                 42041313380000 : API NUMBER
UWI .                 42041313380000 : UNIQUE WELL ID
SLAT.WGS84             30.6850268218 : SURFACE LATITUDE
SLON.WGS84            -96.2700084962 : SURFACE LONGITUDE
~Curve Information -----------------------------------------
DEPT    .FT    : DEPTH FEET
BITSED  .IN    : BIT SIZE
CALWS   .IN    : CALIPER [DCALRED+BITS]
CILDED  .MMHO  : CONDUCTIVITY FROM DIL-SFL-CDL-CNL LOG FROM 2" SECTION
CONDWS  .MMHO  : CONDUCTIVITY [1000/DRESWS]
DCALRED .IN    : DIFFERENTIAL CALIPER FROM DIL-SFL-CDL-CNL LOG
DCORWS  .G/C3  : DENSITY CORRECTION [DRHOED]
DENWS   .G/C3  : FORMATION BULK DENSITY [CALC. DPOLSWS M=2.71, F=1.0]
DPHILSED.V/V   : DENSITY POROSITY LIMESTONE [ M=2.71,F=1.0] FROM DIL-SFL-CDL-CNL LOG
DPHISSED.V/V   : DENSITY POROSITY SANDSTONE [ M=2.68,F=1.0] FROM DIL-SFL-CDL-CNL LOG
DPOLSWS .V/V   : DENSITY POROSITY LIMESTONE [TOP DPHILSED 9130' DPHISSED CONVERTED TO LIMESTONE MATRIX M=2.71,F=1.0, SPL. TO 9741' DPHILSED TD]
DRESWS  .OHMM  : DEEP RESISTIVITY [ILDED]
DRHOED  .G/C3  : BULK DENSITY CORRECTION FROM DIL-SFL-CDL-CNL LOG
GRRED   .GAPI  : GAMMA RAY FROM DIL-SFL-CDL-CNL LOG
GRWS    .GAPI  : GAMMA RAY [GRRED]
ILD1ED  .OHMM  : DEEP INDUCTION RESISTIVITY FROM DIL-SFL-CDL-CNL LOG FROM 2" SECTION
ILDED   .OHMM  : DEEP INDUCTION RESISTIVITY FROM DIL-SFL-CDL-CNL LOG
ILMED   .OHMM  : MEDIUM INDUCTION RESISTIVITY FROM DIL-SFL-CDL-CNL LOG
MRESWS  .OHMM  : MEDIUM RESISTIVITY [ILMED]
NPHILSED.V/V   : NEUTRON POROSITY LIMESTONE FROM DIL-SFL-CDL-CNL LOG
NPHISSED.V/V   : NEUTRON POROSITY SANDSTONE FROM DIL-SFL-CDL-CNL LOG
NPOLSWS .V/V   : NEUTRON POROSITY LIMESTONE [TOP NPHILSED 9125' MATRIX CONVERSION FOR LIMESTONE (SLB-CNL) SPL. TO 9741' NPHILSED TD]
PEED    .B/E   : PHOTO ELECTRIC CROSS SECTION FROM DIL-SFL-CDL-CNL LOG
PEFWS   .B/E   : PHOTO ELECTRIC FACTOR [PEED]
SFLAED  .OHMM  : SPHERICALLY FOCUSED LOG RESISTIVITY FROM DIL-SFL-CDL-CNL LOG FROM 2" SECTION
SFLED   .OHMM  : SPHERICALLY FOCUSED LOG RESISTIVITY FROM DIL-SFL-CDL-CNL LOG
SPRED   .MV    : SPONTANEOUS POTENTIAL FROM DIL-SFL-CDL-CNL LOG
SPWS    .MV    : SPONTANEOUS POTENTIAL [BASELINE 0MV, SPRED]
SRESWS  .OHMM  : SHALLOW RESISTIVITY [SFLED]
TENRED  .LBF   : TENSION  FROM DIL-SFL-CDL-CNL LOG
~Params ----------------------------------------------------
PD  .                     GL : PERMANENT DATUM
EPD .FT                  300 : ELEVATION PERMANENT DATUM
LMF .                     KB : LOG MEASURED FROM
DAPD.FT                 18.6 : FEET ABOVE PERMANENT DATUM
DMF .                     KB : DRILLING MEASURED FROM
EKB .FT                318.6 : KELLY BUSHING
EDF .FT                317.6 : DRILLING FLOOR
EGL .FT                  300 : GROUND LEVEL
DATE.               04/18/86 : RUN DATE
RUN .                      1 : RUN NUMBER
DD  .FT                 9899 : DEPTH DRILLER
DL  .FT                 9877 : DEPTH LOGGER
BLI .FT                 9871 : BOTTOM LOG INTERVAL
TLI .FT                 3533 : TOP LOG INTERVAL
CS  .IN                9.625 : CASING SIZE
CBD .FT                 3532 : CASING BOTTOM DRILLER
CBL .FT                 3533 : CASING BOTTOM LOGGER
BS  .IN                 8.75 : BIT SIZE
BSD .FT                 9899 : BIT SIZE AT DEPTH
DFT .                  BENEX : DRILLING FLUID TYPE
DFD .                    9.2 : DRILLING FLUID DENSITY
DFV .                     44 : DRILLING FLUID VISCOSITY
DFPH.                      9 : DRILLING FLUID PH
DFL .                    5.8 : DRILLING FLUID LOSS
MSS .              CIRC TANK : MUD SAMPLE SOURCE
RMS .OHMM               3.66 : RESISTIVITY MUD SAMPLE
MST .DEGF                 96 : MUD SAMPLE TEMPERATURE
RMF .OHMM               2.67 : RESISTIVITY MUD FILTRATE SAMPLE
MFST.DEGF                 80 : MUD FILTRATE SAMPLE TEMPERATURE
RMC .OHMM               5.49 : RESISTIVITY MUD CAKE
MCST.DEGF                 96 : MUD CAKE SAMPLE TEMPERATURE
MFSS.                  PRESS : MUD FILTRATE SAMPLE SOURCE
MCSS.                  CHART : MUD CAKE SAMPLE SOURCE
RMB .OHMM               1.77 : RESISTIVITY MUD AT BHT
TCS .HRS                 600 : TIME CIRCULATED STOPPED
TLAB.HRS                1100 : TIME LOGGER AT BOTTOM
LUN .                   8137 : LOGGING UNIT NUMBER
LUL .                BRENHAM : LOGGING UNIT LOCATION
ENGI.                   ONEY : RECORDING ENGINEER
WITN.                MITCHAM : WITNESSED BY
CLNT.                A2DTECH : CLIENT CODE
ORIG.         1" 2" 5" PRINT : ORIGIN OF DATA
UWI .         42041313380000 : UNIQUE WELL ID
DICO. A2D Technologies, Inc. : DIGITIZING COMPANY
~Other -----------------------------------------------------
DIL-SFL-CDL-CNL LOG RUN.
SFLA_1,ILD_1,CILD VERYFIED FROM 2" LINEAR SECTION.
~ASCII -----------------------------------------------------
# ...
 6000.00000    8.75000    8.67000  469.78760  486.02670   -0.08000    -999.25    -999.25    -999.25    -999.25    -999.25    2.05750    -999.25  107.82300  107.82300    2.03650    2.05750    2.08490    2.08490    -999.25    -999.25    -999.25    -999.25    -999.25    2.44790    2.46550   -4.19100  -10.82190    2.46550 3617.46120
 6050.00000    8.75000    8.69530  596.29710  613.38400   -0.05470    -999.25    -999.25    -999.25    -999.25    -999.25    1.63030    -999.25  108.14940  108.14940    1.69360    1.63030    1.65200    1.65200    -999.25    -999.25    -999.25    -999.25    -999.25    1.99680    2.17430   -2.11450   -9.09710    2.17430 3713.10900
 6100.00000    8.75000    9.68250  717.33260  759.12850    0.93250    -999.25    -999.25    -999.25    -999.25    -999.25    1.31730    -999.25   91.25260   91.25260    1.50890    1.31730    1.34710    1.34710    -999.25    -999.25    -999.25    -999.25    -999.25    1.63960    1.45740   -1.47410   -8.80830    1.45740 3708.26300
 6150.00000    8.75000    9.63460  595.13950  595.87650    0.88460    -999.25    -999.25    -999.25    -999.25    -999.25    1.67820    -999.25   89.07730   89.07730    1.68460    1.67820    1.71750    1.71750    -999.25    -999.25    -999.25    -999.25    -999.25    1.93640    1.92640   -1.74760   -9.43340    1.92640 3619.04220
 6200.00000    8.75000    8.89860  810.79020  808.79970    0.14860    -999.25    -999.25    -999.25    -999.25    -999.25    1.23640    -999.25   86.87060   86.87060    1.24560    1.23640    1.26420    1.26420    -999.25    -999.25    -999.25    -999.25    -999.25    1.52020    1.54570    1.86860   -6.16890    1.54570 3796.14520
 6250.00000    8.75000    9.48480 1102.20660 1086.83840    0.73480    -999.25    -999.25    -999.25    -999.25    -999.25    0.92010    -999.25   95.99050   95.99050    0.87810    0.92010    0.94150    0.94150    -999.25    -999.25    -999.25    -999.25    -999.25    1.18330    1.13870    0.69740   -7.69170    1.13870 3738.62940
 6300.00000    8.75000    9.94080  922.74090  925.41180    1.19080    -999.25    -999.25    -999.25    -999.25    -999.25    1.08060    -999.25   89.14410   89.14410    1.07660    1.08060    1.12950    1.12950    -999.25    -999.25    -999.25    -999.25    -999.25    1.39310    1.38210    3.43600   -5.30470    1.38210 3798.47270
 6350.00000    8.75000    8.92610 1001.66120 1000.90080    0.17610    -999.25    -999.25    -999.25    -999.25    -999.25    0.99910    -999.25   99.04190   99.04190    1.01080    0.99910    1.03800    1.03800    -999.25    -999.25    -999.25    -999.25    -999.25    1.28570    1.22940    5.30340   -3.78900    1.22940 3950.28430
 6400.00000    8.75000   10.44240  786.52570  781.86080    1.69240    -999.25    -999.25    -999.25    -999.25    -999.25    1.27900    -999.25  106.14270  106.14270    1.33310    1.27900    1.30870    1.30870    -999.25    -999.25    -999.25    -999.25    -999.25    1.59320    1.58870   -1.21200   -9.38070    1.58870 3814.29660
 6450.00000    8.75000   12.11250  805.19910  820.47920    3.36250    -999.25    -999.25    -999.25    -999.25    -999.25    1.21880    -999.25   80.19180   80.19180    1.28800    1.21880    1.24670    1.24670    -999.25    -999.25    -999.25    -999.25    -999.25    1.49400    1.35870   -1.49530   -8.40130    1.35870 3832.51980
 6500.00000    8.75000   12.68120  759.57150  784.00630    3.93120    -999.25    -999.25    -999.25    -999.25    -999.25    1.27550    -999.25   76.36310   76.36310    1.34050    1.27550    1.30440    1.30440    -999.25    -999.25    -999.25    -999.25    -999.25    1.56260    1.59770   -3.52970   -9.17300    1.59770 3742.37700
 6550.00000    8.75000   12.37440  793.72870  773.45500    3.62440    -999.25    -999.25    -999.25    -999.25    -999.25    1.29290    -999.25   83.82550   83.82550    1.29260    1.29290    1.32190    1.32190    -999.25    -999.25    -999.25    -999.25    -999.25    1.55130    1.54950   -2.85160   -7.23230    1.54950 4078.99430
 6600.00000    8.75000   13.17420  837.52120  838.36350    4.42420    -999.25    -999.25    -999.25    -999.25    -999.25    1.19280    -999.25   86.38410   86.38410    1.21060    1.19280    1.21980    1.21980    -999.25    -999.25    -999.25    -999.25    -999.25    1.46110    1.44620   -4.56720   -8.80880    1.44620 4513.29810
 6650.00000    8.75000   12.66260  896.65690  896.78060    3.91260    -999.25    -999.25    -999.25    -999.25    -999.25    1.11510    -999.25   88.17900   88.17900    1.14300    1.11510    1.14010    1.14010    -999.25    -999.25    -999.25    -999.25    -999.25    1.41190    1.40210   -4.26170   -8.43590    1.40210 4353.45880
 6700.00000    8.75000   11.76100  718.74060  713.67400    3.01100    -999.25    -999.25    -999.25    -999.25    -999.25    1.40120    -999.25   84.66580   84.66580    1.40200    1.40120    1.43300    1.43300    -999.25    -999.25    -999.25    -999.25    -999.25    1.74100    1.72240   -2.65870   -6.76550    1.72240 4410.25890
 6750.00000    8.75000    9.86440  567.36190  570.25550    1.11440    -999.25    -999.25    -999.25    -999.25    -999.25    1.75360    -999.25   86.43500   86.43500    1.81910    1.75360    1.79180    1.79180    -999.25    -999.25    -999.25    -999.25    -999.25    2.19520    2.12640   -4.38220   -8.42170    2.12640 4431.46790
 6800.00000    8.75000    9.34520  378.88780  379.21880    0.59520    -999.25    -999.25    -999.25    -999.25    -999.25    2.63700    -999.25   69.87830   69.87830    2.61510    2.63700    2.68040    2.68040    -999.25    -999.25    -999.25    -999.25    -999.25    3.41560    3.60950   -2.71980   -6.69190    3.60950 4469.68240
 6850.00000    8.75000    9.63630  362.22770  348.46850    0.88630    -999.25    -999.25    -999.25    -999.25    -999.25    2.86970    -999.25   64.90230   64.90230    2.86290    2.86970    2.93350    2.93350    -999.25    -999.25    -999.25    -999.25    -999.25    3.56750    3.47220   -1.15400   -5.05880    3.47220 4502.96440
 6900.00000    8.75000    9.62040  296.25360  301.24110    0.87040    -999.25    -999.25    -999.25    -999.25    -999.25    3.31960    -999.25   58.05940   58.05940    3.36820    3.31960    3.39460    3.39460    -999.25    -999.25    -999.25    -999.25    -999.25    4.08380    3.89730   -0.96800   -4.80540    3.89730 4468.23030
 6950.00000    8.75000    9.65970  328.62490  323.69790    0.90970    -999.25    -999.25    -999.25    -999.25    -999.25    3.08930    -999.25   67.26220   67.26220    3.12160    3.08930    3.15930    3.15930    -999.25    -999.25    -999.25    -999.25    -999.25    3.71680    3.56390   -0.84310   -4.61310    3.56390 4475.69540
 7000.00000    8.75000    9.81800  489.04530  482.57890    1.06800    -999.25    -999.25    -999.25    -999.25    -999.25    2.07220    -999.25  113.44710  113.44710    1.95190    2.07220    2.11960    2.11960    -999.25    -999.25    -999.25    -999.25    -999.25    2.27510    2.11450   -0.14930   -3.85200    2.11450 4544.32630
 7050.00000    8.75000   10.18650  653.37310  669.97190    1.43650    -999.25    -999.25    -999.25    -999.25    -999.25    1.49260    -999.25   86.70330   86.70330    1.50670    1.49260    1.55720    1.55720    -999.25    -999.25    -999.25    -999.25    -999.25    1.91980    1.82300   -2.19290   -5.82820    1.82300 4074.60200
 7100.00000    8.75000   10.44750  461.36830  470.56610    1.69750    -999.25    -999.25    -999.25    -999.25    -999.25    2.12510    -999.25   83.69120   83.69120    2.22480    2.12510    2.17280    2.17280    -999.25    -999.25    -999.25    -999.25    -999.25    2.49310    2.42240   -1.09010   -4.65800    2.42240 4262.05860
 7150.00000    8.75000   11.55540  641.09080  637.47050    2.80540    -999.25    -999.25    -999.25    -999.25    -999.25    1.56870    -999.25   88.99080   88.99080    1.63230    1.56870    1.60430    1.60430    -999.25    -999.25    -999.25    -999.25    -999.25    1.87180    1.81960   -0.67890   -4.17950    1.81960 4339.90110
 7200.00000    8.75000   11.30190  675.49300  675.81270    2.55190    -999.25    -999.25    -999.25    -999.25    -999.25    1.47970    -999.25  115.78920  115.78920    1.44900    1.47970    1.51320    1.51320    -999.25    -999.25    -999.25    -999.25    -999.25    1.64330    1.78700   -3.51210   -6.94530    1.78700 4464.82100
