~Version ---------------------------------------------------
VERS. 2.0 : CWLS log ASCII Standard -VERSION 2.0
WRAP.  NO : ONE LINE PER DEPTH STEP
~Well ------------------------------------------------------
STRT.F                    2000.0 : START DEPTH
STOP.F                   13500.0 : STOP DEPTH
STEP.F                  50.00000 : STEP LENGTH
NULL.                    -999.25 : NULL VALUE
COMP. CHAMPLIN PETROLEUM COMPANY : COMPANY
WELL.            J. M. EDWARD #1 : WELL
FLD .      EAST EDGE AREA BRAZOS : FIELD
LOC .                            : LOCATION
CNTY.                     BRAZOS : COUNTY
STAT.                      TEXAS : STATE
CTRY.   UNITED STATES OF AMERICA : COUNTRY
SRVC.              Dresser Atlas : SERVICE COMPANY
DATE.                20-Dec-1978 : LOGDATE
API .             42041304220000 : API NUMBER
UWI .             42041304220000 : UNIQUE WELL ID
SLAT.WGS84         30.9316789084 : SURFACE LATITUDE
SLON.WGS84        -96.2220478989 : SURFACE LONGITUDE
~Curve Information -----------------------------------------
DEPT.F                 : 
SP  .MV   07 010 01 00 : SPONTANEOUS POTENTIAL FROM DUAL INDUCTION LOG
ILM .OHMM 07 120 44 00 : INDUCTION LOG, MEDIUM (5FF40) FROM DUAL INDUCTION LOG
ILD .OHMM 07 120 46 00 : DEEP (6FF40) FROM DUAL INDUCTION LOG
SFL .OHMM 07 220 01 00 : SPHERICALLY FOCUSED RESISTIVITY FROM DUAL INDUCTION LOG
CALD.IN   42 280 60 00 : CALIPER
GRD .GAPI 45 310 01 00 : GAMMA RAY
NPHI.DEC  42 890 01 00 : NEUTRON POROSITY LIME
DPHI.DEC  45 890 10 00 : DENSITY POROSITY LIME
DT  .US/F 60 520 24 00 : SPECIFIC ACOUSTIC TIME
~Params ----------------------------------------------------
EKB .F                           277.0 : KELLY BUSHING
EGL .F                             261 : ELEVATION GROUND LEVEL
EDF .F                             276 : ELEVATION DERRICK FLOOR
EPD .F                             261 : ELEVATION PERMANENT DATUM
TD  .F                         12090.0 : TOTAL DEPTH
DATE.                      29-NOV-1978 : DATE LOGGED
CLNT.                          A2DTECH : CLIENT CODE
PD  .                               GL : PERMANENT DATUM
LMF .                               KB : LOG MEASURED FROM
DMF .                               KB : DRILLING MEASURED FROM
DAPD.F                              15 : FEET ABOVE PERMANENT DATUM
DD  .F                           12078 : DEPTH DRILLER
DL  .F                           12090 : DEPTH LOGGER
BLI .F                           12089 : BOTTOM LOG INTERVAL
TLI .F                            2018 : TOP LOG INTERVAL
CS1 .IN                          10.75 : CASING SIZE
CBD1.                   10.75" @ 2000' : CASING DRILLER 1
CBL1.F                            2018 : CASING LOGGER 1
BS1 .IN                          9.875 : BIT SIZE
BSD1.F                           12078 : DEPTH DRILLED WITH BIT1
DFT .                            LIGNO : TYPE FLUID IN HOLE
DFD .                              9.3 : DENSITY
DFV .                               40 : VISCOSITY
DFPH.                               10 : PH
DFL .                              6.4 : FLUID LOSS
MSS .                         FLOWLINE : SOURCE OF SAMPLE
RMS .OHMM                         1.38 : RM
RMF .OHMM                         1.03 : RMF
RMC .OHMM                         1.72 : RMC
MFSS.                             CALC : SOURCE RMF.
MCSS.                             CALC : SOURCE RMC.
RMB .OHMM                         0.42 : RM. AT BHT
BHT .F                             209 : BHT.
TCS .HRS                             4 : TIME CIRC. STOPPED
LUN .                             6082 : LOGGING UNIT NUMBER
LUL .                             PEAR : LOGGING UNIT LOCATION
ENGI.                  FISHER/JOHNSTON : RECORDED BY
WITN. REVE/PRITCHARD/STILLWELL/FARNHAM : WITNESSED BY
ORIG.                         5" PRINT : ORIGIN OF DATA
UWI .                   42041304220000 : UNIQUE WELL ID
DICO.           A2D TECHNOLOGIES, INC. : DIGITIZING COMPANY
~Other -----------------------------------------------------
# THIS JOB HAS CURVE NPHI LIMESTONE AND DPHI LIMESTONE.
~ASCII -----------------------------------------------------
 2000.00000    -999.25    -999.25    -999.25    -999.25    -999.25   32.40780    0.45000    -999.25    -999.25
 2050.00000  -52.35300    8.07200    7.80400    6.28300    9.89150   59.25850    0.34610    0.34370  110.43070
 2100.00000  -36.97300    3.52100    3.00700    4.06100   10.63760   57.17670    0.37030    0.45000  178.50850
 2150.00000  -38.91600    3.83500    3.81900    4.54100   10.82570   55.78650    0.42200    0.41520  124.24030
 2200.00000  -40.98600    9.55000    9.17500    7.79000    9.48060   54.63000    0.31520    0.40780  120.75660
 2250.00000  -40.89900    8.72500    8.99100    7.03400    9.78300   48.84260    0.30450    0.32840  113.80220
 2300.00000  -42.57500    8.53700    8.31340    6.82990   10.64460   56.25110    0.29130    0.30010  109.52750
 2350.00000  -35.20700    4.14600    4.05800    4.82700   12.91620   52.31670    0.38890    0.42520  159.33290
 2400.00000  -43.08000    9.93400    9.67700    8.50330   13.50380   51.62170    0.28990    0.32170  107.69130
 2450.00000  -40.58000   14.14520   15.69500   11.20220   12.31770   39.81460    0.28990    0.38740  123.40040
 2500.00000  -39.54900   17.46900   17.38600   13.58800   11.50600   40.27740    0.31090    0.42410  127.38370
 2550.00000  -41.59800   18.30300   22.07900   15.67000   12.59000   29.16650    0.33710    0.41410  111.91360
 2600.00000  -41.94600   17.55900   16.78800   13.28000    9.95870   46.99110    0.31680    0.37080  113.37810
 2650.00000  -41.16500   12.39500   16.84000   11.37900   12.91560   41.89890    0.35820    0.45000  135.57350
 2700.00000  -40.14900    8.94200    9.73100    8.37500   10.25820   46.29700    0.32660    0.40480  109.07460
 2750.00000  -39.15000   16.55200   17.65500   13.25500   10.92680   35.18290    0.32100    0.41830  113.37330
 2800.00000  -39.66200   12.81600   14.84000   10.44500   10.62800   43.51800    0.33260    0.40900  117.79310
 2850.00000  -39.09900   15.98700   15.81600   11.39300   11.40310   37.03740    0.34470    0.42170  116.08050
 2900.00000  -41.24500   17.41000   16.89200   12.90900   11.24830   38.42630    0.32880    0.39450  111.35770
 2950.00000  -41.04200   14.73500   15.87900   11.57300    9.69770   46.29670    0.28830    0.38860  110.82680
 3000.00000  -40.25500    6.80300    6.68800    8.57000    9.01550   66.20220    0.29410    0.27790  104.64490
 3050.00000  -42.87200   15.18800   14.13800   11.39200    8.73530   43.05410    0.33630    0.39000  113.36710
 3100.00000  -41.40800   12.98220   14.03840   12.36750    9.20090   52.31440    0.31080    0.36100  103.57290
 3150.00000  -42.71100   16.40200   15.61120   12.45550    9.13130   41.89890    0.31130    0.38030  106.94080
 3200.00000  -43.67800   16.22200   15.28700   13.51100    9.11080   44.67590    0.31500    0.38610  110.78910
 3250.00000  -44.06400   16.45900   15.60190   13.25270    9.13640   46.75930    0.30890    0.38860  105.58530
 3300.00000  -44.75400    9.18520    9.42690    8.06440    9.05820   62.03670    0.31090    0.26110  104.04320
 3350.00000  -54.16650   11.85000   12.44190   10.43260    9.13330   48.38040    0.31310    0.37570  110.40890
 3400.00000  -74.38280   13.29700   11.73900   10.88490    9.62010   44.21220    0.33230    0.38770  106.28590
 3450.00000  -68.23800    6.08100    5.81500    9.78700    9.43830   65.27800    0.38210    0.41180  101.04050
 3500.00000  -70.88900    8.30770    7.43600    7.48900    9.62020   71.06480    0.31450    0.22090  104.01330
 3550.00000  -83.69900    9.43780    7.78310    8.56500    9.01540   44.67590    0.30190    0.38630  106.38570
 3600.00000  -71.34400    5.57100    4.93500    5.94800    9.50350   54.86190    0.28580    0.29900  103.78600
 3650.00000  -92.09200    7.43900    5.39300    7.04100    8.91880   47.22520    0.30710    0.37100  101.80570
 3700.00000  -76.97100    8.52000    6.72200    8.59200    8.92240   58.33430    0.28500    0.25360   93.47240
 3750.00000  -91.29360    6.61400    4.78300    7.28400    8.86660   44.21220    0.29450    0.35990  100.95680
 3800.00000  -58.93690    3.43400    3.27900    4.26600    9.76280   54.16930    0.32130    0.20000   99.56760
 3850.00000  -58.95060    4.08900    3.89700    4.26700   12.39530   62.03700    0.31730    0.22480  108.67250
 3900.00000  -56.79010    3.17300    2.93100    3.14800   13.24250   68.74740    0.34490    0.25560  112.68490
 3950.00000  -63.88840    3.16700    3.06100    3.38600   14.83520   60.88190    0.33940    0.22500   97.47850
 4000.00000  -54.47530    2.60500    2.44400    2.99500   15.07630   64.35280    0.38980    0.22600  106.44140
 4050.00000  -54.62990    3.14600    2.82000    3.51400   15.08100   62.73090    0.29710    0.23020  102.18840
 4100.00000  -55.85520    3.39000    3.19900    3.31200   15.08520   64.35320    0.28230    0.22840  105.55280
 4150.00000  -54.31430    2.68000    2.45700    3.03700   15.10350   67.59260    0.28060    0.25980  104.02490
 4200.00000  -53.79000    2.82700    2.66100    3.11600   15.09950   62.03720    0.37910    0.17040  100.33950
 4250.00000  -53.44000    2.42700    2.13500    2.85400   15.14160   67.13040   -0.05370    0.23030  110.49310
 4300.00000  -53.64000    2.08500    1.99300    2.55000   15.13950   68.98220    0.32170    0.32450  107.74630
 4350.00000  -52.80000    1.96300    1.92400    2.40500   15.09830   63.88810    0.28610    0.22550  107.12960
 4400.00000  -52.59300    2.09400    2.00900    2.52300   15.21700   71.75960    0.30060    0.24730  106.63160
 4450.00000  -54.54200    2.17200    2.00700    2.58700   15.23950   66.66670    0.30260    0.29650  107.93940
 4500.00000  -54.60700    2.11400    2.03400    2.53100   15.24790   71.75700    0.31960    0.28480  106.51230
 4550.00000  -54.65600    2.00200    1.90300    2.49300   15.27600   75.69440    0.32060    0.28100  106.93280
 4600.00000  -53.20400    1.89500    1.75700    2.43600   15.25510   69.67930    0.31920    0.25720  104.55210
 4650.00000  -54.16100    2.56300    2.22500    2.87800   14.67850   71.99150    0.30790    0.17780  102.76610
 4700.00000  -55.23000    3.47000    3.01300    3.55500   13.31950   68.51800    0.30040    0.18060   95.38860
 4750.00000  -52.86100    2.30600    1.94000    2.72900   13.77880   66.66780    0.37280    0.21150  108.52000
 4800.00000  -54.06900    2.55200    2.30900    2.71100   13.34370   53.00960    0.26670    0.20510   95.06330
 4850.00000  -50.77190    2.10000    2.09500    2.68500   13.90810   56.01850    0.28850    0.20070   90.84100
 4900.00000  -51.23480    1.84900    1.71900    2.15800   13.50120   59.02930    0.34180    0.26120  100.44830
 4950.00000  -50.82100    1.90700    1.81000    2.22800   13.33360   57.17670    0.30870    0.23290   99.44140
 5000.00000  -53.40300    1.78100    1.70100    2.21000   13.75970   59.49170    0.34520    0.24920  106.30510
 5050.00000  -53.13300    1.38100    1.28600    2.02500   14.22770   66.89870    0.37870    0.26350  113.14980
 5100.00000  -52.74000    1.83000    1.68900    2.19800   13.81780   64.81500    0.32530    0.23660  112.18860
 5150.00000  -51.66100    1.39600    1.25600    1.92600   13.35360   62.96390    0.35360    0.28000  112.26910
 5200.00000  -50.77800    1.36200    1.31700    1.93000   13.75040   65.73960    0.35570    0.25380  115.29000
 5250.00000  -50.73500    1.35200    1.35300    1.93100   13.51140   68.28820    0.34750    0.23110  109.24060
 5300.00000  -52.04800    2.31100    2.06400    2.92200   12.78290   57.17700    0.30660    0.17020  101.96080
 5350.00000  -53.02000    4.35000    4.04700    4.76000   11.93370   40.74260    0.19140    0.11800   85.76810
 5400.00000  -50.40800    4.54600    4.50800    5.07400   11.09180   45.83410    0.20720    0.10950   83.38660
 5450.00000  -49.02500    2.97100    2.70700    2.63400   11.07820   53.70370    0.18750    0.13980   82.20870
 5500.00000  -49.28400    2.22400    1.98800    2.38600   12.97030   62.73340    0.28030    0.22270   99.72270
 5550.00000  -47.08800    1.93600    1.63900    2.33900   12.98960   67.82480    0.27660    0.22780   95.30420
 5600.00000  -49.22500    2.36800    2.09900    2.55800   13.69770   62.96450    0.26930    0.22170   96.17210
