~Version ---------------------------------------------------
VERS. 2.0 : CWLS log ASCII Standard -VERSION 2.0
WRAP. YES : MULTIPLE LINES PER DEPTH STEP
~Well ------------------------------------------------------
STRT.FT                  500.0 : START DEPTH
STOP.FT                 6300.0 : STOP DEPTH
STEP.FT               50.00000 : STEP LENGTH
NULL.                  -999.25 : NULL VALUE
COMP.    TESORO PETROLEUM CORP : COMPANY
WELL.           J H CALVERT #1 : WELL
FLD .                  UNNAMED : FIELD
LOC .                          : LOCATION
CNTY.                     FRIO : COUNTY
STAT.                    TEXAS : STATE
CTRY. UNITED STATES OF AMERICA : COUNTRY
SRVC.             Schlumberger : SERVICE COMPANY
DATE.              23-Oct-1976 : LOGDATE
API .           42163307280000 : API NUMBER
UWI .           42163307280000 : UNIQUE WELL ID
SLAT.WGS84       28.8088921369 : SURFACE LATITUDE
SLON.WGS84      -99.2956255059 : SURFACE LONGITUDE
~Curve Information -----------------------------------------
DEPT    .FT    : DEPTH FEET
ALL8ED  .OHMM  : AMPLIFIED LATERAL LOG 8
CALDED  .IN    : CALIPER FROM DENSITY LOG
CALWS   .IN    : CALIPER [CALDED]
CILDED  .MMHO  : CONDUCTIVITY FROM RESISTIVITY LOG
CONDWS  .MMHO  : CONDUCTIVITY [CILDED]
CORRED  .G/C3  : DENSITY CORRECTION FROM DENSITY LOG
DCORWS  .G/C3  : DENSITY CORRECTION [CORRED]
DENWS   .G/C3  : BULK DENSITY [M=2.71 F=1.0] [RHOBED]
DPHILSED.V/V   : DENSITY POROSITY [M=2.71 F=1.0] FROM DENSITY LOG
DPOWS   .V/V   : DENSITY POROSITY [M=2.71 F=1.0] [CAL FR DENWS]
DRESWS  .OHMM  : DEEP RESISTIVITY [ILDED] IF DRESWS<2;1000/CONDWS
GRDED   .GAPI  : GAMMA RAY FROM DENSITY LOG
GRED    .GAPI  : GAMMA RAY  [CASEDHOLE][DEP ADJ TO GRDED]
GRWS    .GAPI  : GAMMA RAY [500 GRED 5150 GRDED]
ILDED   .OHMM  : INDUCTION LOG DEEP RESISTIVITY
NPHILSED.V/V   : NEUTRON POROSITY LIMESTONE FROM DENSITY LOG
NPOWS   .V/V   : NEUTRON POROSITY LIMESTONE [NPHILSED]
RHOBED  .G/C3  : BULK DENSITY FROM DENSITY LOG DEP ADJ TO DPHILSED]
SPRED   .MV    : SPONTANEOUS POTENTIAL FROM RESISTIVITY LOG [SHIFT IS REMOVED]
SPWS    .MV    : SPONTANEOUS POTENTIAL [BASELINE 0 MV] [SPRED]
SRESWS  .OHMM  : SHALLOW RESISTIVITY [ALL8ED]
~Params ----------------------------------------------------
PD  .                     GL : PERMANENT DATUM
EPD .F                 525.9 : ELEVATION PERMANENT DATUM
LMF .                     KB : LOG MEASURED FROM
DAPD.F                  12.3 : FEET ABOVE PERMANENT DATUM
DMF .                     KB : DRILLING MEASURED FROM
EKB .F                 538.7 : KELLING BUSHING
EDF .F                 537.7 : DRILLING FLOOR
EGL .F                 525.9 : GROUND LEVEL
DATE.            23-OCT-1976 : RUN DATE
RUN .                      1 : RUN NUMBER
DD  .F                  6325 : DEPTH DRILLER
DL  .F                  6325 : DEPTH LOGGER
BLI .F                  6324 : BOTTOM LOG INTERVAL
TLI .F                  5150 : TOP LOG INTERVAL
CS  .IN                8.625 : CASING SIZE
CBD .F                   503 : CASING BOTTOM DRILLER
CBL .F                   503 : CASING BOTTOM LOGGER
BS  .IN                7.875 : BIT SIZE
BSD .F                  6325 : BIT SIZE AT DEPTH
DFT . LIGNITE-LIGNOSULFONATE : DRILLING FLUID TYPE
DFD .                    9.3 : DRILLING FLUID DENSITY
DFV .                     53 : DRILLING FLUID VISCOSITY
DFPH.                     10 : DRILLING FLUID PH
DFL .                    4.6 : DRILLING FLUID LOSS
MSS .                    PIT : MUD SAMPLE SOURCE
RMS .OHMM               1.12 : RESISTIVITY MUD SAMPLE
MST .F                    75 : MUD SAMPLE TEMPERATURE
RMF .OHMM                1.0 : RESISTIVITY MUD FILTRATE SAMPLE
MFST.F                    75 : MUD FILTRATE SAMPLE TEMPERATURE
RMC .OHMM               0.92 : RESISTIVITY MUD CAKE
MCST.F                    75 : MUD CAKE SAMPLE TEMPERATURE
MFSS.                   MEAS : MUD FILTRATE SAMPLE SOURCE
MCSS.                  CHART : MUD CAKE SAMPLE SOURCE
RMB .OHMM               0.56 : RESISTIVITY MUD AT BHT
MRT .F                   152 : MAXIMUM RECORDED TEMPERATURE
LUN .                   7676 : LOGGING UNIT NUMBER
LUL .                  PLEAS : LOGGING UNIT LOCATION
ENGI.                 POWELL : RECORDING ENGINEER
CLNT.                A2DTECH : CLIENT CODE
ORIG.          1" 2.5" PRINT : ORIGIN OF DATA
UWI .         42163307280000 : UNIQUE WELL ID
DICO. A2D Technologies, Inc. : DIGITIZING COMPANY
~Other -----------------------------------------------------
~ASCII -----------------------------------------------------
# ...
 5450.00000    5.78780   10.02730   10.02730  222.96200  222.96200    0.00260    0.00260    2.54580    0.09190    0.09600    4.93580   54.09660   44.59010   54.09660    4.93580    0.12970    0.12970    2.54580  -24.38220  -11.60450    5.78780
 5500.00000    5.17950   10.00840   10.00840  273.73560  273.73560    0.03020    0.03020    2.52870    0.10510    0.10600    3.65320   66.05610   50.57980   66.05610    3.65320    0.15720    0.15720    2.52870  -24.87110  -12.25320    5.17950
 5550.00000    6.39770    9.30660    9.30660  229.45220  229.45220    0.15020    0.15020    2.58240    0.07280    0.07460    6.02940   55.46820   45.00560   55.46820    6.02940    0.17500    0.17500    2.58240  -24.36720  -11.90910    6.39770
 5600.00000   12.42020    8.69280    8.69280   98.78080   98.78080    0.01540    0.01540    2.54660    0.09250    0.09560    9.91610   28.71990   24.25270   28.71990    9.91610    0.08680    0.08680    2.54660  -27.47240  -15.17410   12.42020
 5650.00000   21.97350    9.15920    9.15920   46.22270   46.22270    0.02670    0.02670    2.59310    0.05800    0.06840   30.15440   28.86370   27.00770   28.86370   30.15440    0.06590    0.06590    2.59310  -37.57930  -25.44080   21.97350
 5700.00000   31.89800    9.36050    9.36050   39.18580   39.18580    0.01070    0.01070    2.65420    0.03190    0.03260   24.48370   19.91120   19.82090   19.91120   24.48370    0.04370    0.04370    2.65420  -32.06740  -20.08870   31.89800
 5750.00000   17.63690    9.70110    9.70110   61.87800   61.87800    0.00670    0.00670    2.63140    0.04450    0.04600   14.59740   21.02430   24.03650   21.02430   14.59740    0.04750    0.04750    2.63140  -31.48800  -19.66910   17.63690
 5800.00000   37.30900    9.68900    9.68900   33.47840   33.47840    0.01310    0.01310    2.63640    0.04340    0.04300   32.57160   29.87750   19.59110   29.87750   32.57160    0.05650    0.05650    2.63640  -30.61960  -18.96060   37.30900
 5850.00000   15.26220    9.37940    9.37940   73.95470   73.95470   -0.00050   -0.00050    2.59610    0.06480    0.06660   13.52200   36.62290   36.14260   36.62290   13.52200    0.08590    0.08590    2.59610  -26.87100  -15.37180   15.26220
 5900.00000   12.45850    9.11130    9.11130   98.15680   98.15680    0.01340    0.01340    2.60230    0.06070    0.06300   10.18800   29.19330   32.25810   29.19330   10.18800    0.09030    0.09030    2.60230  -28.03950  -16.70010   12.45850
 5950.00000   16.00040    8.88920    8.88920   68.10200   68.10200    0.00950    0.00950    2.58720    0.07220    0.07180   13.82710   43.25950   33.55400   43.25950   13.82710    0.08960    0.08960    2.58720  -36.33520  -25.15560   16.00040
 6000.00000   29.39840    8.47510    8.47510   43.93040   43.93040    0.01650    0.01650    2.59730    0.06640    0.06590   22.36570   49.17710   38.63260   49.17710   22.36570    0.08220    0.08220    2.59730  -41.87490  -30.85510   29.39840
 6050.00000   45.70180    8.45450    8.45450   40.17920   40.17920    0.00780    0.00780    2.57150    0.07980    0.08100   24.41890   59.66250   51.72130   59.66250   24.41890    0.14750    0.14750    2.57150  -16.38990   -5.52990   45.70180
 6100.00000   29.94480    8.61660    8.61660   55.57560   55.57560    0.01870    0.01870    2.49080    0.12610    0.12820   19.44540   98.20950   61.04260   98.20950   19.44540    0.19850    0.19850    2.49080  -18.27660   -7.57640   29.94480
 6150.00000  485.69000    7.75960    7.75960    7.57010    7.57010    0.00480    0.00480    2.43770    0.16030    0.15920  456.83280   63.01630   53.47430   63.01630  456.83280    0.22100    0.22100    2.43770  -13.28730   -2.92880  485.69000
 6200.00000  136.30090    7.73110    7.73110    6.28910    6.28910    0.02020    0.02020    2.67140    0.02130    0.02260  217.49470   16.50640   20.76610   16.50640  217.49470    0.02470    0.02470    2.67140  -55.65750  -46.67120  136.30090
 6250.00000   89.38420    7.69390    7.69390    6.25980    6.25980    0.01210    0.01210    2.67810    0.01460    0.01870  107.50950   21.95350   22.36410   21.95350  107.50950    0.02210    0.02210    2.67810  -50.82700  -43.21300   89.38420
 6300.00000   41.71660    7.79070    7.79070   19.26490   19.26490    0.01670    0.01670    2.66720    0.01930    0.02500   61.41770   22.34800    -999.25   22.34800   61.41770    0.04170    0.04170    2.66720  -31.28830  -25.04650   41.71660
