~Version ---------------------------------------------------
VERS. 2.0 : CWLS log ASCII Standard -VERSION 2.0
WRAP.  NO : One line per depth step
~Well ------------------------------------------------------
STRT.FT                 2350.0 : START DEPTH
STOP.FT                 8250.0 : STOP DEPTH
STEP.FT               50.00000 : STEP LENGTH
NULL.                  -999.25 : NULL VALUE
COMP.        IKE LOVELADY INC. : COMPANY
WELL.           RUTH BOWERS #1 : WELL
FLD .                   STRAIT : FIELD
LOC .                          : LOCATION
CNTY.                   DIMMIT : COUNTY
STAT.                    TEXAS : STATE
CTRY. UNITED STATES OF AMERICA : COUNTRY
SRVC.                          : SERVICE COMPANY
DATE.                          : LOGDATE
API .           42127317180000 : API NUMBER
UWI .           42127317180000 : UNIQUE WELL ID
SLAT.WGS84       28.5460115215 : SURFACE LATITUDE
SLON.WGS84      -99.5917438073 : SURFACE LONGITUDE
~Curve Information -----------------------------------------
DEPT  .FT    : DEPTH
CILDED.MMHO  : CONDUCTIVITY FROM RESISTIVITY LOG
ILDED .OHMM  : INDUCTION LOG DEEP RESISTIVITY
ALL8ED.OHMM  : AVG. LATEROLOG-8 RESISTIVITY
SPED  .MV    : SPONTANEOUS POTENTIAL [BASELINE 0 MV] FROM RESISTIVITY LOG
NPHIED.V/V   : NEUTRON POROSITY SANDSTONE FROM DENSITY LOG DEPTH ADJUSTED TO ALL8ED
CALDED.IN    : CALIPER FROM DENSITY LOG DEPTH ADJUSTED TO ALL8ED
CORRED.G/C3  : DENSITY CORRECTION FROM DENSITY LOG DEPTH ADJUSTED TO ALL8ED
GRDED .GAPI  : GAMMA RAY FROM DENSITY LOG DEPTH ADJUSTED TO ALL8ED
RHOBED.G/C3  : BULK DENSITY FROM DENSITY LOG DEPTH ADJUSTED TO ALL8ED
CALWS .IN    : CALIPER [CALDED]
CONDWS.MMHO  : CONDUCTIVITY [CILDED]
DCORWS.G/C3  : DENSITY CORRECTION [DRHOED]
DENWS .G/C3  : BULK DENSITY [RHOBED]
DRESWS.OHMM  : DEEP RESISTIVITY [2350 ILDED, 7200 1000/CILDED] [IF DRESWS<1;1000/CILDED]
GRWS  .GAPI  : GAMMA RAY [GRDED]
NPOWS .V/V   : NEUTRON POROSITY LIMESTONE [NPHIED]
SPWS  .MV    : SPONTANEOUS POTENTIAL [SPED]
SRESWS.OHMM  : SHALLOW RESISTIVITY [ALL8ED]
DPOWS .V/V   : DENSITY POROSITY [M=2.71 F=1.0] [CALCULATED FROM RHOBED]
~Params ----------------------------------------------------
EKB .F                 486.0 : Kelly bushing
EGL .F                 474.0 : Ground level
EDF .F                 485.0 : Drilling floor
EPD .F                 474.0 : Permanent datum
TD  .F                8268.0 : Total depth
CLNT.                A2DTECH : Client Code
SL  .   1980' FEL & 660' FSL : Surface Location
PD  .                     GL : Permanent Datum
LMF .                     KB : Log Measured From
DMF .                     KB : Drilling Measured From
DAPD.F                    12 : Feet Above Permanent Datum
DATE.            07-JUL-1978 : Date Logged [DD-MMM-YYYY]
DD  .F                  8268 : Depth driller
DL  .F                  8260 : Depth logger
BLI .F                  8259 : Bottom log interval
TLI .F                  7950 : Top log interval
CS1 .IN                7.625 : Casing size
CBD1.         7.625" @ 7180' : Casing driller 1
BS1 .IN                  6.5 : Bit size
BSD1.F                  8268 : Depth drilled with bit1
DFT .              LIGNOSULF : Type fluid in hole
DFD .                    9.5 : Density
DFV .                     47 : Viscosity
DFPH.                     10 : pH
DFL .                    5.8 : Fluid loss
MSS .              CIRC TANK : Source of sample
RMS .OHMM               0.64 : Rm
RMF .OHMM               0.53 : Rmf
MFSS.                   MEAS : Source Rmf.
RMC .OHMM                0.5 : Rmc
MCSS.                   CALC : Source Rmc.
RMB .OHMM                0.3 : Rm. at BHT
BHT .F                   172 : BHT.
TCS .HRS                 900 : Time Circ. stopped
TLAB.HRS                1730 : Time logger at bottom
LUN .                   7769 : Logging unit number
LUL .                 LAREDO : Logging unit location
ENGI.          RENFROW/FOGAL : Recorded By
WITN.                GRIFFEN : Witnessed by
ORIG.        2.5" & 1" PRINT : Origin of data
UWI .         42127317180000 : Unique Well ID
DICO. A2D TECHNOLOGIES, INC. : Digitizing Company
~Other -----------------------------------------------------
~ASCII -----------------------------------------------------
 2350.00000    -999.25    -999.25    -999.25    -999.25    -999.25    -999.25    -999.25    -999.25    -999.25    -999.25    -999.25    -999.25    -999.25    -999.25    -999.25    -999.25    -999.25    -999.25    -999.25
 2400.00000  122.75450    7.56220    7.71820  -12.80880    0.36680   12.24860    0.02370   69.62220    2.22600   12.24860  122.75450    0.02370    2.22600    7.56220   69.62220    0.36680  -12.80880    7.71820    0.28300
 2450.00000  268.33540    3.32090    2.79510    0.08140    0.39760   14.89740    0.16880   79.89160    2.21230   14.89740  268.33540    0.16880    2.21230    3.32090   79.89160    0.39760    0.08140    2.79510    0.29110
 2500.00000  316.36690    3.20900    3.61610   -0.00560    0.39170   14.33570    0.09380   80.33950    2.31300   14.33570  316.36690    0.09380    2.31300    3.20900   80.33950    0.39170   -0.00560    3.61610    0.23220
 2550.00000  241.39240    4.44030    4.32550   -2.38680    0.32220   12.77090    0.04010   86.23470    2.36590   12.77090  241.39240    0.04010    2.36590    4.44030   86.23470    0.32220   -2.38680    4.32550    0.20120
 2600.00000  247.02570    4.32840    4.65280   -2.26160    0.29290   13.46630    0.06200   97.83920    2.44920   13.46630  247.02570    0.06200    2.44920    4.32840   97.83920    0.29290   -2.26160    4.65280    0.15250
 2650.00000  290.41910    3.50740    3.08030   -3.10640    0.30280   15.19690    0.13720   85.43750    2.42710   15.19690  290.41910    0.13720    2.42710    3.50740   85.43750    0.30280   -3.10640    3.08030    0.16540
 2700.00000  427.89400    2.16420    2.32140   -1.71260    0.35760   15.61090    0.09210   93.39140    2.45520   15.61090  427.89400    0.09210    2.45520    2.16420   93.39140    0.35760   -1.71260    2.32140    0.14900
 2750.00000  474.17780    2.05220    2.17260   -1.81120    0.37930   13.83910    0.01990   94.54910    2.44610   13.83910  474.17780    0.01990    2.44610    2.05220   94.54910    0.37930   -1.81120    2.17260    0.15430
 2800.00000  384.73060    2.53730    7.02380   -0.86500    0.29650   12.72310    0.00130   92.80070    2.45810   12.72310  384.73060    0.00130    2.45810    2.53730   92.80070    0.29650   -0.86500    7.02380    0.14730
 2850.00000  497.00640    1.75370    2.06850   -0.14270    0.38740   13.51380    0.01930   92.84970    2.40100   13.51380  497.00640    0.01930    2.40100    1.75370   92.84970    0.38740   -0.14270    2.06850    0.18070
 2900.00000  400.44910    1.71640    1.91960   -0.31600    0.33470   13.64880    0.05950   80.50570    2.49700   13.64880  400.44910    0.05950    2.49700    1.71640   80.50570    0.33470   -0.31600    1.91960    0.12460
 2950.00000  286.42760    2.87310    2.78280    0.10780    0.29370   13.18820   -0.00040   78.77860    2.48670   13.18820  286.42760   -0.00040    2.48670    2.87310   78.77860    0.29370    0.10780    2.78280    0.13060
 3000.00000  420.65870    1.74130    2.41070    0.90040    0.30260   13.14430    0.00220   85.73460    2.46160   13.14430  420.65870    0.00220    2.46160    1.74130   85.73460    0.30260    0.90040    2.41070    0.14530
 3050.00000  300.89970    2.98510    3.28870   -2.10090    0.31460   12.94800    0.13930   67.43700    2.42350   12.94800  300.89970    0.13930    2.42350    2.98510   67.43700    0.31460   -2.10090    3.28870    0.16750
 3100.00000  187.87450    4.35320    4.79660   -2.51490    0.27590   12.97960    0.06720   64.32510    2.56120   12.97960  187.87450    0.06720    2.56120    4.35320   64.32510    0.27590   -2.51490    4.79660    0.08700
 3150.00000  187.74880    4.62690    5.19350   -4.42160    0.18370   12.77220    0.18350   61.17400    2.57750   12.77220  187.74880    0.18350    2.57750    4.62690   61.17400    0.18370   -4.42160    5.19350    0.07750
 3200.00000  114.27150    8.60690    8.00600   -8.11920    0.19830   13.91840   -0.00430   50.91050    2.50010   13.91840  114.27150   -0.00430    2.50010    8.60690   50.91050    0.19830   -8.11920    8.00600    0.12270
 3250.00000  145.58380    6.45520    5.93750   -5.27470    0.24190   14.33810    0.05080   65.45190    2.56920   14.33810  145.58380    0.05080    2.56920    6.45520   65.45190    0.24190   -5.27470    5.93750    0.08230
 3300.00000  122.25420    6.44280    7.14270   -6.31060    0.30720   14.03990    0.07760   56.77650    2.53000   14.03990  122.25420    0.07760    2.53000    6.44280   56.77650    0.30720   -6.31060    7.14270    0.10530
 3350.00000  286.30240    3.74370    3.92360   -2.96850    0.29360   14.44350    0.13020   67.03120    2.45420   14.44350  286.30240    0.13020    2.45420    3.74370   67.03120    0.29360   -2.96850    3.92360    0.14960
 3400.00000  248.50150    3.13470    3.89880   -4.40250    0.30340   15.25770    0.18760   65.41450    2.33340   15.25770  248.50150    0.18760    2.33340    3.13470   65.41450    0.30340   -4.40250    3.89880    0.22020
 3450.00000   90.19550   11.09460   22.07600  -31.45840    0.17890   11.56160    0.03880   38.64450    2.43320   11.56160   90.19550    0.03880    2.43320   11.09460   38.64450    0.17890  -31.45840   22.07600    0.16190
 3500.00000  244.26010    4.92540    3.79460   -1.20090    0.31060   13.26410    0.08050   65.65600    2.45250   13.26410  244.26010    0.08050    2.45250    4.92540   65.65600    0.31060   -1.20090    3.79460    0.15060
 3550.00000  286.55200    3.40800    3.47470   -2.58510    0.33030   13.61280    0.05770   67.41490    2.48550   13.61280  286.55200    0.05770    2.48550    3.40800   67.41490    0.33030   -2.58510    3.47470    0.13130
 3600.00000  197.60270    4.42790    3.90870   -1.38240    0.29920   13.59400    0.11630   69.24070    2.42880   13.59400  197.60270    0.11630    2.42880    4.42790   69.24070    0.29920   -1.38240    3.90870    0.16440
 3650.00000  198.10380    4.78850    5.07940   -0.93070    0.26620   12.45140    0.11280   68.40980    2.41760   12.45140  198.10380    0.11280    2.41760    4.78850   68.40980    0.26620   -0.93070    5.07940    0.17100
 3700.00000  216.56690    3.55720    3.91870   -1.83550    0.29220   12.70580    0.02140   64.76050    2.49160   12.70580  216.56690    0.02140    2.49160    3.55720   64.76050    0.29220   -1.83550    3.91870    0.12770
 3750.00000  302.39460    3.02240    3.28370   -2.75750    0.29230   13.88970    0.01570   75.96310    2.52220   13.88970  302.39460    0.01570    2.52220    3.02240   75.96310    0.29230   -2.75750    3.28370    0.10980
 3800.00000  304.39120    2.93530    3.38290   -2.45980    0.25990   14.03930    0.07020   71.60100    2.54790   14.03930  304.39120    0.07020    2.54790    2.93530   71.60100    0.25990   -2.45980    3.38290    0.09480
 3850.00000  350.54920    2.71140    2.95390   -2.62890    0.29810   13.32260    0.02830   85.28570    2.52240   13.32260  350.54920    0.02830    2.52240    2.71140   85.28570    0.29810   -2.62890    2.95390    0.10970
 3900.00000  379.28290    2.31340    3.08040   -1.97290    0.27280   12.72710    0.06160   74.11960    2.56560   12.72710  379.28290    0.06160    2.56560    2.31340   74.11960    0.27280   -1.97290    3.08040    0.08440
 3950.00000  461.82630    2.05220    2.20980   -2.02170    0.37900   12.62390    0.01580   80.37480    2.44810   12.62390  461.82630    0.01580    2.44810    2.05220   80.37480    0.37900   -2.02170    2.20980    0.15320
 4000.00000  340.81550    2.53730    3.09520   -2.70100    0.32870   13.29020    0.05670   71.89730    2.45560   13.29020  340.81550    0.05670    2.45560    2.53730   71.89730    0.32870   -2.70100    3.09520    0.14880
 4050.00000  345.43650    2.31340    2.81990   -2.81200    0.33850   13.59290    0.02210   86.23260    2.46730   13.59290  345.43650    0.02210    2.46730    2.31340   86.23260    0.33850   -2.81200    2.81990    0.14190
 4100.00000  273.20360    3.28360    3.69540   -3.46270    0.27270   13.00930    0.05830   72.37430    2.49130   13.00930  273.20360    0.05830    2.49130    3.28360   72.37430    0.27270   -3.46270    3.69540    0.12790
 4150.00000  367.13960    2.76120    2.83980   -3.54500    0.33700   13.26190    0.03730   81.47150    2.49040   13.26190  367.13960    0.03730    2.49040    2.76120   81.47150    0.33700   -3.54500    2.83980    0.12840
