~Version ---------------------------------------------------
VERS. 2.0 : CWLS log ASCII Standard -VERSION 2.0
WRAP.  NO : ONE LINE PER DEPTH STEP
~Well ------------------------------------------------------
STRT.F                   4800.0 : START DEPTH
STOP.F                   7550.0 : STOP DEPTH
STEP.F                 50.00000 : STEP LENGTH
NULL.                   -999.25 : NULL VALUE
COMP. EVERGREEN OIL CORPORATION : COMPANY
WELL.         CHARLES WILSON #1 : WELL
FLD .                   WILDCAT : FIELD
LOC .                           : LOCATION
CNTY.                    DIMMIT : COUNTY
STAT.                     TEXAS : STATE
CTRY.  UNITED STATES OF AMERICA : COUNTRY
SRVC.                   Unknown : SERVICE COMPANY
DATE.               26-Jan-1982 : LOGDATE
API .            42127323000000 : API NUMBER
UWI .            42127323000000 : UNIQUE WELL ID
SLAT.WGS84        28.4547549475 : SURFACE LATITUDE
SLON.WGS84       -99.8233713589 : SURFACE LONGITUDE
~Curve Information -----------------------------------------
DEPT.F                 : 
SFL .OHMM 07 220 01 00 : SFL
ILD .OHMM 07 120 46 00 : INDUCTION
SP  .MV   07 010 01 00 : SPONTANEOUS POTENTIAL
GR  .GAPI 07 310 01 00 : GAMMA RAY
CILD.MMHO 07 110 46 00 : CONDUCTIVITY
~Params ----------------------------------------------------
EKB .F                 616.0 : KELLY BUSHING
EGL .F                   600 : ELEVATION GROUND LEVEL
EDF .F                   615 : ELEVATION DERRICK FLOOR
EPD .F                   600 : ELEVATION PERMANENT DATUM
TD  .F                7585.0 : TOTAL DEPTH
DATE.            27-JAN-1982 : DATE LOGGED
CLNT.                A2DTECH : CLIENT CODE
PD  .                     GL : PERMANENT DATUM
LMF .                     KB : LOG MEASURED FROM
DMF .                     KB : DRILLING MEASURED FROM
DAPD.F                    16 : FEET ABOVE PERMANENT DATUM
DD  .F                  7585 : DEPTH DRILLER
DL  .F                  7560 : DEPTH LOGGER
BLI .F                  7554 : BOTTOM LOG INTERVAL
TLI .F                  4900 : TOP LOG INTERVAL
CS1 .IN                8.625 : CASING SIZE
CBD1.         8.625" @ 1600' : CASING DRILLER 1
CBL1.F            NOT LOGGED : CASING LOGGER 1
BS1 .IN                7.875 : BIT SIZE
BSD1.F                  7585 : DEPTH DRILLED WITH BIT1
DFT .              KCL + GEL : TYPE FLUID IN HOLE
DFD .                    1.2 : DENSITY
DFV .                     38 : VISCOSITY
DFPH.                   10.2 : PH
MSS .               FLOWLINE : SOURCE OF SAMPLE
RMS .OHMM               0.99 : RM
RMF .OHMM               0.73 : RMF
RMC .OHMM               1.45 : RMC
MFSS.                   CALC : SOURCE RMF.
MCSS.                   CALC : SOURCE RMC.
RMB .OHMM               0.65 : RM. AT BHT
BHT .F                   189 : BHT.
TCS .HRS                1300 : TIME CIRC. STOPPED
TLAB.                    930 : TIME LOGGER AT BOTTOM
LUN .                   8118 : LOGGING UNIT NUMBER
LUL .                 LAREDO : LOGGING UNIT LOCATION
ENGI.          R.B MCKISOICK : RECORDED BY
WITN.       FAROUHAR/MR PUFF : WITNESSED BY
ORIG.               5" PRINT : ORIGIN OF DATA
UWI .         42127323000000 : UNIQUE WELL ID
DICO. A2D TECHNOLOGIES, INC. : DIGITIZING COMPANY
~Other -----------------------------------------------------
~ASCII -----------------------------------------------------
 4800.00000    5.57240    5.68240    1.93700   75.58700  194.06600
 4850.00000    4.16030    3.54830    4.34100   74.15800  299.12500
 4900.00000    3.45740    3.29170    5.43100   83.76600  324.94900
 4950.00000    4.31520    4.01770    6.57400   74.75500  261.43000
 5000.00000    9.19450    7.80060    4.39500   45.65000  144.84500
 5050.00000    6.54120    6.87470    3.53300   66.69800  171.69300
 5100.00000   24.92410   20.43380    1.94200   44.83700   50.09700
 5150.00000   36.76920   33.91680    0.02100   34.29700   38.42400
 5200.00000   11.57550   11.47890    2.76200   48.73900   83.85200
 5250.00000    9.13760    7.59140    1.95400   64.02000  132.78200
 5300.00000   28.30720   21.34660    3.38300   48.86100   42.31500
 5350.00000   19.22490   16.78080    3.20500   48.41200   61.77000
 5400.00000   53.53340   44.84780    1.70400   39.40700   26.10800
 5450.00000   20.49530    9.91260    5.35000   38.65400  122.08200
 5500.00000   91.94530   40.00300    5.19700   41.33700   37.45100
 5550.00000  433.89130   49.37690    1.34200   24.33100    4.16900
 5600.00000   65.60370   50.77300    5.39300   30.43700   16.05100
 5650.00000   63.86900   59.63110    5.23600   46.55700   15.07800
 5700.00000   75.05070   57.22050   -0.21700   23.25100   18.61800
 5750.00000   64.70370   62.50030    0.80000   19.44500   17.71800
 5800.00000   40.50150   40.02470    0.27300   32.72100   23.48700
 5850.00000   56.80150   54.30240   -1.54600   16.52300   21.10900
 5900.00000  290.08360   86.30500   -0.97100   88.17300   13.13200
 5950.00000  177.33720  114.47080   -3.33600   40.15800    9.63000
 6000.00000  495.82070  330.99830    0.32400   56.28700    4.70300
 6050.00000  146.77050   96.85730    2.91700   41.72600   13.13200
 6100.00000   97.75230   50.63230    3.79500   38.15400   20.74800
 6150.00000  174.35410   65.99120    0.09800   37.61900   15.56400
 6200.00000   36.06890   23.45730    6.34700   62.06500   42.05300
 6250.00000   98.47980   98.21400    8.62800   55.58800   18.96900
 6300.00000  127.00740   68.06990    3.44300   71.49800   13.79300
 6350.00000   34.19720   94.68980    0.91800   64.43200   52.18200
 6400.00000  499.24010  218.96810    0.29000   23.53800    9.45800
 6450.00000  347.68740  498.77500   -1.50800   10.54300    5.35000
 6500.00000    7.68740    7.38490    9.29900   52.84000  181.42000
 6550.00000    3.79950    4.11620   17.63100   67.25300  347.76300
 6600.00000    4.58450    4.21090   16.03500   59.79300  237.05600
 6650.00000    5.87640    5.17840   16.74100   61.57700  216.92600
 6700.00000  110.40700  125.46810   15.05600   17.48700   19.90800
 6750.00000  156.91490  279.19720   -6.92300   12.29600   12.16000
 6800.00000  479.26910  259.79140   -2.92000   16.32000    7.38400
 6850.00000  152.10230   82.90630   -1.66300   15.22200    3.77500
 6900.00000  231.96700  218.73030    2.06700   17.42200    7.35600
 6950.00000  395.85170  475.96420   -6.19900   16.45600    7.29600
 7000.00000  324.71780   10.73600  -12.46800   21.32100    8.27100
 7050.00000   54.30130  237.61380  -14.07100   39.68400   13.07100
 7100.00000  498.98410  499.88620   -3.79800   20.42200    4.60150
 7150.00000    -999.25    -999.25   -9.21800   12.72200    3.17600
 7200.00000   57.37080   49.49790   11.76300   25.29600   19.05200
 7250.00000   39.79350   36.47720   11.72200   28.38200   23.83300
 7300.00000   61.70210   38.16390   17.01500   28.36900   29.77600
 7350.00000  496.42860  496.87020   12.28300   17.49300    6.43100
 7400.00000    -999.25  393.60660   -2.04400   49.49700    1.92800
 7450.00000    -999.25  500.37940    6.87300   14.37100    3.40500
 7500.00000    -999.25    -999.25   -3.77000   39.54800    -999.25
 7550.00000    -999.25    -999.25   -4.76500   30.07900    -999.25
