~Version ---------------------------------------------------
VERS. 2.0 : CWLS log ASCII Standard -VERSION 2.0
WRAP. YES : Multiple lines per depth step
~Well ------------------------------------------------------
STRT.FT                  2300.0 : START DEPTH
STOP.FT                 10600.0 : STOP DEPTH
STEP.FT                50.00000 : STEP LENGTH
NULL.                   -999.25 : NULL VALUE
COMP. PAUL E CAMERON, JR., INC. : COMPANY
WELL.           FREEMAN UNIT #1 : WELL
FLD .                    BEDIAS : FIELD
LOC .                           : LOCATION
CNTY.                    GRIMES : COUNTY
STAT.                     TEXAS : STATE
CTRY.  UNITED STATES OF AMERICA : COUNTRY
SRVC.                     Welex : SERVICE COMPANY
DATE.               15-Aug-1981 : LOGDATE
API .            42185302840000 : API NUMBER
UWI .            42185302840000 : UNIQUE WELL ID
SLAT.WGS84        30.7842928206 : SURFACE LATITUDE
SLON.WGS84        -95.978471058 : SURFACE LONGITUDE
~Curve Information -----------------------------------------
DEPT    .FT    : DEPTH
CALDED  .IN    : CALIPER FROM DENSITY LOG (ADJ TO RES.)
CALWS   .IN    : CALIPER (CALDED)
CONDWS  .MMHO  : CONDUCTIVITY (1000/DRESWS)
CORRED  .G/C3  : DENSITY CORRECTION (ADJ TO RES.)
DCORWS  .G/C3  : DENSITY CORRECTION (CORRED)
DENWS   .G/C3  : BULK DENSITY  (RHOBED LS)
DPORLSED.V/V   : DENSITY POROSITY  LIMESTONE (ADJ TO RES.)
DPOWS   .V/V   : DENSITY POROSITY (M=2.71 F=1 DPORLSED)
DRESWS  .OHMM  : DEEP RESISTIVITY (ILDED0
GRDED   .GAPI  : GAMMA RAY FROM DENSITY LOG (ADJ TO RES.)
GRRED   .GAPI  : GAMMA RAY FROM RESISTIVITY LOG
GRWS    .GAPI  : GAMMA RAY (GRRED)
ILDED   .OHMM  : DEEP INDUCTION RESISTIVITY
ILMED   .OHMM  : MEDIUM INDUCTION RESISTIVITY
MRESWS  .OHMM  : MEDIUM RESISTIVITY (ILMED)
NEUTED  .NAPI  : Neutron from Neutron Gamma Log (ADJ TO RES.)
NEUTWS  .NAPI  : Neutron from Neutron Gamma Log (NEUTED)
RHOBED  .G/C3  : BULK DENSITY (ADJ TO RES.)
SGUARDED.OHMM  : SHORT GUARD LOG RESISTIVITY
SPRED   .MV    : Spontaneous Potential from Resistivity Log
SPWS    .MV    : SPONTANEOUS POTENTIAL BASELINE 0 MV (SPRED)
SRESWS  .OHMM  : SHALLOW RESISTIVITY (SGUARDED)
~Params ----------------------------------------------------
PD  .                     GL : PERMANENT DATUM
LMF .                    TKB : LOG MEASURED FROM
DAPD.FT                 18.2 : FEET ABOVE PERMANENT DATUM
DMF .                    TKB : DRILLING MEASURED FROM
DATE.               08/15/81 : RUN DATE
RUN .                      1 : RUN NUMBER
DD  .FT                10631 : DEPTH DRILLER
DL  .FT                10612 : DEPTH LOGGER
BLI .FT                10610 : BOTTOM LOG INTERVAL
TLI .FT                 2287 : TOP LOG INTERVAL
CS  .IN                9.625 : CASING SIZE
CBD .FT                 2294 : CASING BOTTOM DRILLER
CBL .FT                 2287 : CASING BOTTOM LOGGER
BS  .IN                 8.75 : BIT SIZE
BSD .FT                10631 : BIT SIZE AT DEPTH
DFT .     LIGNOSULFONATE MUD : DRILLING FLUID TYPE
DFD .                    9.9 : DRILLING FLUID DENSITY
DFV .                     50 : DRILLING FLUID VISCOSITY
DFPH.                    1.8 : DRILLING FLUID PH
DFL .                      6 : DRILLING FLUID LOSS
MSS .                    PIT : MUD SAMPLE SOURCE
RMS .OHMM               1.84 : RESISTIVITY MUD SAMPLE
MST .DEGF                 75 : MUD SAMPLE TEMPERATURE
RMF .OHMM               1.64 : RESISTIVITY MUD FILTRATE SAMPLE
MFST.DEGF                 75 : MUD FILTRATE SAMPLE TEMPERATURE
RMC .OHMM               1.41 : RESISTIVITY MUD CAKE
MCST.DEGF                 75 : MUD CAKE SAMPLE TEMPERATURE
MFSS.                   MEAS : MUD FILTRATE SAMPLE SOURCE
MCSS.                   MEAS : MUD CAKE SAMPLE SOURCE
RMB .OHMM               0.62 : RESISTIVITY MUD AT BHT
TCS .HRS                   7 : TIME CIRCULATED STOPPED
LUN .                   1123 : LOGGING UNIT NUMBER
LUL .                   BRYN : LOGGING UNIT LOCATION
ENGI.                  SMITH : RECORDING ENGINEER
CLNT.                A2DTECH : CLIENT CODE
ORIG.            1" 5" PRINT : ORIGIN OF DATA
UWI .         42185302840000 : UNIQUE WELL ID
DICO. A2D Technologies, Inc. : DIGITIZING COMPANY
~Other -----------------------------------------------------
~ASCII -----------------------------------------------------
# ...
 5500.00000    -999.25    -999.25  566.18730    -999.25    -999.25    -999.25    -999.25    -999.25    1.76620    -999.25  102.38390  102.38390    1.76620    2.60930    2.60930    -999.25    -999.25    -999.25    4.28460  -59.29000  -31.22880    4.28460
 5550.00000    -999.25    -999.25  906.53620    -999.25    -999.25    -999.25    -999.25    -999.25    1.10310    -999.25   70.64860   70.64860    1.10310    1.90420    1.90420    -999.25    -999.25    -999.25    5.32160 -107.03670  -79.73030    5.32160
 5600.00000    -999.25    -999.25  637.55180    -999.25    -999.25    -999.25    -999.25    -999.25    1.56850    -999.25   91.29370   91.29370    1.56850    2.30950    2.30950    -999.25    -999.25    -999.25    4.20220  -72.34730  -45.79580    4.20220
 5650.00000    -999.25    -999.25  763.35880    -999.25    -999.25    -999.25    -999.25    -999.25    1.31000    -999.25   77.78610   77.78610    1.31000    2.28810    2.28810    -999.25    -999.25    -999.25    5.88420 -102.05540  -76.25870    5.88420
 5700.00000    -999.25    -999.25  904.81350    -999.25    -999.25    -999.25    -999.25    -999.25    1.10520    -999.25   74.13470   74.13470    1.10520    1.85040    1.85040    -999.25    -999.25    -999.25    5.86050 -103.56290  -78.52100    5.86050
 5750.00000    -999.25    -999.25  566.60440    -999.25    -999.25    -999.25    -999.25    -999.25    1.76490    -999.25   95.45500   95.45500    1.76490    2.58840    2.58840    -999.25    -999.25    -999.25    4.53500  -69.09430  -44.80730    4.53500
 5800.00000    -999.25    -999.25  812.28170    -999.25    -999.25    -999.25    -999.25    -999.25    1.23110    -999.25  262.37920  262.37920    1.23110    1.73920    1.73920    -999.25    -999.25    -999.25    6.04250  -93.72520  -70.19300    6.04250
 5850.00000    -999.25    -999.25  875.12040    -999.25    -999.25    -999.25    -999.25    -999.25    1.14270    -999.25   84.96570   84.96570    1.14270    1.89240    1.89240    -999.25    -999.25    -999.25    5.36270  -95.75330  -72.97600    5.36270
 5900.00000    -999.25    -999.25  692.32900    -999.25    -999.25    -999.25    -999.25    -999.25    1.44440    -999.25   71.18040   71.18040    1.44440    2.26810    2.26810    -999.25    -999.25    -999.25    5.36410  -88.32580  -66.30330    5.36410
 5950.00000    -999.25    -999.25  884.17330    -999.25    -999.25    -999.25    -999.25    -999.25    1.13100    -999.25   60.48810   60.48810    1.13100    1.93990    1.93990    -999.25    -999.25    -999.25    5.23810  -98.27880  -77.01110    5.23810
 6000.00000    -999.25    -999.25  439.46380    -999.25    -999.25    -999.25    -999.25    -999.25    2.27550    -999.25  101.59960  101.59960    2.27550    2.36830    2.36830    -999.25    -999.25    -999.25    2.90030  -25.57790   -5.06510    2.90030
 6050.00000    -999.25    -999.25  493.97350    -999.25    -999.25    -999.25    -999.25    -999.25    2.02440    -999.25   91.11150   91.11150    2.02440    2.60150    2.60150    -999.25    -999.25    -999.25    4.18230  -45.90160  -23.79200    4.18230
 6100.00000    -999.25    -999.25  433.74540    -999.25    -999.25    -999.25    -999.25    -999.25    2.30550    -999.25   90.56880   90.56880    2.30550    2.39990    2.39990    -999.25    -999.25    -999.25    2.88570  -32.02660   -8.32020    2.88570
 6150.00000    -999.25    -999.25  491.30400    -999.25    -999.25    -999.25    -999.25    -999.25    2.03540    -999.25   83.94510   83.94510    2.03540    2.37150    2.37150    -999.25    -999.25    -999.25    3.96260  -38.88400  -13.58080    3.96260
 6200.00000    -999.25    -999.25  415.09280    -999.25    -999.25    -999.25    -999.25    -999.25    2.40910    -999.25   84.02940   84.02940    2.40910    3.24550    3.24550    -999.25    -999.25    -999.25    6.29340  -60.80320  -33.90320    6.29340
 6250.00000    -999.25    -999.25  489.33250    -999.25    -999.25    -999.25    -999.25    -999.25    2.04360    -999.25   90.72290   90.72290    2.04360    2.22740    2.22740    -999.25    -999.25    -999.25    2.75890  -30.83380   -2.33690    2.75890
 6300.00000    -999.25    -999.25  499.55040    -999.25    -999.25    -999.25    -999.25    -999.25    2.00180    -999.25   94.79170   94.79170    2.00180    2.20910    2.20910    -999.25    -999.25    -999.25    2.73650  -30.80680   -0.71310    2.73650
 6350.00000    -999.25    -999.25  488.99750    -999.25    -999.25    -999.25    -999.25    -999.25    2.04500    -999.25  103.95670  103.95670    2.04500    2.24890    2.24890    -999.25    -999.25    -999.25    2.64540  -35.95290   -4.26240    2.64540
 6400.00000    -999.25    -999.25  455.14540    -999.25    -999.25    -999.25    -999.25    -999.25    2.19710    -999.25  100.13810  100.13810    2.19710    2.30430    2.30430    -999.25    -999.25    -999.25    2.73280  -41.77260   -8.48530    2.73280
 6450.00000    -999.25    -999.25  418.30500    -999.25    -999.25    -999.25    -999.25    -999.25    2.39060    -999.25   90.57450   90.57450    2.39060    2.48860    2.48860    -999.25    -999.25    -999.25    2.91800  -45.09030  -11.29280    2.91800
 6500.00000    -999.25    -999.25  441.13100    -999.25    -999.25    -999.25    -999.25    -999.25    2.26690    -999.25   85.71150   85.71150    2.26690    2.36160    2.36160    -999.25    -999.25    -999.25    2.69160  -42.49580   -8.77310    2.69160
 6550.00000    -999.25    -999.25  431.83490    -999.25    -999.25    -999.25    -999.25    -999.25    2.31570    -999.25   91.95990   91.95990    2.31570    2.41000    2.41000    -999.25    -999.25    -999.25    2.88800  -40.21940   -6.57150    2.88800
 6600.00000    -999.25    -999.25  442.90900    -999.25    -999.25    -999.25    -999.25    -999.25    2.25780    -999.25  103.71920  103.71920    2.25780    2.34970    2.34970    -999.25    -999.25    -999.25    2.72730  -40.99040   -7.41730    2.72730
 6650.00000    -999.25    -999.25  502.58830    -999.25    -999.25    -999.25    -999.25    -999.25    1.98970    -999.25   98.44660   98.44660    1.98970    2.09270    2.09270    -999.25    -999.25    -999.25    2.37550  -40.26080   -6.76250    2.37550
 6700.00000    -999.25    -999.25  524.08150    -999.25    -999.25    -999.25    -999.25    -999.25    1.90810    -999.25   93.42270   93.42270    1.90810    2.02950    2.02950    -999.25    -999.25    -999.25    2.46250  -39.05080   -5.62730    2.46250
 6750.00000    -999.25    -999.25  583.12440    -999.25    -999.25    -999.25    -999.25    -999.25    1.71490    -999.25   84.43910   84.43910    1.71490    1.78540    1.78540    -999.25    -999.25    -999.25    2.22530  -37.10310   -3.75440    2.22530
 6800.00000    -999.25    -999.25  561.41930    -999.25    -999.25    -999.25    -999.25    -999.25    1.78120    -999.25   99.16580   99.16580    1.78120    1.85400    1.85400    -999.25    -999.25    -999.25    2.25020  -37.91500   -4.64110    2.25020
 6850.00000    -999.25    -999.25  501.02710    -999.25    -999.25    -999.25    -999.25    -999.25    1.99590    -999.25   86.48310   86.48310    1.99590    2.12470    2.12470    -999.25    -999.25    -999.25    2.35810  -39.17720   -5.97810    2.35810
 6900.00000    -999.25    -999.25  501.02710    -999.25    -999.25    -999.25    -999.25    -999.25    1.99590    -999.25   81.24940   81.24940    1.99590    2.13960    2.13960    -999.25    -999.25    -999.25    2.36190  -37.26120   -4.13700    2.36190
 6950.00000    -999.25    -999.25  507.74310    -999.25    -999.25    -999.25    -999.25    -999.25    1.96950    -999.25   88.80260   88.80260    1.96950    2.06330    2.06330    -999.25    -999.25    -999.25    2.41740  -39.49730   -6.44790    2.41740
 7000.00000    -999.25    -999.25  453.94710    -999.25    -999.25    -999.25    -999.25    -999.25    2.20290    -999.25   86.52180   86.52180    2.20290    2.34070    2.34070    -999.25    -999.25    -999.25    2.46860  -40.12350   -7.14890    2.46860
 7050.00000    -999.25    -999.25  508.93180    -999.25    -999.25    -999.25    -999.25    -999.25    1.96490    -999.25   91.54400   91.54400    1.96490    2.13380    2.13380    -999.25    -999.25    -999.25    2.38800  -39.31360   -6.41380    2.38800
