~Version ---------------------------------------------------
VERS. 2.0 : CWLS log ASCII Standard -VERSION 2.0
WRAP.  NO : ONE LINE PER DEPTH STEP
~Well ------------------------------------------------------
STRT.F                   300.0 : START DEPTH
STOP.F                 24000.0 : STOP DEPTH
STEP.F                50.00000 : STEP LENGTH
NULL.                  -999.25 : NULL VALUE
COMP.       PLACID OIL COMPANY : COMPANY
WELL.                PEELER #1 : WELL
FLD .                  WILDCAT : FIELD
LOC .                          : LOCATION
CNTY.                MC MULLEN : COUNTY
STAT.                    TEXAS : STATE
CTRY. UNITED STATES OF AMERICA : COUNTRY
SRVC.             Schlumberger : SERVICE COMPANY
DATE.              01-Jan-1984 : LOGDATE
API .           42311317850000 : API NUMBER
UWI .           42311317850000 : UNIQUE WELL ID
SLAT.WGS84       28.5959255047 : SURFACE LATITUDE
SLON.WGS84      -98.4401225914 : SURFACE LONGITUDE
~Curve Information -----------------------------------------
DEPT   .F                 : 
DPHI_LS.DEC  45 890 10 00 : DENSITY POROSITY LIMESTONE
CALD   .IN   45 280 60 00 : CALIPER FROM DENSITY LOG
RHOB   .G/C3 45 350 01 00 : BULK DENSITY
NPHI_LS.DEC  42 890 01 00 : NEUTRON POROSITY LIMESTONE
DT     .US/F 60 500 00 00 : DELTA-T (INTERVAL TRANSIT TIME)
GRR    .GAPI 07 310 01 00 : GAMMA RAY FROM RESISTIVITY LOG
NPHI_SS.DEC  42 890 03 00 : NEUTRON POROSITY SANDSTONE
ILM    .OHMM 07 120 44 00 : INDUCTION MEDIUM RESISTIVITY
SFLU   .OHMM 07 220 01 00 : SHALLOW FOCUSED RESISTIVITY (UNAVERAGED)
SPR    .MV   07 010 01 00 : SPONTANEOUS POTENTIAL FROM RESISTIVITY LOG
ILD    .OHMM 07 120 46 00 : INDUCTION DEEP RESISTIVITY
DCALR  .IN   07 280 01 00 : DIFFERENTIAL CALIPER FROM RESISTIVITY LOG
DPHI_SS.DEC  45 890 12 00 : DENSITY POROSITY SANDSTONE
DRHO   .G/C3 45 356 01 00 : BULK DENSITY CORRECTION
~Params ----------------------------------------------------
PD  .                     GL : PERMANENT DATUM
EPD .F                   336 : ELEVATION PERMANENT DATUM
LMF .                     KB : LOG MEASURED FROM
DMF .                     KB : DRILLING MEASURED FROM
EKB .F                   368 : KELLING BUSHING
EDF .F                   367 : DRILLING FLOOR
EGL .F                   336 : GROUND LEVEL
DATE.               1-1-1984 : RUN DATE
RUN .                      7 : RUN NUMBER
DD  .F                 24031 : DEPTH DRILLER
DL  .F                 24037 : DEPTH LOGGER
BLI .F                 24030 : BOTTOM LOG INTERVAL
TLI .F                 21000 : TOP LOG INTERVAL
CS  .IN                8.625 : CASING SIZE
CBD .F                 19500 : CASING BOTTOM DRILLER
CBL .F                 19500 : CASING BOTTOM LOGGER
BS  .IN                  7.5 : BIT SIZE
BSD .F                 24031 : BIT SIZE AT DEPTH
DFT .               INVERMUL : DRILLING FLUID TYPE
DFV .                     83 : DRILLING FLUID VISCOSITY
TCS .HRS                 800 : TIME CURCULATED STOPPED
TLAB.HRS                 200 : TIME LOGGER AT BOTTOM
LUL .               EDINBURG : LOGGING UNIT LOCATION
ENGI.              NEWMISTER : RECORDING ENGINEER
WITN.                   LONG : WITNESSED BY
CLNT.                A2DTECH : CLIENT CODE
ORIG.            1",5" PRINT : ORIGIN OF DATA
UWI .         42311317850000 : UNIQUE WELL ID
DICO. A2D Technologies, Inc. : DIGITIZING COMPANY
~Other -----------------------------------------------------
~ASCII -----------------------------------------------------
# ...
 5200.00000    -999.25    -999.25    -999.25    -999.25    -999.25   38.99100    0.40450    3.14290    2.99560  -37.26860    2.74880    1.13720    0.24780    0.05990
 5250.00000    -999.25    -999.25    -999.25    -999.25    -999.25   46.60630    0.41620    2.95870    3.55300  -19.21630    3.03660    3.34480    0.18180    0.04000
 5300.00000    -999.25    -999.25    -999.25    -999.25    -999.25   51.47120    0.50690    2.37330    1.92020  -16.79570    2.19010    3.54070    0.26050    0.02580
 5350.00000    -999.25    -999.25    -999.25    -999.25    -999.25   55.16150    0.49370    2.01930    1.93140  -16.83680    2.10870    3.99860    0.22920    0.07710
 5400.00000    -999.25    -999.25    -999.25    -999.25    -999.25   54.48040    0.53600    1.69730    1.63480  -15.41650    1.79390    3.35740    0.25160    -999.25
 5450.00000    -999.25    -999.25    -999.25    -999.25    -999.25   56.96670    0.50870    1.99800    1.97150  -14.64840    2.05470    2.73290    0.14770    -999.25
 5500.00000    -999.25    -999.25    -999.25    -999.25    -999.25   54.10160    0.42320    3.08260    2.86610  -19.40150    3.17860    2.35170    0.18100    0.09080
 5550.00000    -999.25    -999.25    -999.25    -999.25    -999.25   59.49240    0.42700    2.97950    2.79610  -18.03520    3.04210    3.87410    0.18060    0.06470
 5600.00000    -999.25    -999.25    -999.25    -999.25    -999.25   56.32230    0.47300    1.90330    1.96180  -13.62540    1.81280    2.80140    0.14940    -999.25
 5650.00000    -999.25    -999.25    -999.25    -999.25    -999.25   57.59180    0.41860    2.56920    2.76670  -13.54240    2.65150    2.63140    0.16060    0.04530
 5700.00000    -999.25    -999.25    -999.25    -999.25    -999.25   53.59030    0.47900    2.33460    2.20850  -16.22580    2.38280    2.50570    0.18570    0.10180
 5750.00000    -999.25    -999.25    -999.25    -999.25    -999.25   42.90760    0.37610    3.62470    3.83010  -32.25550    3.27570    1.07430    0.20330    0.08410
 5800.00000    -999.25    -999.25    -999.25    -999.25    -999.25   50.22960    0.50250    2.40580    2.24940  -17.91720    2.45660    2.14600    0.21270    0.09720
 5850.00000    -999.25    -999.25    -999.25    -999.25    -999.25   52.11010    0.57290    2.37980    2.49630  -11.34580    2.44620    2.73260    0.17730    0.09800
 5900.00000    -999.25    -999.25    -999.25    -999.25    -999.25   50.27700    0.51540    2.88250    2.52410  -23.32650    2.76330    1.73970    0.27270    0.09240
 5950.00000    -999.25    -999.25    -999.25    -999.25    -999.25   57.60790    0.53230    1.73550    1.86140   -9.57100    1.78270    3.31130    0.19990    0.09450
 6000.00000    -999.25    -999.25    -999.25    -999.25    -999.25   56.84390    0.51710    1.76660    2.00090  -10.73960    1.81040    3.08200    0.20750    -999.25
 6050.00000    -999.25    -999.25    -999.25    -999.25    -999.25   57.92790    0.61030    1.52470    1.59960  -10.46380    1.46970    2.70440    0.21430    0.09580
 6100.00000    -999.25    -999.25    -999.25    -999.25    -999.25   56.45760    0.56060    1.86510    1.93780   -7.64920    1.91140    2.91180    0.15650    0.08440
 6150.00000    -999.25    -999.25    -999.25    -999.25    -999.25   51.78400    0.47870    2.49450    3.11830  -12.61440    2.64490    2.42750    0.19000    0.04590
 6200.00000    -999.25    -999.25    -999.25    -999.25    -999.25   52.30660    0.50450    2.40410    2.32730   -8.52390    2.46030    2.61730    0.17580    0.06030
 6250.00000    -999.25    -999.25    -999.25    -999.25    -999.25   62.61080    0.55610    1.43530    1.49560   -5.39280    1.46590    1.96850    0.16700    0.07690
 6300.00000    -999.25    -999.25    -999.25    -999.25    -999.25   38.91040    0.36290    3.41390    5.88800   -7.21580    3.25560    1.29740    0.10450    0.02010
 6350.00000    -999.25    -999.25    -999.25    -999.25    -999.25   62.77250    0.55860    1.18620    1.21690   -4.50880    1.16810    1.39500    0.19010    -999.25
 6400.00000    -999.25    -999.25    -999.25    -999.25    -999.25   56.06690    0.45740    1.50150    1.45420   -1.38390    1.42020    1.25980    0.14080    0.05100
 6450.00000    -999.25    -999.25    -999.25    -999.25    -999.25   71.69090    0.40960    2.05320    2.05160    2.22020    1.96000    0.73150    0.14200    0.09220
 6500.00000    -999.25    -999.25    -999.25    -999.25   85.77170   32.79460    0.46750  316.85400    2.24910  -30.55620   11.77260    1.03510    0.30430    0.01830
 6550.00000    -999.25    -999.25    -999.25    -999.25  127.67510   73.13860    0.41050    1.06010    1.14340   -5.01900    1.08670    1.46500    0.19240    -999.25
 6600.00000    -999.25    -999.25    -999.25    -999.25  135.44350   68.04240    0.46880    0.90520    1.00380   -1.85970    0.97740    1.73060    0.19080    -999.25
 6650.00000    -999.25    -999.25    -999.25    -999.25   91.98420   65.46790    0.36260    1.67850    1.81860   -1.49650    1.74790    0.63520    0.09610    0.02220
 6700.00000    -999.25    -999.25    -999.25    -999.25  102.96580   69.82770    0.43440    1.44380    1.41160    2.42970    1.47070    0.43120    0.10760    0.04980
 6750.00000    -999.25    -999.25    -999.25    -999.25   91.48220   66.42950    0.35310    2.07250    2.03600   -0.00730    2.13940    0.28000    0.10700    0.00440
 6800.00000    -999.25    -999.25    -999.25    -999.25  121.36120   57.70300    0.44010    1.19010    1.39420    0.87040    1.42720    0.46280    0.13680    0.09920
 6850.00000    -999.25    -999.25    -999.25    -999.25  106.69500   65.56770    0.42010    1.45770    1.59070    2.11490    1.66230    0.35850    0.10570    0.04040
 6900.00000    -999.25    -999.25    -999.25    -999.25   87.88360   69.41510    0.30880    2.40580    2.33510    1.12590    2.63490    0.10240    0.10770    0.01360
 6950.00000    -999.25    -999.25    -999.25    -999.25   90.91370   78.92950    -999.25    1.84220    1.65450    2.73930    1.90960    -999.25    -999.25    -999.25
 7000.00000    -999.25    -999.25    -999.25    -999.25   92.76040   76.93940    -999.25    1.94950    1.90530    0.48100    1.96490    -999.25    -999.25    -999.25
 7050.00000    -999.25    -999.25    -999.25    -999.25   93.70810   76.44650    -999.25    1.79480    1.77120    0.95230    1.82170    -999.25    -999.25    -999.25
 7100.00000    -999.25    -999.25    -999.25    -999.25   82.78280   75.24660    -999.25    2.10990    2.18470    0.50270    2.08720    -999.25    -999.25    -999.25
 7150.00000    -999.25    -999.25    -999.25    -999.25   90.01130   71.19150    -999.25    1.90230    1.91300    1.48360    1.88150    -999.25    -999.25    -999.25
 7200.00000    -999.25    -999.25    -999.25    -999.25   95.09580   69.60150    -999.25    1.76770    1.73170    1.91410    1.79600    -999.25    -999.25    -999.25
 7250.00000    -999.25    -999.25    -999.25    -999.25   94.35760   71.83460    -999.25    1.65620    1.72450    0.19590    1.69980    -999.25    -999.25    -999.25
 7300.00000    -999.25    -999.25    -999.25    -999.25   95.63860   71.71280    -999.25    1.71140    1.75600    0.20730    1.72990    -999.25    -999.25    -999.25
 7350.00000    -999.25    -999.25    -999.25    -999.25  100.34370   66.50840    -999.25    1.46660    1.53510   -1.30170    1.50500    -999.25    -999.25    -999.25
 7400.00000    -999.25    -999.25    -999.25    -999.25   99.80300   61.78210    -999.25    1.64480    1.68180   -0.05230    1.62630    -999.25    -999.25    -999.25
 7450.00000    -999.25    -999.25    -999.25    -999.25  105.83120   64.08490    -999.25    1.27230    1.31030   -2.96130    1.23720    -999.25    -999.25    -999.25
 7500.00000    -999.25    -999.25    -999.25    -999.25  101.21620   70.74010    -999.25    1.33100    1.40590   -0.21280    1.30120    -999.25    -999.25    -999.25
 7550.00000    -999.25    -999.25    -999.25    -999.25  100.87940   75.49010    -999.25    1.17700    1.19400   -0.66550    1.16100    -999.25    -999.25    -999.25
 7600.00000    -999.25    -999.25    -999.25    -999.25   94.89150   81.72070    -999.25    1.51730    1.49810   -0.05060    1.52740    -999.25    -999.25    -999.25
