~Version ---------------------------------------------------
VERS. 2.0 : CWLS log ASCII Standard -VERSION 2.0
WRAP. YES : MULTIPLE LINES PER DEPTH STEP
~Well ------------------------------------------------------
STRT.FT                   3300.0 : START DEPTH
STOP.FT                   8250.0 : STOP DEPTH
STEP.FT                 50.00000 : STEP LENGTH
NULL.                    -999.25 : NULL VALUE
COMP. CHAMPLIN EXPLORATION, INC. : COMPANY
WELL.      WILLIE LEHMAN UNIT #1 : WELL
FLD .                   GIDDINGS : FIELD
LOC .                            : LOCATION
CNTY.                    FAYETTE : COUNTY
STAT.                      TEXAS : STATE
CTRY.   UNITED STATES OF AMERICA : COUNTRY
SRVC.               Schlumberger : SERVICE COMPANY
DATE.                15-Mar-1980 : LOGDATE
API .             42149304890000 : API NUMBER
UWI .             42149304890000 : UNIQUE WELL ID
SLAT.WGS84         30.0169410094 : SURFACE LATITUDE
SLON.WGS84        -97.0211316988 : SURFACE LONGITUDE
~Curve Information -----------------------------------------
DEPT    .FT    : DEPTH FEET
CALRED  .IN    : CALIPER FROM RESISTIVITY LOG
CALWS   .IN    : CALIPER [CALRED]
CONDWS  .MMHO  : CONDUCTIVITY [1000/DRESWS]
DCORWS  .G/C3  : DENSITY CORRECTION [DRHOED]
DENWS   .G/C3  : BULK DENSITY [M=2.71 F=1.0] CALCULATED FROM [DPHILSED]
DPHILSED.V/V   : DENSITY POROSITY [M=2.71 F=1.0] FROM DENSITY LOG
DPOWS   .V/V   : DENSITY POROSITY [DPHILSED]
DRESWS  .OHMM  : DEEP RESISTIVITY [ILDED]
DRHOED  .G/C3  : DENSITY CORRECTION FROM DENSITY LOG
GRRED   .GAPI  : GAMMA RAY FROM RESISTIVITY LOG
GRWS    .GAPI  : GAMMA RAY [GRRED]
ILDED   .OHMM  : INDUCTION LOG DEEP RESISTIVITY
ILMED   .OHMM  : INDUCTION LOG MEDIUM RESISTIVITY
MRESWS  .OHMM  : MEDIUM RESISTIVITY [ILMED]
NPHILSED.V/V   : NEUTRON POROSITY LIMESTONE FROM DENSITY LOG
NPOWS   .V/V   : NEUTRON POROSITY LIMESTONE [NPHILSED]
RHOBED  .G/C3  : BULK DENSITY FROM DENSITY LOG
SFLUED  .OHMM  : SPHERICALLY FOCUSED LOG RESISTIVITY
SPRED   .MV    : SPONTANEOUS POTENTIAL FROM RESISTIVITY LOG
SPWS    .MV    : SPONTANEOUS POTENTIAL [BASELINE 0 MV] [SPRED]
SRESWS  .OHMM  : SHALLOW RESISTIVITY [SFLUED]
~Params ----------------------------------------------------
PD  .                     GL : PERMANENT DATUM
EPD .F                   366 : ELEVATION PERMANENT DATUM
LMF .                     KB : LOG MEASURED FROM
DAPD.F                  10.0 : FEET ABOVE PERMANENT DATUM
DMF .                     KB : DRILLING MEASURED FROM
EKB .F                   377 : KELLING BUSHING
EDF .F                   376 : DRILLING FLOOR
EGL .F                   366 : GROUND LEVEL
DATE.            15-MAR-1980 : RUN DATE
RUN .                      1 : RUN NUMBER
DD  .F                  8317 : DEPTH DRILLER
DL  .F                  8290 : DEPTH LOGGER
BLI .F                  8284 : BOTTOM LOG INTERVAL
TLI .F                  3284 : TOP LOG INTERVAL
CS  .IN                8.625 : CASING SIZE
CBD .F                  3300 : CASING BOTTOM DRILLER
CBL .F                  3284 : CASING BOTTOM LOGGER
BS  .IN                7.875 : BIT SIZE
BSD .F                  8317 : BIT SIZE AT DEPTH
DFT .                    LNS : DRILLING FLUID TYPE
DFD .                    9.4 : DRILLING FLUID DENSITY
DFV .                     56 : DRILLING FLUID VISCOSITY
DFPH.                    9.0 : DRILLING FLUID PH
DFL .                    5.0 : DRILLING FLUID LOSS
MSS .              CIRC. PIT : MUD SAMPLE SOURCE
RMS .OHMM                2.1 : RESISTIVITY MUD SAMPLE
MST .F                    75 : MUD SAMPLE TEMPERATURE
RMF .OHMM               1.81 : RESISTIVITY MUD FILTRATE SAMPLE
MFST.F                    75 : MUD FILTRATE SAMPLE TEMPERATURE
RMC .OHMM                3.0 : RESISTIVITY MUD CAKE
MCST.F                    75 : MUD CAKE SAMPLE TEMPERATURE
MFSS.                      M : MUD FILTRATE SAMPLE SOURCE
MCSS.                      C : MUD CAKE SAMPLE SOURCE
RMB .OHMM                0.8 : RESISTIVITY MUD AT BHT
TCS .HRS                2000 : TIME CURCULATED STOPPED
TLAB.HRS                 230 : TIME LOGGER AT BOTTOM
LUN .                   8176 : LOGGING UNIT NUMBER
LUL .                BRENHAM : LOGGING UNIT LOCATION
ENGI.                 WRIGHT : RECORDING ENGINEER
WITN.              ROBERTSON : WITNESSED BY
CLNT.                A2DTECH : CLIENT CODE
ORIG.               5" PRINT : ORIGIN OF DATA
UWI .         42149304890000 : UNIQUE WELL ID
DICO. A2D Technologies, Inc. : DIGITIZING COMPANY
~Other -----------------------------------------------------
~ASCII -----------------------------------------------------
 3300.00000   10.37610   10.37610  166.90870    -999.25    -999.25    -999.25    -999.25    5.99130    -999.25   82.99070   82.99070    5.99130    5.69670    5.69670    -999.25    -999.25    -999.25    5.47380   -9.81570   -7.69240    5.47380
 3350.00000    9.17550    9.17550  300.21920    -999.25    -999.25    -999.25    -999.25    3.33090    -999.25   83.42030   83.42030    3.33090    3.56330    3.56330    -999.25    -999.25    -999.25    4.28560   -8.05160   -6.30140    4.28560
 3400.00000    9.65650    9.65650  336.37190    -999.25    -999.25    -999.25    -999.25    2.97290    -999.25   72.93470   72.93470    2.97290    2.77440    2.77440    -999.25    -999.25    -999.25    3.18250   -3.03030   -1.65310    3.18250
 3450.00000    8.55920    8.55920  151.11220    -999.25    -999.25    -999.25    -999.25    6.61760    -999.25   42.89420   42.89420    6.61760    9.74520    9.74520    -999.25    -999.25    -999.25   45.37170  -22.20820  -21.20410   45.37170
 3500.00000    8.80790    8.80790  322.31030    -999.25    -999.25    -999.25    -999.25    3.10260    -999.25   34.13990   34.13990    3.10260    4.01590    4.01590    -999.25    -999.25    -999.25    5.45890  -41.69610  -41.06510    5.45890
 3550.00000    8.24930    8.24930  438.92370    -999.25    -999.25    -999.25    -999.25    2.27830    -999.25   57.98630   57.98630    2.27830    2.75990    2.75990    -999.25    -999.25    -999.25    4.13140  -48.60760  -48.34960    4.13140
 3600.00000    8.69900    8.69900  388.53060    -999.25    -999.25    -999.25    -999.25    2.57380    -999.25   62.73140   62.73140    2.57380    3.14770    3.14770    -999.25    -999.25    -999.25    4.12340  -45.27480  -45.38990    4.12340
 3650.00000    8.22860    8.22860  409.41660    -999.25    -999.25    -999.25    -999.25    2.44250    -999.25   34.60950   34.60950    2.44250    3.29100    3.29100    -999.25    -999.25    -999.25    5.70080  -49.43500  -49.92320    5.70080
 3700.00000    7.96310    7.96310  388.72690    -999.25    -999.25    -999.25    -999.25    2.57250    -999.25   49.72590   49.72590    2.57250    3.39510    3.39510    -999.25    -999.25    -999.25    5.62050  -49.26030  -50.12150    5.62050
 3750.00000   10.32540   10.32540  230.07020    -999.25    -999.25    -999.25    -999.25    4.34650    -999.25   72.20940   72.20940    4.34650    4.17790    4.17790    -999.25    -999.25    -999.25    3.02030    0.74950   -0.49200    3.02030
 3800.00000    7.83510    7.83510  412.69450    -999.25    -999.25    -999.25    -999.25    2.42310    -999.25   58.48550   58.48550    2.42310    3.35690    3.35690    -999.25    -999.25    -999.25    6.09120  -53.33900  -55.09830    6.09120
 3850.00000    8.43600    8.43600  563.25340    -999.25    -999.25    -999.25    -999.25    1.77540    -999.25   49.18130   49.18130    1.77540    2.29670    2.29670    -999.25    -999.25    -999.25    4.32100  -53.56690  -55.84400    4.32100
 3900.00000    8.97700    8.97700  473.23840    -999.25    -999.25    -999.25    -999.25    2.11310    -999.25   52.92160   52.92160    2.11310    2.95640    2.95640    -999.25    -999.25    -999.25    5.28420  -51.60010  -54.39490    5.28420
 3950.00000    7.79240    7.79240  539.86930    -999.25    -999.25    -999.25    -999.25    1.85230    -999.25   38.35160   38.35160    1.85230    2.31390    2.31390    -999.25    -999.25    -999.25    3.92850  -54.57590  -57.88850    3.92850
 4000.00000    8.56970    8.56970  590.24910    -999.25    -999.25    -999.25    -999.25    1.69420    -999.25   35.14660   35.14660    1.69420    2.31810    2.31810    -999.25    -999.25    -999.25    4.39240  -50.24100  -54.07140    4.39240
 4050.00000    7.98280    7.98280  558.65920    -999.25    -999.25    -999.25    -999.25    1.79000    -999.25   61.48310   61.48310    1.79000    2.40730    2.40730    -999.25    -999.25    -999.25    4.94830  -54.45100  -58.79920    4.94830
 4100.00000    7.77420    7.77420  485.86150    -999.25    -999.25    -999.25    -999.25    2.05820    -999.25   51.46500   51.46500    2.05820    2.46800    2.46800    -999.25    -999.25    -999.25    3.19930  -29.85970  -34.72560    3.19930
 4150.00000    7.42170    7.42170  421.60290    -999.25    -999.25    -999.25    -999.25    2.37190    -999.25   58.55940   58.55940    2.37190    2.93830    2.93830    -999.25    -999.25    -999.25    5.33540  -38.14530  -43.52900    5.33540
 4200.00000    7.66810    7.66810  344.03280    -999.25    -999.25    -999.25    -999.25    2.90670    -999.25   95.21980   95.21980    2.90670    3.06440    3.06440    -999.25    -999.25    -999.25    3.28850    2.96630   -2.93520    3.28850
 4250.00000    7.43080    7.43080  360.15270    -999.25    -999.25    -999.25    -999.25    2.77660    -999.25   90.73100   90.73100    2.77660    3.46950    3.46950    -999.25    -999.25    -999.25    6.14230  -22.71030  -29.12960    6.14230
 4300.00000    7.57660    7.57660  332.82300    -999.25    -999.25    -999.25    -999.25    3.00460    -999.25  103.09620  103.09620    3.00460    3.14990    3.14990    -999.25    -999.25    -999.25    3.46300   -2.55670   -9.49370    3.46300
 4350.00000    7.38760    7.38760  344.23410    -999.25    -999.25    -999.25    -999.25    2.90500    -999.25   57.64910   57.64910    2.90500    3.37610    3.37610    -999.25    -999.25    -999.25    4.33710  -21.14710  -28.55350    4.33710
 4400.00000    7.59770    7.59770  393.42200    -999.25    -999.25    -999.25    -999.25    2.54180    -999.25   76.46220   76.46220    2.54180    2.82430    2.82430    -999.25    -999.25    -999.25    3.61640  -12.16670  -20.08480    3.61640
 4450.00000    7.31830    7.31830  438.73120    -999.25    -999.25    -999.25    -999.25    2.27930    -999.25   47.64520   47.64520    2.27930    3.16170    3.16170    -999.25    -999.25    -999.25    7.98970  -50.74210  -59.17200    7.98970
 4500.00000    7.24480    7.24480  806.32150    -999.25    -999.25    -999.25    -999.25    1.24020    -999.25   42.89870   42.89870    1.24020    1.60780    1.60780    -999.25    -999.25    -999.25    3.62870  -63.32100  -72.26270    3.62870
 4550.00000    7.25140    7.25140  659.10890    -999.25    -999.25    -999.25    -999.25    1.51720    -999.25   53.42520   53.42520    1.51720    2.01070    2.01070    -999.25    -999.25    -999.25    4.51040  -56.67610  -66.12960    4.51040
 4600.00000    7.22790    7.22790  705.51720    -999.25    -999.25    -999.25    -999.25    1.41740    -999.25   59.04260   59.04260    1.41740    1.89830    1.89830    -999.25    -999.25    -999.25    4.88660  -61.05940  -71.02460    4.88660
 4650.00000    7.41070    7.41070  366.82440    -999.25    -999.25    -999.25    -999.25    2.72610    -999.25   82.36700   82.36700    2.72610    3.22020    3.22020    -999.25    -999.25    -999.25    5.08880  -26.70110  -37.17810    5.08880
 4700.00000    7.42710    7.42710  476.05450    -999.25    -999.25    -999.25    -999.25    2.10060    -999.25   78.67740   78.67740    2.10060    2.59150    2.59150    -999.25    -999.25    -999.25    6.00970  -39.32950  -50.31830    6.00970
 4750.00000    7.34450    7.34450  695.12030    -999.25    -999.25    -999.25    -999.25    1.43860    -999.25   64.23190   64.23190    1.43860    2.01680    2.01680    -999.25    -999.25    -999.25    4.64800  -54.17850  -65.67900    4.64800
 4800.00000    7.38200    7.38200  453.72050    -999.25    -999.25    -999.25    -999.25    2.20400    -999.25   95.62890   95.62890    2.20400    2.50920    2.50920    -999.25    -999.25    -999.25    3.54040   -6.30210  -18.31440    3.54040
 4850.00000    8.07940    8.07940  474.02350    -999.25    -999.25    -999.25    -999.25    2.10960    -999.25  102.73230  102.73230    2.10960    2.22570    2.22570    -999.25    -999.25    -999.25    1.98520    6.66860   -5.84800    1.98520
 4900.00000    7.97460    7.97460  424.62840    -999.25    -999.25    -999.25    -999.25    2.35500    -999.25   98.57680   98.57680    2.35500    2.47330    2.47330    -999.25    -999.25    -999.25    2.82310   10.11280   -2.72780    2.82310
