~Version ---------------------------------------------------
VERS. 2.0 : CWLS log ASCII Standard -VERSION 2.0
WRAP.  NO : ONE LINE PER DEPTH STEP
~Well ------------------------------------------------------
STRT.F                  1550.0 : START DEPTH
STOP.F                  9750.0 : STOP DEPTH
STEP.F                50.00000 : STEP LENGTH
NULL.                  -999.25 : NULL VALUE
COMP.      CANUS PETROLEUM INC : COMPANY
WELL.         R. C. CAGE 45 #1 : WELL
FLD .                  WILDCAT : FIELD
LOC .                          : LOCATION
CNTY.                 MAVERICK : COUNTY
STAT.                    TEXAS : STATE
CTRY. UNITED STATES OF AMERICA : COUNTRY
SRVC.             Schlumberger : SERVICE COMPANY
DATE.              03-Jun-1977 : LOGDATE
API .           42323307960000 : API NUMBER
UWI .           42323307960000 : UNIQUE WELL ID
SLAT.WGS84       28.2871885277 : SURFACE LATITUDE
SLON.WGS84     -100.2767456565 : SURFACE LONGITUDE
~Curve Information -----------------------------------------
DEPT.F                 : 
SPR .MV   07 010 01 00 : SPONTANEOUS POTENTIAL
ILD .OHMM 07 120 46 00 : INDUCTION LOG DEEP
LL8 .OHMM 07 220 08 00 : LATEROLOG-8 RES.
GRR .GAPI 07 310 01 00 : GAMMA RAY
CILD.MMHO 07 110 46 00 : CONDUCTIVITY INDUCTION LOG DEEP
~Params ----------------------------------------------------
PD  .                     GL : PERMANENT DATUM
EPD .F                   650 : ELEVATION PERMANENT DATUM
LMF .                     KB : LOG MEASURED FROM
DAPD.F                    14 : FEET ABOVE PERMANENT DATUM
DMF .                     KB : DRILLING MEASURED FROM
EKB .F                   664 : KELLING BUSHING
EDF .F                   663 : DRILLING FLOOR
EGL .F                   650 : GROUND LEVEL
DATE.               6-3-1977 : RUN DATE
RUN .                      2 : RUN NUMBER
DD  .F                  9806 : DEPTH DRILLER
DL  .F                  9797 : DEPTH LOGGER
BLI .F                  9791 : BOTTOM LOG INTERVAL
TLI .F                  8209 : TOP LOG INTERVAL
CS  .IN                8.625 : CASING SIZE
CBD .F                  8200 : CASING BOTTOM DRILLER
CBL .F                  8209 : CASING BOTTOM LOGGER
BSD .F                  9806 : BIT SIZE AT DEPTH
DFT .            CLS/CAUSTIC : DRILLING FLUID TYPE
DFD .                   16.5 : DRILLING FLUID DENSITY
DFV .                     65 : DRILLING FLUID VISCOSITY
DFPH.                     11 : DRILLING FLUID PH
DFL .                    3.1 : DRILLING FLUID LOSS
MSS .                    PIT : MUD SAMPLE SOURCE
RMS .OHMM               1.21 : RESISTIVITY MUD SAMPLE
MST .F                    88 : MUD SAMPLE TEMPERATURE
MFST.F                    88 : MUD FILTRATE SAMPLE TEMPERATURE
RMC .OHMM                3.9 : RESISTIVITY MUD CAKE
MCST.F                    88 : MUD CAKE SAMPLE TEMPERATURE
MFSS.                      M : MUD FILTRATE SAMPLE SOURCE
MCSS.                      C : MUD CAKE SAMPLE SOURCE
TLAB.HRS                 900 : TIME LOGGER AT BOTTOM
CLNT.                A2DTECH : CLIENT CODE
ORIG.               2" PRINT : ORIGIN OF DATA
UWI .         42323307960000 : UNIQUE WELL ID
DICO. A2D Technologies, Inc. : DIGITIZING COMPANY
~Other -----------------------------------------------------
~ASCII -----------------------------------------------------
 1550.00000  -24.82990    3.59770    4.03230   63.41110  251.83550
 1600.00000  -22.47590    2.47500    2.34600   57.71390  411.61150
 1650.00000  -18.99900    1.24750    1.46520   73.68890  598.82550
 1700.00000  -38.19240    4.68310    5.27750   44.16910  202.77010
 1750.00000  -13.84920    3.27950    3.29840   70.84550  338.84340
 1800.00000  -12.39070    1.76150    1.76020   61.69990  431.79030
 1850.00000  -11.88050    2.49500    2.05280   63.52050  350.11020
 1900.00000  -12.98410    4.17150    6.59740   55.02920  209.40480
 1950.00000  -15.20900    4.99210    8.94430   65.92570  189.56650
 2000.00000  -25.94750    5.14060    5.71850   56.77340  196.13570
 2050.00000  -27.69600    4.25840    5.49850   57.07240  241.34430
 2100.00000  -15.74340    3.03800    3.86110   68.44270  308.83750
 2150.00000  -15.01490    2.59420    2.34600   63.30140  345.62300
 2200.00000  -14.43150    3.52420    3.22530   77.40590  271.92340
 2250.00000  -19.84940    4.25850    5.57180   56.08740  202.28620
 2300.00000  -15.15930    3.25360    3.66570   72.21730  270.48180
 2350.00000  -14.72300    2.39840    2.41940   75.14580  340.06220
 2400.00000  -15.30640    2.63640    2.44380   74.46730  368.30520
 2450.00000  -16.18080    3.67070    3.51910   60.02130  238.07780
 2500.00000  -18.80470    3.96480    3.88710   62.53750  251.65080
 2550.00000  -15.67060    3.23060    3.15250   68.54940  296.77190
 2600.00000  -16.32650    2.78980    2.93260   79.81610  322.81940
 2650.00000  -16.76380    3.59830    3.88560   73.03210  266.69110
 2700.00000  -16.03470    2.60960    2.51890   80.02730  310.59090
 2750.00000  -16.10860    2.93710    3.15250   72.04750  329.78690
 2800.00000  -15.45190    2.78900    2.91820   65.37900  327.59340
 2850.00000  -18.07470    3.81710    3.59240   70.18870  246.51500
 2900.00000  -17.78430    3.52420    3.51980   70.18950  278.17420
 2950.00000  -17.85710    3.59760    3.37240   78.20690  255.93050
 3000.00000  -14.57710    2.79000    3.06530   66.75140  330.15410
 3050.00000  -14.45580    2.86350    2.78590   69.64290  325.75200
 3100.00000  -13.84760    2.21710    2.78590   62.56480  366.10620
 3150.00000  -14.65010    2.25500    2.49270   64.17640  332.71740
 3200.00000  -14.26230    2.49630    2.93260   58.72910  330.88980
 3250.00000  -16.18080    3.23000    3.22530   64.68630  302.27720
 3300.00000  -16.46690    6.79500    7.33140   42.92270  143.80250
 3350.00000  -18.95080   11.38030   14.32060   38.81140   89.63090
 3400.00000  -16.92620    7.63580    8.45560   54.68980  132.16130
 3450.00000  -19.24230   11.60060   12.04790   24.63580   77.82810
 3500.00000  -15.16030   18.35540   13.92960   22.52190   35.73180
 3550.00000  -16.98320   11.30690   12.31640   23.83380   85.91450
 3600.00000  -18.40010   15.85900   20.82110   24.48980   63.17560
 3650.00000  -14.28570    4.11160    7.64910   37.17200  127.08950
 3700.00000  -14.57730   21.58560   30.64520   27.35220   47.93650
 3750.00000  -18.05140   17.10650   36.07040   16.61810   68.70740
 3800.00000  -25.36500   32.46090   39.94680   25.80150   35.39820
 3850.00000  -19.60640   28.12020   18.64320   21.31920   42.40450
 3900.00000  -22.47930   21.14540   25.65980   21.91810   50.66080
 3950.00000  -21.76870   14.24380   22.06730   17.16500   66.81490
 4000.00000  -20.48880   17.96380   25.12220   20.24390   60.20560
 4050.00000  -21.28280   22.83500   30.25420   21.35560   49.52310
 4100.00000  -23.36230   19.04070   21.40760   20.23480   55.84410
 4150.00000  -24.49040   15.83520   20.82080   15.79700   63.18880
 4200.00000  -22.59480   10.32640   12.12220   25.25510   93.31230
 4250.00000  -25.36470   24.52280   29.69170   32.96170   48.49380
 4300.00000  -17.05610   32.56760   44.72100   38.70260   33.06390
 4350.00000  -23.83380   57.88120   95.89410   32.14200   18.36890
 4400.00000  -15.88930   62.46970  123.88190   32.12860   15.79720
 4450.00000  -21.72090   38.98700   70.45450   37.60860   29.20650
 4500.00000  -16.59970   27.11380   45.45450   33.12010   39.67840
 4550.00000  -14.86990   24.23040   38.61210   30.28200   42.61570
 4600.00000  -16.32650   13.80340   17.59420   59.78100   94.78320
 4650.00000  -14.57740   27.53310   46.17080   48.10420   46.65690
 4700.00000  -19.09590   35.04270   49.48450   69.63500   30.85690
 4750.00000  -18.51420   34.23690   51.03140  116.76440   39.23060
 4800.00000  -29.88340   53.07790   46.70480   16.18080   36.41170
 4850.00000  -29.59180   85.06640   74.74280   12.75520   15.76250
 4900.00000  -11.02810   10.68900   13.76190   44.38780   88.04110
 4950.00000   -8.96500    2.19540    2.60180   50.40060  404.86670
 5000.00000   -7.28860    1.60970    2.65030   48.10740  408.00320
 5050.00000  -11.07980   23.88970   26.14140   25.36360   48.66680
 5100.00000  -26.53060   23.57160   23.85790   12.02790   47.44390
 5150.00000  -17.15240   29.72140   57.06890   20.88120   26.59670
 5200.00000  -14.42960   68.96030   46.88740   15.17530   28.61340
 5250.00000  -20.55390   43.65560   52.94540   16.39940   28.61470
 5300.00000  -23.32360   40.55620   78.70780   13.55690   25.92990
 5350.00000  -28.30430   54.02590   58.66280   15.30530   27.14600
 5400.00000  -24.21320   28.14930   41.84930   22.74050   40.35220
 5450.00000  -21.28280   23.13270   25.32990   17.81890   34.48680
 5500.00000  -23.77950   69.80220   99.95100   15.33610   19.92980
 5550.00000  -35.71480   68.96050    -999.25   21.10060   16.88420
 5600.00000  -35.58820   73.00370  200.29370   17.00680   16.86220
 5650.00000  -19.43270   10.96420   11.15960   31.82700   91.27460
 5700.00000  -34.93490   42.22800   50.66080   38.48310   19.79270
 5750.00000  -62.80930    -999.25    -999.25   14.10300    9.53080
 5800.00000  -50.50950    -999.25  170.33780   15.30510   10.26530
 5850.00000  -47.30710    -999.25  249.63290   18.80590    5.50060
 5900.00000  -43.52340   34.89740   35.79640   23.10590   34.45950
 5950.00000  -43.88650   92.15500   73.71510   25.40090   17.22640
 6000.00000  -33.04340   60.26300   65.34430   19.88330   19.06640
 6050.00000  -26.32230   56.31180   95.59470   32.94460   17.23210
 6100.00000  -35.66890  199.41350  130.69020   28.86300    3.66900
 6150.00000  -38.61310  111.75460  109.88560   29.51820    9.16190
 6200.00000  -18.97860   27.27230   39.20640   32.31550   34.46010
 6250.00000  -35.47470  150.77020  144.88330   19.60540   10.26390
 6300.00000  -43.79560  118.71820  130.20680   32.79880   16.61780
 6350.00000  -44.01460  200.06160   92.51070   17.12850   10.99710
 6400.00000  -57.51820   61.76440   70.63090   17.27400   14.70520
 6450.00000  -55.18260   70.73710    -999.25   18.87730   19.48530
 6500.00000  -70.21900  167.20560  316.19710   33.89210    8.08820
 6550.00000  -65.25570  200.14710  235.67880   26.56710   10.63050
 6600.00000  -64.81750  120.58740  286.34350   18.36670   12.70820
 6650.00000  -63.72360  185.73450  339.93180   22.41250    8.79770
 6700.00000  -61.30710  185.88150  346.54920   30.61330   10.26390
 6750.00000  -58.09040    -999.25  202.64320   13.55680   11.36360
 6800.00000  -64.83950  200.29410  273.12770   13.11870   11.73020
 6850.00000  -66.32730  200.36760  124.08020   14.86840   13.93230
 6900.00000  -58.01340  200.58760  205.57610   15.43910   12.46870
 6950.00000  -46.86130   77.23360  128.49430   14.43150   18.08340
 7000.00000  -49.05160  125.98030  164.45720   14.21280   14.66280
 7050.00000  -63.35770   53.88330   90.74890   21.20990   21.99410
 7100.00000  -71.24090   56.76940   72.92380   17.71140   21.26370
 7150.00000  -68.32140   56.61720   68.94270   19.89800   21.13920
 7200.00000  -57.08030   17.54770   40.96850   19.02330   64.51950
 7250.00000  -55.18250   74.04400   73.78830   15.63410   19.42820
 7300.00000  -71.24090   86.47010   29.07450   16.61810   14.66270
 7350.00000  -67.90740   48.52940   68.82110   17.05540   17.47310
 7400.00000  -55.62000   43.52940   70.04410   10.86020   27.85920
 7450.00000  -38.54010   14.70590   24.96300   23.39590   71.11640
 7500.00000  -56.93510   53.67570   52.27610   21.86590   21.01660
