~Version ---------------------------------------------------
VERS. 2.0 : CWLS log ASCII Standard -VERSION 2.0
WRAP. YES : MULTIPLE LINES PER DEPTH STEP
~Well ------------------------------------------------------
STRT.FT                  300.0 : START DEPTH
STOP.FT                14400.0 : STOP DEPTH
STEP.FT               50.00000 : STEP LENGTH
NULL.                  -999.25 : NULL VALUE
COMP.              CONOCO INC. : COMPANY
WELL.       JACQUELYN WOODS #1 : WELL
FLD .                  WILDCAT : FIELD
LOC .                          : LOCATION
CNTY.                ROBERTSON : COUNTY
STAT.                    TEXAS : STATE
CTRY. UNITED STATES OF AMERICA : COUNTRY
SRVC.                          : SERVICE COMPANY
DATE.                          : LOGDATE
API .           42395302880000 : API NUMBER
UWI .           42395302880000 : UNIQUE WELL ID
SLAT.WGS84       31.0997639251 : SURFACE LATITUDE
SLON.WGS84      -96.4923364329 : SURFACE LONGITUDE
~Curve Information -----------------------------------------
DEPT  .FT    : DEPTH
ACED  .US/F  : DELTA TIME
CALRED.IN    : CALIPER FROM RESISTIVITY LOG
RILMED.OHMM  : MEDIUM INDUCTION RESISTIVITY
RFOCED.OHMM  : SHALLOW FOCUSED RESISTIVITY
RILDED.OHMM  : DEEP INDUCTION RESISTIVITY
GRRED .GAPI  : GAMMA RAY FROM RESISTIVITY LOG
TENRED.LBS   : TENSION FROM RESISTIVITY LOG
SFLUED.OHMM  : SPHERICALLY FOCUSED RESISTIVITY
GRDED .GAPI  : GAMMA RAY FROM DENSITY LOG
CALDED.IN    : CALIPER FROM DENSITY LOG
DRHOED.G/C3  : DENSITY CORRECTION
NPHIED.V/V   : NEUTRON POROSITY
RHOBED.G/C3  : BULK DENSITY
TENDED.LBS   : TENSION FROM DENSITY LOG
SRESWS.OHMM  : SHALLOW RESISTIVITY (RFOC+SFLU)
CALWS .IN    : CALIPER
SPED  .MV    : SPONTANEOUS POTENTIAL (BASELINE -10 MV)
SPWS  .MV    : SPONTANEOUS POTENTIAL (BASELINE -10 MV)
DCORWS.G/C3  : DENSITY CORRECTION
GRWS  .GAPI  : GAMMA RAY
DRESWS.OHMM  : DEEP RESISTIVITY (RILD)
MRESWS.OHMM  : MEDIUM RESISTIVITY (RILM)
CONDWS.MMHO  : CONDUCTIVITY FROM DEEP RESISTIVITY
DENWS .G/C3  : BULK DENSITY
DPOWS .V/V   : DENSITY POROSITY (M=2.71 F=1)
NPOWS .V/V   : NEUTRON POROSITY
DTWS  .V/V   : DELTA TIME
~Params ----------------------------------------------------
EKB .F                 513.38 : KELLY BUSHING
EGL .F                 483.38 : ELEVATION GROUND LEVEL
EDF .F                 512.38 : ELEVATION DERRICK FLOOR
EPD .F                 483.38 : ELEVATION PERMANENT DATUM
TD  .F                12197.0 : TOTAL DEPTH
DATE.             17-MAR-1984 : DATE LOGGED
CLNT.                 A2DTECH : CLIENT CODE
SL  . 3400' FNEL & 3500' FNWL : SURFACE LOCATION
PD  .                      GL : PERMANENT DATUM
LMF .                      KB : LOG MEASURED FROM
DMF .                      KB : DRILLING MEASURED FROM
DAPD.F                     30 : FEET ABOVE PERMANENT DATUM
DD  .F                  12195 : DEPTH DRILLER
DL  .F                  12197 : DEPTH LOGGER
BLI .F                  12195 : BOTTOM LOG INTERVAL
TLI .F                  11950 : TOP LOG INTERVAL
CS1 .IN                13.375 : CASING SIZE
CBD1.         13.375" @ 5096' : CASING DRILLER 1
BS1 .IN                 12.25 : BIT SIZE
BSD1.F                  12195 : DEPTH DRILLED WITH BIT1
DFT .             GEL/CAUSTIC : TYPE FLUID IN HOLE
DFD .                     9.8 : DENSITY
DFV .                      44 : VISCOSITY
DFPH.                      11 : PH
DFL .                    11.2 : FLUID LOSS
MSS .                    TANK : SOURCE OF SAMPLE
RMS .OHMM                1.95 : RM
RMF .OHMM                1.35 : RMF
RMC .OHMM                2.53 : RMC
MFSS.                    MEAS : SOURCE RMF.
MCSS.                    MEAS : SOURCE RMC.
RMB .OHMM                0.59 : RM. AT BHT
BHT .F                    246 : BHT.
TCS .HRS                    6 : TIME CIRC. STOPPED
TLAB.HRS                    - : TIME LOGGER AT BOTTOM
LUN .                 HL 6304 : LOGGING UNIT NUMBER
LUL .                   BRYAN : LOGGING UNIT LOCATION
ENGI.               R.R. KIRK : RECORDED BY
WITN.            GALE CLAYTOR : WITNESSED BY
ORIG.                5" PRINT : ORIGIN OF DATA
UWI .          42395302880000 : UNIQUE WELL ID
DICO.  A2D TECHNOLOGIES, INC. : DIGITIZING COMPANY
~Other -----------------------------------------------------
# NPHI 890 01 (LIMESTONE)
~ASCII -----------------------------------------------------
# ...
 4200.00000  100.42900    -999.25    1.84000    2.52700    1.73700   60.54400   14.79300    -999.25    -999.25    -999.25    -999.25    -999.25    -999.25    -999.25    2.52700    -999.25  -13.19660  -13.19660    -999.25   60.54400    1.73700    1.84000  575.70530    -999.25    -999.25    -999.25  100.42900
 4250.00000  103.01500   16.23700    1.46400    2.40400    1.33100   59.03800  113.41200    -999.25    -999.25    -999.25    -999.25    -999.25    -999.25    -999.25    2.40400   16.23700  -17.99630  -17.99630    -999.25   59.03800    1.33100    1.46400  751.31480    -999.25    -999.25    -999.25  103.01500
 4300.00000  104.88100   16.23700    1.35200    2.31700    1.28200   58.79300    0.00000    -999.25    -999.25    -999.25    -999.25    -999.25    -999.25    -999.25    2.31700   16.23700  -17.95290  -17.95290    -999.25   58.79300    1.28200    1.35200  780.03120    -999.25    -999.25    -999.25  104.88100
 4350.00000  101.60300   16.27000    1.47300    2.40000    1.31000   58.61300    0.00000    -999.25    -999.25    -999.25    -999.25    -999.25    -999.25    -999.25    2.40000   16.27000  -17.56760  -17.56760    -999.25   58.61300    1.31000    1.47300  763.35880    -999.25    -999.25    -999.25  101.60300
 4400.00000  104.22300   16.20400    1.41800    2.35700    1.28600   57.66400   25.96300    -999.25    -999.25    -999.25    -999.25    -999.25    -999.25    -999.25    2.35700   16.20400  -15.40520  -15.40520    -999.25   57.66400    1.28600    1.41800  777.60500    -999.25    -999.25    -999.25  104.22300
 4450.00000  103.81300   16.23700    1.30600    2.29000    1.18600   54.57200    9.86200    -999.25    -999.25    -999.25    -999.25    -999.25    -999.25    -999.25    2.29000   16.23700  -16.60090  -16.60090    -999.25   54.57200    1.18600    1.30600  843.17030    -999.25    -999.25    -999.25  103.81300
 4500.00000  102.00400   16.19800    1.61200    2.51100    1.36500   55.28500    4.95400    -999.25    -999.25    -999.25    -999.25    -999.25    -999.25    -999.25    2.51100   16.19800  -12.58350  -12.58350    -999.25   55.28500    1.36500    1.61200  732.60070    -999.25    -999.25    -999.25  102.00400
 4550.00000   93.51300   16.19000    1.87800    2.75200    1.71100   51.76700    0.00000    -999.25    -999.25    -999.25    -999.25    -999.25    -999.25    -999.25    2.75200   16.19000  -20.18220  -20.18220    -999.25   51.76700    1.71100    1.87800  584.45360    -999.25    -999.25    -999.25   93.51300
 4600.00000   79.18100   16.07700    3.60300    3.81100    3.44000   30.48200    8.72600    -999.25    -999.25    -999.25    -999.25    -999.25    -999.25    -999.25    3.81100   16.07700  -25.23680  -25.23680    -999.25   30.48200    3.44000    3.60300  290.69770    -999.25    -999.25    -999.25   79.18100
 4650.00000   74.89300   16.13800    3.84000    4.03600    3.44300   30.01600   21.62800    -999.25    -999.25    -999.25    -999.25    -999.25    -999.25    -999.25    4.03600   16.13800  -21.85950  -21.85950    -999.25   30.01600    3.44300    3.84000  290.44440    -999.25    -999.25    -999.25   74.89300
 4700.00000   76.26500   16.19700    4.34300    4.60000    4.06100   34.66100   24.17900    -999.25    -999.25    -999.25    -999.25    -999.25    -999.25    -999.25    4.60000   16.19700  -20.83420  -20.83420    -999.25   34.66100    4.06100    4.34300  246.24480    -999.25    -999.25    -999.25   76.26500
 4750.00000   74.90700   16.12000    4.05700    4.29100    3.88500   24.80700    4.93100    -999.25    -999.25    -999.25    -999.25    -999.25    -999.25    -999.25    4.29100   16.12000  -45.64980  -45.64980    -999.25   24.80700    3.88500    4.05700  257.40030    -999.25    -999.25    -999.25   74.90700
 4800.00000   70.51500   16.11700    4.63700    4.61600    4.41300   22.74800    0.00000    -999.25    -999.25    -999.25    -999.25    -999.25    -999.25    -999.25    4.61600   16.11700  -41.14450  -41.14450    -999.25   22.74800    4.41300    4.63700  226.60320    -999.25    -999.25    -999.25   70.51500
 4850.00000   96.92100   16.21500    1.74500    2.71800    1.65100   62.99000   14.79300    -999.25    -999.25    -999.25    -999.25    -999.25    -999.25    -999.25    2.71800   16.21500  -29.08310  -29.08310    -999.25   62.99000    1.65100    1.74500  605.69350    -999.25    -999.25    -999.25   96.92100
 4900.00000  107.48700   16.15700    1.11300    2.17800    1.01200   66.89100   14.79300    -999.25    -999.25    -999.25    -999.25    -999.25    -999.25    -999.25    2.17800   16.15700  -27.31280  -27.31280    -999.25   66.89100    1.01200    1.11300  988.14230    -999.25    -999.25    -999.25  107.48700
 4950.00000  100.35100   16.11700    1.31000    2.31700    1.21800   64.85400   24.66500    -999.25    -999.25    -999.25    -999.25    -999.25    -999.25    -999.25    2.31700   16.11700  -23.55940  -23.55940    -999.25   64.85400    1.21800    1.31000  821.01800    -999.25    -999.25    -999.25  100.35100
 5000.00000  103.21700   16.13600    1.30500    2.30200    1.21800   58.72000   19.24400    -999.25    -999.25    -999.25    -999.25    -999.25    -999.25    -999.25    2.30200   16.13600  -22.92910  -22.92910    -999.25   58.72000    1.21800    1.30500  821.01800    -999.25    -999.25    -999.25  103.21700
 5050.00000  102.87800   16.12300    1.29400    2.30500    1.20100   60.89500   18.94600    -999.25    -999.25    -999.25    -999.25    -999.25    -999.25    -999.25    2.30500   16.12300  -21.56480  -21.56480    -999.25   60.89500    1.20100    1.29400  832.63950    -999.25    -999.25    -999.25  102.87800
 5100.00000    -999.25    -999.25    1.49900    1.56200    1.13600    -999.25    -999.25    -999.25   69.48300   15.79400   -0.02600    0.41190    2.01400    -999.25    1.56200   15.79400  -11.47940  -11.47940   -0.02600    -999.25    1.13600    1.49900  880.28170    2.01400    0.40700    0.41190    -999.25
 5150.00000  100.02900   15.03900    2.87000    3.03700    2.55100   55.51300    0.00000    -999.25   86.79300   17.55200    0.09800    0.33700    2.39400    -999.25    3.03700   17.55200   -9.99940   -9.99940    0.09800   55.51300    2.55100    2.87000  392.00310    2.39400    0.18480    0.33700  100.02900
 5200.00000  108.35600   15.03600    2.51800    3.16500    2.36700   59.29600    0.00000    -999.25   84.28400   18.11700    0.06500    0.39300    2.00200    -999.25    3.16500   18.11700   -8.73730   -8.73730    0.06500   59.29600    2.36700    2.51800  422.47570    2.00200    0.41400    0.39300  108.35600
 5250.00000   90.09400   15.08100    2.15400    2.93800    2.10500   51.53300    0.00000    -999.25   79.16800   17.69700   -0.00700    0.32100    2.42000    -999.25    2.93800   17.69700  -15.49730  -15.49730   -0.00700   51.53300    2.10500    2.15400  475.05940    2.42000    0.16960    0.32100   90.09400
 5300.00000  150.72100   15.08200    0.78200    1.44900    0.68100   41.19800    0.00000    -999.25   65.45400   20.23600    0.00600    0.49800    2.02100    -999.25    1.44900   20.23600  -14.30220  -14.30220    0.00600   41.19800    0.68100    0.78200 1468.42880    2.02100    0.40290    0.49800  150.72100
 5350.00000   85.02400   15.11600    2.40000    2.67600    2.04500   40.17200    0.00000    -999.25   67.49900   17.95800    0.10800    0.31200    2.28700    -999.25    2.67600   17.95800  -11.41720  -11.41720    0.10800   40.17200    2.04500    2.40000  488.99750    2.28700    0.24740    0.31200   85.02400
 5400.00000   63.26000   14.90900    7.46700    6.55900    7.41000   17.15200    0.00000    -999.25   21.30600   17.48400   -0.04000    0.09100    2.55300    -999.25    6.55900   17.48400  -27.78320  -27.78320   -0.04000   17.15200    7.41000    7.46700  134.95280    2.55300    0.09180    0.09100   63.26000
 5450.00000   66.42000   15.07600    4.93100    5.54200    4.78000   22.80000    0.00000    -999.25   34.59400   18.00000   -0.07400    0.13500    2.54700    -999.25    5.54200   18.00000  -13.65810  -13.65810   -0.07400   22.80000    4.78000    4.93100  209.20500    2.54700    0.09530    0.13500   66.42000
