~Version ---------------------------------------------------
VERS.      2.0 : CWLS log ASCII Standard -VERSION 2.0
WRAP.      YES : MULTIPLE LINES PER DEPTH STEP
CREA. 09/17/13 : LAS CREATION DATE
~Well ------------------------------------------------------
STRT.FT                   2000.0 : START DEPTH
STOP.FT                  11500.0 : STOP DEPTH
STEP.FT                 50.00000 : STEP LENGTH
NULL.                    -999.25 : NULL VALUE
COMP. LADD PETROLEUM CORPORATION : COMPANY
WELL.        LADD FITZSIMMONS #1 : WELL
FLD .                    WILDCAT : FIELD
LOC .                            : LOCATION
CNTY.                     DIMMIT : COUNTY
STAT.                      TEXAS : STATE
CTRY.   UNITED STATES OF AMERICA : COUNTRY
SRVC.               Schlumberger : SERVICE COMPANY
DATE.                19-Jan-1978 : LOGDATE
API .             42127315740000 : API NUMBER
UWI .             42127315740000 : UNIQUE WELL ID
SLAT.WGS84         28.2507010101 : SURFACE LATITUDE
SLON.WGS84       -100.0580378891 : SURFACE LONGITUDE
~Curve Information -----------------------------------------
DEPT    .FT    : DEPTH FEET
CALDED  .IN    : CALIPER FROM DENSITY LOG, DEPTH ADJUSTED WITH [SPRED]
CALWS   .IN    : CALIPER [CALDED]
CILDED  .MMHO  : CONDUCTIVITY FROM RESISTIVITY LOG
CONDWS  .MMHO  : CONDUCTIVITY [1000/DRESWS]
CORRED  .G/C3  : DENSITY CORRECTION FROM DENSITY LOG, DEPTH ADJUSTED WITH [SPRED]
DCORWS  .G/C3  : DENSITY CORRECTION [CORRED]
DENWS   .G/C3  : BULK DENSITY [M=2.71 F=1.0] [RHOBED]
DPHILSED.V/V   : DENSITY POROSITY [M=2.71 F=1.0] FROM DENSITY LOG, DEPTH ADJUSTED WITH [SPRED]
DPHISSED.V/V   : DENSITY POROSITY [M=2.65 F=1.0] FROM DENSITY LOG, DEPTH ADJUSTED WITH [SPRED]
DPOLSWS .V/V   : DEBSITY POROSITY LIMESTONE [CALCULATED FROM DENWS]
DRESWS  .OHMM  : DEEP RESISTIVITY [ILDED] IF DRESWS<1;1000/CONDWS
DTED    .US/F  : DELTA TIME FROM SONIC LOG
DTWS    .US/F  : DELTA TIME [DTED]
GRDED   .GAPI  : GAMMA RAY FROM DENSITY LOG, DEPTH ADJUSTED WITH [SPRED]
GRRED   .GAPI  : GAMMA RAY FROM RESISTIVITY LOG
GRWS    .GAPI  : GAMMA RAY [GRRED], SPLICED WITH [GRDED] FROM TOP TO 5160'
ILDED   .OHMM  : INDUCTION LOG DEEP RESISTIVITY
ILMED   .OHMM  : INDUCTION LOG MEDIUM RESISTIVITY
LL8ED   .OHMM  : 8 INCH LATEROLOG RESISTIVITY
MRESWS  .OHMM  : MEDIUM RESISTIVITY [ILMED]
NPHILSED.V/V   : NEUTRON POROSITY LIMESTONE FROM DENSITY LOG, DEPTH ADJUSTED WITH [SPRED]
NPHISSED.V/V   : NEUTRON POROSITY SANDSTONE FROM DENSITY LOG, DEPTH ADJUSTED WITH [SPRED]
NPOLSWS .V/V   : NEUTRON POROSITY LIMESTONE [NPHILSED], MATRIX CONVERTED [NPHISSED] TO LIMESTONE [TOP-5100]
RHOBED  .G/C3  : BULK DENSITY FROM DENSITY LOG, DEPTH ADJUSTED WITH [SPRED]
SPHIED  .V/V   : SONIC POROSITY FROM SONIC LOG
SPOWS   .V/V   : SONIC POROSITY [SPHIED]
SPRED   .MV    : SPONTANEOUS POTENTIAL FROM RESISTIVITY LOG
SPWS    .MV    : SPONTANEOUS POTENTIAL [BASELINE 0 MV] [SPRED]
SRESWS  .OHMM  : SHALLOW RESISTIVITY [LL8ED]
~Params ----------------------------------------------------
EKB .F                  728.0 : Kelly bushing
EGL .F                  710.0 : Ground level
EDF .F                  727.0 : Drilling floor
EPD .F                  710.0 : Permanent datum
TD  .F                11519.0 : Total depth
DATE.             19-JAN-1978 : DATE LOGGED
CLNT.                 A2DTECH : CLIENT CODE
SL  . 7000' FNEL & 7500' FSEL : SURFACE LOCATION
PD  .                      GL : PERMANENT DATUM
LMF .                      KB : LOG MEASURED FROM
DMF .                      KB : DRILLING MEASURED FROM
DAPD.F                     18 : FEET ABOVE PERMANENT DATUM
DD  .F                  11518 : DEPTH DRILLER
DL  .F                  11519 : DEPTH LOGGER
BLI .F                  11513 : BOTTOM LOG INTERVAL
TLI .F                   9875 : TOP LOG INTERVAL
CS1 .IN                 7.625 : CASING SIZE
CBD1.          7.625" @ 9920' : CASING DRILLER 1
CBL1.F                   9875 : CASING LOGGER 1
BS1 .IN                   6.5 : BIT SIZE
BSD1.F                  11518 : DEPTH DRILLED WITH BIT1
DFT .               SPER-TANN : TYPE FLUID IN HOLE
DFD .                    16.5 : DENSITY
DFV .                      50 : VISCOSITY
DFPH.                    11.8 : PH
MSS .              CIRC. TANK : SOURCE OF SAMPLE
RMS .OHMM                1.41 : RM
RMF .OHMM                0.51 : RMF
RMC .OHMM                 4.6 : RMC
MFSS.                    MEAS : SOURCE RMF.
MCSS.                    CALC : SOURCE RMC.
RMB .OHMM                0.38 : RM. AT BHT
BHT .F                    260 : BHT.
TCS .HRS                 1000 : TIME CIRC. STOPPED
TLAB.                    1500 : TIME LOGGER AT BOTTOM
LUN .                    7739 : LOGGING UNIT NUMBER
LUL .                  LAREDO : LOGGING UNIT LOCATION
ENGI.                   LOGAL : RECORDED BY
WITN.                 ELLISON : WITNESSED BY
ORIG.             1" 5" PRINT : ORIGIN OF DATA
UWI .          42127315740000 : UNIQUE WELL ID
DICO.  A2D TECHNOLOGIES, INC. : DIGITIZING COMPANY
~Other -----------------------------------------------------
~ASCII -----------------------------------------------------
 2000.00000    -999.25    -999.25    -999.25    -999.25    -999.25    -999.25    -999.25    -999.25    -999.25    -999.25    -999.25    -999.25    -999.25   47.39660    -999.25   47.39660    -999.25    -999.25    -999.25    -999.25    -999.25    0.40640    0.36200    -999.25    -999.25    -999.25    -999.25    -999.25    -999.25
 2050.00000   12.36980   12.36980    -999.25  108.69800    0.09730    0.09730    2.21590    -999.25    0.26010    0.28890    9.19980   65.45800   65.45800   55.74940    -999.25   55.74940    9.19980   15.07970   40.81000   15.07970    -999.25    0.32840    0.27820    2.21590    -999.25    -999.25  -25.62460  -21.66330   40.81000
 2100.00000   13.77670   13.77670    -999.25  251.20580    0.12160    0.12160    2.40040    -999.25    0.16910    0.18110    3.98080   88.26260   88.26260   74.07930    -999.25   74.07930    3.98080    4.13310    4.56200    4.13310    -999.25    0.27880    0.22660    2.40040    -999.25    -999.25   -5.29890   -1.92070    4.56200
 2150.00000   13.96290   13.96290    -999.25  188.64720    0.01220    0.01220    2.08120    -999.25    0.23720    0.36770    5.30090   80.07040   80.07040   65.88110    -999.25   65.88110    5.30090    6.88660    7.17360    6.88660    -999.25    0.24810    0.19550    2.08120    -999.25    -999.25   -5.48160   -2.68660    7.17360
 2200.00000   17.37960   17.37960    -999.25  341.70510    0.06750    0.06750    1.96360    -999.25    0.48150    0.43650    2.92650   91.75180   91.75180   64.31590    -999.25   64.31590    2.92650    2.99350    3.46280    2.99350    -999.25    0.41880    0.37550    1.96360    -999.25    -999.25   -6.24550   -4.03360    3.46280
 2250.00000   17.32640   17.32640    -999.25  276.95460    0.11800    0.11800    2.16310    -999.25    0.41310    0.31980    3.61070   92.17570   92.17570   66.34100    -999.25   66.34100    3.61070    3.71730    4.29180    3.71730    -999.25    0.35810    0.30980    2.16310    -999.25    -999.25   -5.83190   -4.20310    4.29180
 2300.00000   14.31830   14.31830    -999.25  379.27630    0.04930    0.04930    2.09520    -999.25    0.38870    0.35960    2.63660  106.64670  106.64670   72.00830    -999.25   72.00830    2.63660    2.94640    3.27890    2.94640    -999.25    0.47210    0.43480    2.09520    -999.25    -999.25   -6.19920   -5.15350    3.27890
 2350.00000   17.34470   17.34470    -999.25  378.38660    0.07150    0.07150    1.83230    -999.25    0.51890    0.51330    2.64280  104.41270  104.41270   64.86040    -999.25   64.86040    2.64280    2.32760    2.75460    2.32760    -999.25    0.49150    0.45640    1.83230    -999.25    -999.25   -6.45090   -5.98830    2.75460
 2400.00000   17.28140   17.28140    -999.25  293.92750   -0.00770   -0.00770    1.60780    -999.25    0.63950    0.64460    3.40220  108.55930  108.55930   67.18890    -999.25   67.18890    3.40220    3.10550    3.61230    3.10550    -999.25    0.47500    0.43800    1.60780    -999.25    -999.25   -7.20570   -7.32620    3.61230
 2450.00000   15.53470   15.53470    -999.25  495.76120    0.03940    0.03940    1.86270    -999.25    0.38890    0.49550    2.01710  102.39180  102.39180   57.52370    -999.25   57.52370    2.01710    2.75360    2.74180    2.75360    -999.25    0.44540    0.40500    1.86270    -999.25    -999.25   -6.09900   -6.80260    2.74180
 2500.00000   16.66640   16.66640    -999.25  253.83930    0.08790    0.08790    1.98150    -999.25    0.36010    0.42600    3.93950   93.86870   93.86870   67.80580    -999.25   67.80580    3.93950    4.08710    5.01280    4.08710    -999.25    0.40430    0.35970    1.98150    -999.25    -999.25   -4.83700   -6.12370    5.01280
 2550.00000   16.41090   16.41090    -999.25  156.95630    0.09250    0.09250    2.25610    -999.25    0.35300    0.26540    6.37120   80.74720   80.74720   68.84880    -999.25   68.84880    6.37120    6.76380    9.34040    6.76380    -999.25    0.37950    0.33270    2.25610    -999.25    -999.25   -2.45670   -3.95250    9.34040
 2600.00000   10.90030   10.90030    -999.25  273.62030    0.06280    0.06280    2.07620    -999.25    0.22370    0.37060    3.65470   92.60950   92.60950   60.57250    -999.25   60.57250    3.65470    3.74180    4.25760    3.74180    -999.25    0.22010    0.16820    2.07620    -999.25    -999.25   -5.32310   -6.72210    4.25760
 2650.00000   14.55000   14.55000    -999.25  228.96390    0.08930    0.08930    2.08020    -999.25    0.40280    0.36830    4.36750   81.85640   81.85640   71.93660    -999.25   71.93660    4.36750    4.48250    5.34660    4.48250    -999.25    0.29490    0.24340    2.08020    -999.25    -999.25   -3.67020   -4.97230    5.34660
 2700.00000   12.80690   12.80690    -999.25  216.73640    0.09820    0.09820    2.25540    -999.25    0.17480    0.26580    4.61390   82.32750   82.32750   69.26880    -999.25   69.26880    4.61390    4.96010    6.25380    4.96010    -999.25    0.25080    0.19820    2.25540    -999.25    -999.25   -5.54240   -6.74760    6.25380
 2750.00000   13.10150   13.10150    -999.25  251.63560    0.19030    0.19030    2.40210    -999.25    0.14440    0.18010    3.97400   80.34250   80.34250   79.47350    -999.25   79.47350    3.97400    4.16900    5.23650    4.16900    -999.25    0.19370    0.14330    2.40210    -999.25    -999.25   -6.07910   -7.18750    5.23650
 2800.00000   12.30940   12.30940    -999.25  212.92910    0.07110    0.07110    2.40990    -999.25    0.15390    0.17550    4.69640   74.46920   74.46920   75.64590    -999.25   75.64590    4.69640    5.11910    5.48060    5.11910    -999.25    0.25140    0.19870    2.40990    -999.25    -999.25  -21.25340  -22.26490    5.48060
 2850.00000   12.32980   12.32980    -999.25  109.53020    0.07850    0.07850    2.08020    -999.25    0.47730    0.36830    9.12990   56.65660   56.65660   58.89300    -999.25   58.89300    9.12990   11.62280   15.69440   11.62280    -999.25    0.39620    0.35080    2.08020    -999.25    -999.25  -45.15910  -46.07370   15.69440
 2900.00000   14.24830   14.24830    -999.25  241.53420    0.11990    0.11990    2.02870    -999.25    0.39030    0.39840    4.14020  110.31450  110.31450   69.09620    -999.25   69.09620    4.14020    4.59380    5.30120    4.59380    -999.25    0.34670    0.29760    2.02870    -999.25    -999.25  -23.83670  -24.65450    5.30120
 2950.00000    9.60830    9.60830    -999.25  265.80900    0.01450    0.01450    2.39500    -999.25    0.15030    0.18420    3.76210   72.84870   72.84870   28.12710    -999.25   28.12710    3.76210    5.78790   10.07660    5.78790    -999.25    0.18510    0.13540    2.39500    -999.25    -999.25  -77.81030  -78.53120   10.07660
 3000.00000   12.43220   12.43220    -999.25  236.30610    0.13810    0.13810    2.18630    -999.25    0.23870    0.30630    4.23180   84.70910   84.70910   68.88660    -999.25   68.88660    4.23180    4.35770    5.34760    4.35770    -999.25    0.32080    0.27030    2.18630    -999.25    -999.25  -15.03710  -15.66110    5.34760
 3050.00000   10.36620   10.36620    -999.25  242.07800    0.14230    0.14230    2.29940    -999.25    0.21850    0.24010    4.13090   87.25940   87.25940   57.07620    -999.25   57.07620    4.13090    4.21110    4.29730    4.21110    -999.25    0.31750    0.26680    2.29940    -999.25    -999.25  -18.67650  -19.20370    4.29730
 3100.00000   15.68110   15.68110    -999.25  410.91390   -0.02680   -0.02680    1.57580    -999.25    0.52080    0.66330    2.43360  131.97980  131.97980   69.21400    -999.25   69.21400    2.43360    2.43670    3.57510    2.43670    -999.25    0.51630    0.48400    1.57580    -999.25    -999.25  -15.85780  -16.28810    3.57510
 3150.00000   14.34930   14.34930    -999.25 1002.90840   -0.03930   -0.03930    1.65540    -999.25    0.47220    0.61670    0.99710  195.45790  195.45790   58.74490    -999.25   58.74490    0.99710    1.46310    1.42070    1.46310    -999.25    0.52480    0.49340    1.65540    -999.25    -999.25  -16.35110  -16.68460    1.42070
 3200.00000   12.49400   12.49400    -999.25  139.25640    0.00270    0.00270    2.48520    -999.25    0.10910    0.13150    7.18100   69.78690   69.78690   45.04840    -999.25   45.04840    7.18100    8.98090   10.15570    8.98090    -999.25    0.22720    0.17500    2.48520    -999.25    -999.25  -43.37620  -43.61280   10.15570
