~Version ---------------------------------------------------
VERS. 2.0 : CWLS log ASCII Standard -VERSION 2.0
WRAP.  NO : ONE LINE PER DEPTH STEP
~Well ------------------------------------------------------
STRT.F                   300.0 : START DEPTH
STOP.F                 24000.0 : STOP DEPTH
STEP.F                50.00000 : STEP LENGTH
NULL.                  -999.25 : NULL VALUE
COMP.       PLACID OIL COMPANY : COMPANY
WELL.                PEELER #1 : WELL
FLD .                  WILDCAT : FIELD
LOC .                          : LOCATION
CNTY.                MC MULLEN : COUNTY
STAT.                    TEXAS : STATE
CTRY. UNITED STATES OF AMERICA : COUNTRY
SRVC.             Schlumberger : SERVICE COMPANY
DATE.              01-Jan-1984 : LOGDATE
API .           42311317850000 : API NUMBER
UWI .           42311317850000 : UNIQUE WELL ID
SLAT.WGS84       28.5959255047 : SURFACE LATITUDE
SLON.WGS84      -98.4401225914 : SURFACE LONGITUDE
~Curve Information -----------------------------------------
DEPT   .F                 : 
DPHI_LS.DEC  45 890 10 00 : DENSITY POROSITY LIMESTONE
CALD   .IN   45 280 60 00 : CALIPER FROM DENSITY LOG
RHOB   .G/C3 45 350 01 00 : BULK DENSITY
NPHI_LS.DEC  42 890 01 00 : NEUTRON POROSITY LIMESTONE
DT     .US/F 60 500 00 00 : DELTA-T (INTERVAL TRANSIT TIME)
GRR    .GAPI 07 310 01 00 : GAMMA RAY FROM RESISTIVITY LOG
NPHI_SS.DEC  42 890 03 00 : NEUTRON POROSITY SANDSTONE
ILM    .OHMM 07 120 44 00 : INDUCTION MEDIUM RESISTIVITY
SFLU   .OHMM 07 220 01 00 : SHALLOW FOCUSED RESISTIVITY (UNAVERAGED)
SPR    .MV   07 010 01 00 : SPONTANEOUS POTENTIAL FROM RESISTIVITY LOG
ILD    .OHMM 07 120 46 00 : INDUCTION DEEP RESISTIVITY
DCALR  .IN   07 280 01 00 : DIFFERENTIAL CALIPER FROM RESISTIVITY LOG
DPHI_SS.DEC  45 890 12 00 : DENSITY POROSITY SANDSTONE
DRHO   .G/C3 45 356 01 00 : BULK DENSITY CORRECTION
~Params ----------------------------------------------------
PD  .                     GL : PERMANENT DATUM
EPD .F                   336 : ELEVATION PERMANENT DATUM
LMF .                     KB : LOG MEASURED FROM
DMF .                     KB : DRILLING MEASURED FROM
EKB .F                   368 : KELLING BUSHING
EDF .F                   367 : DRILLING FLOOR
EGL .F                   336 : GROUND LEVEL
DATE.               1-1-1984 : RUN DATE
RUN .                      7 : RUN NUMBER
DD  .F                 24031 : DEPTH DRILLER
DL  .F                 24037 : DEPTH LOGGER
BLI .F                 24030 : BOTTOM LOG INTERVAL
TLI .F                 21000 : TOP LOG INTERVAL
CS  .IN                8.625 : CASING SIZE
CBD .F                 19500 : CASING BOTTOM DRILLER
CBL .F                 19500 : CASING BOTTOM LOGGER
BS  .IN                  7.5 : BIT SIZE
BSD .F                 24031 : BIT SIZE AT DEPTH
DFT .               INVERMUL : DRILLING FLUID TYPE
DFV .                     83 : DRILLING FLUID VISCOSITY
TCS .HRS                 800 : TIME CURCULATED STOPPED
TLAB.HRS                 200 : TIME LOGGER AT BOTTOM
LUL .               EDINBURG : LOGGING UNIT LOCATION
ENGI.              NEWMISTER : RECORDING ENGINEER
WITN.                   LONG : WITNESSED BY
CLNT.                A2DTECH : CLIENT CODE
ORIG.            1",5" PRINT : ORIGIN OF DATA
UWI .         42311317850000 : UNIQUE WELL ID
DICO. A2D Technologies, Inc. : DIGITIZING COMPANY
~Other -----------------------------------------------------
~ASCII -----------------------------------------------------
  300.00000    -999.25    -999.25    -999.25    -999.25    -999.25   64.45240    0.55610    1.50820    1.40380   -2.05640    1.70000    0.91350    0.44210    0.03360
  350.00000    -999.25    -999.25    -999.25    -999.25    -999.25   58.64140    0.74190    3.77410    4.01270   -4.32120    4.28650    0.97520    0.61760   -0.01010
  400.00000    -999.25    -999.25    -999.25    -999.25    -999.25   34.99210    0.52360    2.03140    1.78530  -13.63070    2.16510    1.82020    0.41730    0.02060
  450.00000    -999.25    -999.25    -999.25    -999.25    -999.25   42.57440    0.45180    2.03670    1.78080  -16.36860    2.17740    0.76950    0.37720    0.05310
  500.00000    -999.25    -999.25    -999.25    -999.25    -999.25   34.95310    0.53640    2.19910    2.00130  -18.82380    2.28490    0.60700    0.39800    0.02810
  550.00000    -999.25    -999.25    -999.25    -999.25    -999.25   49.09590    0.59960    1.58350    1.29790   -7.48820    1.74700    1.73310    0.41180    0.03270
  600.00000    -999.25    -999.25    -999.25    -999.25    -999.25   39.25160    0.57070    1.85880    1.69070  -14.01660    1.95390    1.09030    0.39760    0.02320
  650.00000    -999.25    -999.25    -999.25    -999.25    -999.25   53.23610    0.60490    1.39620    1.37280   -6.00550    1.50980    0.67510    0.47380    0.05950
  700.00000    -999.25    -999.25    -999.25    -999.25    -999.25   38.47500    0.53290    2.77020    2.61950   -6.66330    3.09220    0.93750    0.27490    0.09210
  750.00000    -999.25    -999.25    -999.25    -999.25    -999.25   51.49700    0.66870    1.26450    1.31960   -6.65800    1.36800    0.54330    0.43710    0.05380
  800.00000    -999.25    -999.25    -999.25    -999.25    -999.25   52.29290    0.53100    1.46770    1.36350   -8.64900    1.59750    1.66280    0.36800    0.04740
  850.00000    -999.25    -999.25    -999.25    -999.25    -999.25   39.48920    0.50800    1.97940    1.82620  -14.30930    2.01540    1.67970    0.36650    0.03750
  900.00000    -999.25    -999.25    -999.25    -999.25    -999.25   40.90940    0.49340    1.66990    2.18680   -5.98500    1.80150    3.35680    0.34230    0.05030
  950.00000    -999.25    -999.25    -999.25    -999.25    -999.25   41.70100    0.58960    1.75720    1.64840   -7.64510    1.92270    1.02980    0.37780    0.07310
 1000.00000    -999.25    -999.25    -999.25    -999.25    -999.25   34.92820    0.52340    2.33410    2.22790   -8.46110    2.63860    1.22400    0.37270    0.02110
 1050.00000    -999.25    -999.25    -999.25    -999.25    -999.25   35.75340    0.56550    2.04510    1.89450   -8.60800    2.34670    2.42330    0.35050    0.02670
 1100.00000    -999.25    -999.25    -999.25    -999.25    -999.25   49.76300    0.63440    0.85620    1.00180   -4.43130    0.88160    0.99460    0.48170    0.05010
 1150.00000    -999.25    -999.25    -999.25    -999.25    -999.25   29.72170    0.52940    2.50970    2.36820   -9.32670    2.77720    0.48540    0.40600    0.03040
 1200.00000    -999.25    -999.25    -999.25    -999.25    -999.25   33.35860    0.48750    2.31540    2.05150   -8.71160    2.49400    0.60130    0.39030    0.00310
 1250.00000    -999.25    -999.25    -999.25    -999.25    -999.25   37.86570    0.48790    1.81800    1.63090   -4.68060    1.97880    0.80470    0.32230    0.03000
 1300.00000    -999.25    -999.25    -999.25    -999.25    -999.25   31.92110    0.48900    2.27330    2.13420   -5.17700    2.42700    1.56870    0.40500    0.00680
 1350.00000    -999.25    -999.25    -999.25    -999.25    -999.25   32.47500    0.52610    2.28130    1.93980   -6.85710    2.51700    1.62830    0.41100    0.03480
 1400.00000    -999.25    -999.25    -999.25    -999.25    -999.25   42.11130    0.50510    2.21220    1.95940   -7.31460    2.45830    3.97850    0.41280    0.07010
 1450.00000    -999.25    -999.25    -999.25    -999.25    -999.25   52.27960    0.59990    1.29590    1.42310   -2.78500    1.36840    4.49560    0.34850    0.06670
 1500.00000    -999.25    -999.25    -999.25    -999.25    -999.25   53.31820    0.55080    1.52830    1.66170   -2.72650    1.65290    4.30310    0.32140    0.03530
 1550.00000    -999.25    -999.25    -999.25    -999.25    -999.25   53.18550    0.51350    1.10080    1.13160   -3.09450    1.15350    4.52770    0.38700    0.04250
 1600.00000    -999.25    -999.25    -999.25    -999.25    -999.25   54.41140    0.60620    1.04980    1.10270   -2.96370    1.08290    4.17920    0.37980    0.05070
 1650.00000    -999.25    -999.25    -999.25    -999.25    -999.25   54.53280    0.53610    1.14810    1.11060   -1.97280    1.25370    4.07220    0.37970    0.03220
 1700.00000    -999.25    -999.25    -999.25    -999.25    -999.25   49.12150    0.60920    1.09960    1.20130   -2.46530    1.17640    2.36620    0.39310    0.03160
 1750.00000    -999.25    -999.25    -999.25    -999.25    -999.25   45.85660    0.60250    2.11510    2.02630   -2.80230    2.27760    1.29700    0.34200    0.05900
 1800.00000    -999.25    -999.25    -999.25    -999.25    -999.25   47.17720    0.57970    1.23120    1.34820   -1.90750    1.26430    3.05870    0.44850    0.09670
 1850.00000    -999.25    -999.25    -999.25    -999.25    -999.25   45.05950    0.62070    1.38570    1.45850   -1.59810    1.52180    2.44030    0.40820    0.05380
 1900.00000    -999.25    -999.25    -999.25    -999.25    -999.25   44.86760    0.70150    1.10060    1.16600   -1.92730    1.12430    1.24540    0.48030    0.04680
 1950.00000    -999.25    -999.25    -999.25    -999.25    -999.25   41.05960    0.49310    3.10010    2.73090   -3.10640    3.37740    1.15100    0.31670    0.01040
 2000.00000    -999.25    -999.25    -999.25    -999.25    -999.25   42.69920    0.52630    3.31970    2.94410   -3.82080    3.61150    0.65230    0.34680    0.02620
 2050.00000    -999.25    -999.25    -999.25    -999.25    -999.25   45.28340    0.58130    2.20970    2.15950   -3.94840    2.38310    1.34990    0.32040    0.01950
 2100.00000    -999.25    -999.25    -999.25    -999.25    -999.25   41.95670    0.64960    1.41040    1.31320   -2.87790    1.55500    2.30280    0.44370    0.05000
 2150.00000    -999.25    -999.25    -999.25    -999.25    -999.25   50.99430    0.60150    1.24830    1.22340   -2.58170    1.27440    1.17920    0.38330    0.03990
 2200.00000    -999.25    -999.25    -999.25    -999.25    -999.25   33.43360    0.45440    2.40950    2.36080   -5.28800    2.73060    0.74020    0.23960    0.05370
 2250.00000    -999.25    -999.25    -999.25    -999.25    -999.25   28.22560    0.50570    2.07460    2.01940   -7.39150    2.15290    0.59420    0.35850    0.02630
 2300.00000    -999.25    -999.25    -999.25    -999.25    -999.25   44.76420    0.63370    2.77470    2.39960   -8.37280    2.97860    0.46320    0.33000    0.04770
 2350.00000    -999.25    -999.25    -999.25    -999.25    -999.25   29.96190    0.51060    2.95910    2.51430  -37.71260    3.17840    0.54730    0.33840    0.03630
 2400.00000    -999.25    -999.25    -999.25    -999.25    -999.25   31.87430    0.52710    3.11030    2.62670  -38.71780    3.35560    0.48790    0.34900    0.01900
 2450.00000    -999.25    -999.25    -999.25    -999.25    -999.25   41.57810    0.50390    3.01290    2.75370  -37.42590    3.38070    0.60030    0.31360    0.04320
 2500.00000    -999.25    -999.25    -999.25    -999.25    -999.25   40.16100    0.50650    3.45560    3.00840  -31.32800    3.99780    0.37270    0.35110    0.02960
 2550.00000    -999.25    -999.25    -999.25    -999.25    -999.25   30.27200    0.49040    3.31820    2.97450  -32.71160    3.79710    0.64220    0.34360    0.02540
 2600.00000    -999.25    -999.25    -999.25    -999.25    -999.25   40.99100    0.45370    3.56070    3.06260  -31.62170    4.30820    0.53230    0.34190    0.00840
 2650.00000    -999.25    -999.25    -999.25    -999.25    -999.25   38.01820    0.51770    3.69800    3.13400  -32.90000    4.23430    0.84780    0.29400    0.05450
 2700.00000    -999.25    -999.25    -999.25    -999.25    -999.25   33.85040    0.51300    3.25490    2.85640  -32.00510    3.75350    0.47650    0.38070    0.02630
