~Version ---------------------------------------------------
VERS. 2.0 : CWLS log ASCII Standard -VERSION 2.0
WRAP. YES : MULTIPLE LINES PER DEPTH STEP
~Well ------------------------------------------------------
STRT.FT                    2550.0 : START DEPTH
STOP.FT                    7750.0 : STOP DEPTH
STEP.FT                  50.00000 : STEP LENGTH
NULL.                     -999.25 : NULL VALUE
COMP. ROYAL OIL & GAS CORPORATION : COMPANY
WELL.          DAVID N. BEHLEN #1 : WELL
FLD .                 PEACH CREEK : FIELD
LOC .                             : LOCATION
CNTY.                    GONZALES : COUNTY
STAT.                       TEXAS : STATE
CTRY.    UNITED STATES OF AMERICA : COUNTRY
SRVC.                Schlumberger : SERVICE COMPANY
DATE.                 02-Sep-1983 : LOGDATE
API .              42177314700000 : API NUMBER
UWI .              42177314700000 : UNIQUE WELL ID
SLAT.WGS84          29.5523655899 : SURFACE LATITUDE
SLON.WGS84         -97.3843892893 : SURFACE LONGITUDE
~Curve Information -----------------------------------------
DEPT    .FT    : DEPTH FEET
BITED   .IN    : BIT SIZE FROM LOG HEADER
CALWS   .IN    : CALIPER [DCALED+BITED]
CONDWS  .MMHO  : CONDUCTIVITY [1000/DRESWS]
DCALED  .IN    : DIFFERENTIAL CALIPER FROM DENSITY LOG
DCORWS  .G/C3  : DENSITY CORRECTION [DRHOED]
DENWS   .G/C3  : BULK DENSITY [M=2.65 F=1.0 CALCULATED FROM DPHISSED TO 7000 FEET, THEN CALCULATED FROM SPLICE OF DPHILSED WITH TEMP CURVE DPHI2 [M=2.71, F=1 TO TD1]
DPHILSED.V/V   : DENSITY POROSITY LIMESTONE FROM DENSITY LOG
DPHISSED.V/V   : DENSITY POROSITY SANDSTONE FROM DENSITY LOG
DPOWS   .V/V   : DENSITY POROSITY [M=2.71 F=1.0] [CALCULATED FROM TEMP CURVE RHOB2 TO 7000 FEET, THEN CALCULATED FROM SPLICE OF DPHILSED WITH TEMP CURVE DPHI2 TO TD]
DRESWS  .OHMM  : DEEP RESISTIVITY [ILDED]
DRHOED  .G/C3  : DENSITY CORRECTION FROM DENSITY LOG
GRRED   .GAPI  : GAMMA RAY FROM RESISTIVITY LOG
GRWS    .GAPI  : GAMMA RAY [GRRED]
ILDED   .OHMM  : INDUCTION LOG DEEP RESISTIVITY
ILMED   .OHMM  : INDUCTION LOG MEDIUM RESISTIVITY
MRESWS  .OHMM  : MEDIUM RESISTIVITY [ILMED]
NPHILSED.V/V   : NEUTRON POROSITY LIMESTONE FROM DENSITY LOG
NPHISSED.V/V   : NEUSTRON POROSITY SANDSTONE FROM DENSITY LOG
NPOWS   .V/V   : NEUTRON POROSITY LIMESTONE [CONVERTED FROM NPHISSED TO 7000 FEET, THEN EQUALS NPHILSED TO TD]
RHOBED  .G/C3  : BULK DENSITY FROM DENSITY LOG [DEPTH SHIFTED TO DPHILSED]
SFLUED  .OHMM  : SPHERICALLY FOCUSED LOG RESISTIVITY
SPRED   .MV    : SPONTANEOUS POTENTIAL FROM RESISTIVITY LOG
SPWS    .MV    : SPONTANEOUS POTENTIAL [BASELINE 0 MV] [SPRED]
SRESWS  .OHMM  : SHALLOW RESISTIVITY [SFLUED]
TENRED  .LBF   : TENSION FROM RESISTIVITY LOG
~Params ----------------------------------------------------
PD  .                     GL : PERMANENT DATUM
LMF .                    RKB : LOG MEASURED FROM
DAPD.F                  12.5 : FEET ABOVE PERMANENT DATUM
DMF .                    RKB : DRILLING MEASURED FROM
EKB .F                 316.6 : KELLING BUSHING
EDF .F                 315.6 : DRILLING FLOOR
EGL .F                 304.1 : GROUND LEVEL
DATE.               9/2/1983 : RUN DATE
RUN .                      1 : RUN NUMBER
DD  .F                  7760 : DEPTH DRILLER
DL  .F                  7745 : DEPTH LOGGER
BLI .F                  7742 : BOTTOM LOG INTERVAL
TLI .F                  2512 : TOP LOG INTERVAL
CS  .IN                8.625 : CASING SIZE
CBD .F                  2512 : CASING BOTTOM DRILLER
CBL .F                  2512 : CASING BOTTOM LOGGER
BS  .IN                7.875 : BIT SIZE
BSD .F                  7760 : BIT SIZE AT DEPTH
DFT .         LIGNOSULFONATE : DRILLING FLUID TYPE
DFD .                    9.2 : DRILLING FLUID DENSITY
DFV .                     42 : DRILLING FLUID VISCOSITY
DFPH.                   10.5 : DRILLING FLUID PH
DFL .                    6.4 : DRILLING FLUID LOSS
MSS .              CIRC TANK : MUD SAMPLE SOURCE
RMS .OHMM               3.89 : RESISTIVITY MUD SAMPLE
MST .F                    75 : MUD SAMPLE TEMPERATURE
RMF .OHMM               3.56 : RESISTIVITY MUD FILTRATE SAMPLE
MFST.F                    75 : MUD FILTRATE SAMPLE TEMPERATURE
RMC .OHMM               5.83 : RESISTIVITY MUD CAKE
MCST.F                    75 : MUD CAKE SAMPLE TEMPERATURE
MFSS.                   MEAS : MUD FILTRATE SAMPLE SOURCE
MCSS.                  CHART : MUD CAKE SAMPLE SOURCE
RMB .OHMM              1.743 : RESISTIVITY MUD AT BHT
TCS .HRS                 130 : TIME CURCULATED STOPPED
TLAB.HRS                 615 : TIME LOGGER AT BOTTOM
LUN .                   8299 : LOGGING UNIT NUMBER
LUL .               VICTORIA : LOGGING UNIT LOCATION
ENGI.             DALE LOGAN : RECORDING ENGINEER
WITN.          DAVID WEBSTER : WITNESSED BY
CLNT.                A2DTECH : CLIENT CODE
ORIG.               5" PRINT : ORIGIN OF DATA
UWI .         42177314700000 : UNIQUE WELL ID
DICO. A2D Technologies, Inc. : DIGITIZING COMPANY
~Other -----------------------------------------------------
1. TEMPORARY CURVE RHOB2 CALCULATED FROM DPHISSED [M=2.65, F=1] TO MAKE UPPER PART OF DENWS.
2. TEMPORARY CURVE DPHI2 CALCULATED FROM DEPTH SHIFTED RHOBED [M=2.71, F=1]. REASON: DPHILSED DID NOT WRAP, AND SOME OF ITS HIGH-END VALUES WERE TRUNCATED AT .45 V/V. DPHI2 WAS SPLICED IN TO INCLUDE PLACES WHERE POROSITY VALUES WERE GREATER THAN .45 V/V IN THE LIMESTONE PORTION OF THE WELL.
3. DPOWS WAS COMPUTED FROM DENWS (RHOB2) ABOVE 7000 FEET M=2.71, F=1. LIMESTONE SECTION FROM 7000 FEET DOWN WAS COMPUTED FROM DPHILSED/DPHI2 SPLICE. M=2.71, F=1.
4. NPOWS ABOVE 7000 FEET WAS CONVERTED TO LIMESTONE MATRIX AS FOLLOWS: INPUT = NPHISSED. OUTPUT = NPOWS. COMPANY = SWS. TOOL = CNL(NPHI). INPUT MATRIX: QTZ (4.6) OUTPUT MATRIX = LIME (7.1). BELOW 7000 FEET, NPOWS = NPHILSED.
~ASCII -----------------------------------------------------
# ...
 6750.00000    7.87500    9.63810  894.05460    1.76310    0.10000    2.07000    -999.25    0.35150    0.37430    1.11850    0.10000   84.88780   84.88780    1.11850    1.20340    1.20340    -999.25    0.41040    0.36770    -999.25    1.22240    9.98050   -8.02070    1.22240 3243.52370
 6800.00000    7.87500   12.31570  751.03270    4.44070    0.07870    2.37590    -999.25    0.16610    0.19540    1.33150    0.07870   96.35830   96.35830    1.33150    1.38100    1.38100    -999.25    0.30140    0.25740    -999.25    1.42960   13.38790   -4.79240    1.42960 3293.41330
 6850.00000    7.87500   10.32630  415.47220    2.45130    0.01050    2.49690    -999.25    0.09280    0.12460    2.40690    0.01050   81.73930   81.73930    2.40690    2.45120    2.45120    -999.25    0.21050    0.16690    -999.25    2.62840   17.16720   -1.16560    2.62840 3298.04570
 6900.00000    7.87500   11.61250  476.94000    3.73750    0.03980    2.48830    -999.25    0.09800    0.12960    2.09670    0.03980   89.45160   89.45160    2.09670    2.13530    2.13530    -999.25    0.21740    0.17380    -999.25    2.23070    9.92340   -8.14570    2.23070 3335.02830
 6950.00000    7.87500   11.26530  229.57370    3.39030    0.10280    2.30380    -999.25    0.20980    0.23750    4.35590    0.10280   72.22840   72.22840    4.35590    4.67480    4.67480    -999.25    0.07800    0.03890    -999.25    3.78280    4.55230  -13.25300    3.78280 3357.07180
 7000.00000    7.87500   10.13980  298.17810    2.26480    0.01230    2.50170    0.08990    0.08990    0.12180    3.35370    0.01230   58.17360   58.17360    3.35370    3.44690    3.44690    0.14760    0.14460    0.14760    2.54850    3.65110    7.76690   -9.77470    3.65110 3269.90360
 7050.00000    7.87500   10.14410  261.95840    2.26910    0.01250    2.58720    0.07180    -999.25    0.07180    3.81740    0.01250   61.06660   61.06660    3.81740    3.92350    3.92350    0.13320    -999.25    0.13320    2.61450    4.96440   14.33170   -2.94610    4.96440 3225.62600
 7100.00000    7.87500   11.04160  189.95880    3.16660    0.02270    2.54050    0.09910    -999.25    0.09910    5.26430    0.02270   45.29700   45.29700    5.26430    5.41060    5.41060    0.09620    -999.25    0.09620    2.56830    5.69370   10.19800   -6.75010    5.69370 3264.98100
 7150.00000    7.87500   10.63190   62.79550    2.75690    0.07450    2.13290    0.33750    -999.25    0.33750   15.92470    0.07450   43.53750   43.53750   15.92470   14.79220   14.79220    0.06830    -999.25    0.06830    2.06110   15.76030  -22.26000  -38.59710   15.76030 3268.74710
 7200.00000    7.87500    9.30890   80.78000    1.43390    0.10110    2.39500    0.18420    -999.25    0.18420   12.37930    0.10110   30.28500   30.28500   12.37930   14.59240   14.59240    0.03600    -999.25    0.03600    2.31560   61.82640  -10.46630  -26.19250   61.82640 3424.84200
 7250.00000    7.87500    9.13380  276.23550    1.25880    0.03340    2.57460    0.07920    -999.25    0.07920    3.62010    0.03340   59.34550   59.34550    3.62010    4.91930    4.91930    0.06940    -999.25    0.06940    2.64360    7.15810   -1.34610  -16.46130    7.15810 3383.41460
 7300.00000    7.87500    9.26770  129.51690    1.39270   -0.00020    2.68110    0.05560    -999.25    0.01690    7.72100   -0.00020   28.87400   28.87400    7.72100    9.64510    9.64510    0.01720    -999.25    0.01720    2.62210   47.76830  -10.08230  -24.58650   47.76830 3308.91530
 7350.00000    7.87500    9.68870  101.83400    1.81370    0.02720    2.63950    0.04120    -999.25    0.04120    9.81990    0.02720   29.34920   29.34920    9.81990    8.93090    8.93090    0.04040    -999.25    0.04040    2.61420    8.80030  -25.71910  -39.61230    8.80030 3315.56860
 7400.00000    7.87500    9.24270  190.32760    1.36770   -0.02000    2.58890    0.07080    -999.25    0.07080    5.25410   -0.02000   32.89560   32.89560    5.25410    4.93700    4.93700    0.05690    -999.25    0.05690    2.56820    6.16520  -17.00150  -30.28370    6.16520 3325.36430
 7450.00000    7.87500    8.80100  179.17290    0.92600    0.01700    2.62550    0.04940    -999.25    0.04940    5.58120    0.01700   33.41580   33.41580    5.58120    5.33680    5.33680    0.06990    -999.25    0.06990    2.58500    5.80190  -23.81530  -36.48650    5.80190 3313.40480
 7500.00000    7.87500    8.95950  157.39360    1.08450    0.00440    2.61420    0.05600    -999.25    0.05600    6.35350    0.00440   39.97450   39.97450    6.35350    6.18170    6.18170    0.09350    -999.25    0.09350    2.59360    6.90490  -14.09960  -26.15990    6.90490 3376.72970
 7550.00000    7.87500    9.14330  103.15660    1.26830    0.00970    2.52720    0.10690    -999.25    0.10690    9.69400    0.00970   65.82150   65.82150    9.69400    8.47190    8.47190    0.20500    -999.25    0.20500    2.51170   12.26540    9.73850   -1.71080   12.26540 3389.07010
 7600.00000    7.87500    8.99640  106.40110    1.12140    0.00690    2.66910    0.02390    -999.25    0.02390    9.39840    0.00690   24.50490   24.50490    9.39840   11.05330   11.05330    0.02140    -999.25    0.02140    2.66800   25.71320  -14.20930  -25.40200   25.71320 3372.12570
 7650.00000    7.87500    8.39700   24.16080    0.52200    0.03540    2.70280    0.00420    -999.25    0.00420   41.38930    0.03540   20.32020   20.32020   41.38930   28.01890   28.01890    0.01750    -999.25    0.01750    2.65660   63.25780  -23.65170  -34.84440   63.25780 3403.07890
 7700.00000    7.87500    8.21700   53.52920    0.34200    0.01470    2.69220    0.01040    -999.25    0.01040   18.68140    0.01470    -999.25    -999.25   18.68140   17.49360   17.49360    0.03400    -999.25    0.03400    2.68810   28.10820   -4.29410  -15.48680   28.10820 3417.31690
 7750.00000    -999.25    -999.25    -999.25    -999.25    -999.25    -999.25    -999.25    -999.25    -999.25    -999.25    -999.25    -999.25    -999.25    -999.25    -999.25    -999.25    -999.25    -999.25    -999.25    -999.25    -999.25    -999.25    -999.25    -999.25 2499.20780
