~Version ---------------------------------------------------
VERS. 2.0 : CWLS log ASCII Standard -VERSION 2.0
WRAP. YES : Multiple lines per depth step
~Well ------------------------------------------------------
STRT.FT                   2500.0 : START DEPTH
STOP.FT                  17250.0 : STOP DEPTH
STEP.FT                 50.00000 : STEP LENGTH
NULL.                    -999.25 : NULL VALUE
COMP. CHAMPLIN PETROLEUM COMPANY : COMPANY
WELL.    FRIAR RANCH GAS UNIT #1 : WELL
FLD .                    WILDCAT : FIELD
LOC .                            : LOCATION
CNTY.                    DE WITT : COUNTY
STAT.                      TEXAS : STATE
CTRY.   UNITED STATES OF AMERICA : COUNTRY
SRVC.                    Unknown : SERVICE COMPANY
DATE.                27-Nov-1979 : LOGDATE
API .             42123309830000 : API NUMBER
UWI .             42123309830000 : UNIQUE WELL ID
SLAT.WGS84           29.12059862 : SURFACE LATITUDE
SLON.WGS84          -97.21043026 : SURFACE LONGITUDE
~Curve Information -----------------------------------------
DEPT    .FT    : DEPTH FEET
ACED    .US/F  : DELTA TIME (ACOUSTIC) FROM SONIC LOG [DEP ADJ TO DTED]
CALDED  .IN    : CALIPER FROM DENSITY LOG [DEP ADJ TO GRRED]
CALRED  .IN    : CALIPER FROM RESISTIVITY LOG
CALWS   .IN    : CALIPER [CALDED]
CONDWS  .MMHO  : CONDUCTIVITY [1000/DRESWS]
CORRED  .G/C3  : DENSITY CORRECTION FROM DENSITY LOG
DCORWS  .G/C3  : DENSITY CORRECTION [CORRED]
DENWS   .G/C3  : BULK DENSITY [M=2.71 F=1.0] [RHOBED]
DPHILSED.V/V   : DENSITY POROSITY [M=2.71 F=1.0] FROM DENSITY LOG [DEP ADJ TO GRRED]
DPHISSED.V/V   : DENSITY POROSITY [M=2.65 F=1.0][7100-10800F M=2.68] FROM DENSITY LOG
DPOLSWS .V/V   : DENSITY POROSITY [M=2.71 F=1.0] [CAL FR DENWS]
DRESWS  .OHMM  : DEEP RESISTIVITY [ILDED]
DTED    .US/F  : DELTA TIME FROM SONIC LOG
DTWS    .US/F  : DELTA TIME [2490 DTED 15878 ACED]
GRDED   .GAPI  : GAMMA RAY FROM DENSITY LOG [DEP ADJ TO GRRED]
GRRED   .GAPI  : GAMMA RAY FROM RESISTIVITY LOG
GRWS    .GAPI  : GAMMA RAY [2490 GRDED 17231 GRRED]
ILDED   .OHMM  : INDUCTION LOG DEEP RESISTIVITY
ILMED   .OHMM  : INDUCTION LOG MEDIUM RESISTIVITY
MRESWS  .OHMM  : MEDIUM RESISTIVITY [ILMED]
NPHILSED.V/V   : NEUTRON POROSITY LIMESTONE FROM DENSITY LOG [DEP ADJ TO GRRED]
NPHISSED.V/V   : NEUTRON POROSITY SANDSTONE FROM DENSITY LOG
NPOLSWS .V/V   : NEUTRON POROSITY LIMESTONE [2490 NPOLSCAL 14943 NPHILSED] [NPHISSED WAS CONVERTED TO NPOLSCAL USING POWERLOG MODULE]
RHOBED  .G/C3  : BULK DENSITY FROM DENSITY LOG [DEP ADJ TO GRRED]
SFLED   .OHMM  : SPHERICALLY FOCUSED LOG RESISTIVITY
SPHILSED.V/V   : SONIC POROSITY FROM SONIC LOG [DEP ADJ TO DTED] [LIMESTONE M=47.5, F=189]
SPOWS   .V/V   : SONIC POROSITY [CAL FR DTWS] [LIMESTONE M=47.5, F=189]
SPRED   .MV    : SPONTANEOUS POTENTIAL FROM RESISTIVITY LOG [SHIFTS ARE REMOVED]
SPWS    .MV    : SPONTANEOUS POTENTIAL [BASELINE 0 MV] [SPRED]
SRESWS  .OHMM  : SHALLOW RESISTIVITY [SFLED]
~Params ----------------------------------------------------
PD  .                     GL : PERMANENT DATUM
EPD .FT                223.8 : ELEVATION PERMANENT DATUM
LMF .                     KB : LOG MEASURED FROM
DAPD.FT                   26 : FEET ABOVE PERMANENT DATUM
DMF .                     KB : DRILLING MEASURED FROM
EKB .FT                249.8 : KELLY BUSHING
EDF .FT                248.8 : DRILLING FLOOR
EGL .FT                223.8 : GROUND LEVEL
DATE.               11/27/79 : RUN DATE
RUN .                      1 : RUN NUMBER
DD  .FT                17252 : DEPTH DRILLER
DL  .FT                17259 : DEPTH LOGGER
BLI .FT                17258 : BOTTOM LOG INTERVAL
TLI .FT                15013 : TOP LOG INTERVAL
CS  .IN                    7 : CASING SIZE
CBD .FT                15015 : CASING BOTTOM DRILLER
CBL .FT                15018 : CASING BOTTOM LOGGER
BS  .IN                5.875 : BIT SIZE
BSD .FT                17252 : BIT SIZE AT DEPTH
DFT .               OIL FAZE : DRILLING FLUID TYPE
DFD .                   12.8 : DRILLING FLUID DENSITY
DFV .                     45 : DRILLING FLUID VISCOSITY
DFL .                   13.6 : DRILLING FLUID LOSS
TCS .HRS                 545 : TIME CIRCULATED STOPPED
TLAB.HRS                1500 : TIME LOGGER AT BOTTOM
LUN .                   8011 : LOGGING UNIT NUMBER
LUL .                   VICT : LOGGING UNIT LOCATION
ENGI.                   SHEA : RECORDING ENGINEER
WITN.            BLANKENSHIP : WITNESSED BY
CLNT.                A2DTECH : CLIENT CODE
ORIG.            1" 5" PRINT : ORIGIN OF DATA
UWI .         42123309830000 : UNIQUE WELL ID
DICO. A2D Technologies, Inc. : DIGITIZING COMPANY
~Other -----------------------------------------------------
~ASCII -----------------------------------------------------
# ...
 14500.00000    -999.25   11.59190    -999.25   11.59190  632.23110   -0.00620   -0.00620    2.60760    -999.25    0.02630    0.05990    1.58170   83.65540   83.65540   69.71030    -999.25   69.71030    1.58170    1.50810    1.50810    -999.25    0.20820    0.16470    2.60760    1.85650    -999.25    0.25550  -20.51180   -1.30980    1.85650
 14550.00000    -999.25   11.55260    -999.25   11.55260  338.61570    0.00350    0.00350    2.64310    -999.25    0.00780    0.03910    2.95320   74.94750   74.94750   57.89020    -999.25   57.89020    2.95320    2.84600    2.84600    -999.25    0.18150    0.13830    2.64310    3.58880    -999.25    0.19400  -21.47540   -2.22120    3.58880
 14600.00000    -999.25   11.56750    -999.25   11.56750  199.28260    0.01220    0.01220    2.66190    -999.25   -0.00640    0.02810    5.01800   69.91040   69.91040   40.69920    -999.25   40.69920    5.01800    4.66800    4.66800    -999.25    0.12460    0.08230    2.66190    6.37280    -999.25    0.15840  -21.86050   -2.55400    6.37280
 14650.00000    -999.25   11.07620    -999.25   11.07620  142.11410    0.00080    0.00080    2.63250    -999.25    0.01260    0.04530    7.03660   66.95360   66.95360   49.61670    -999.25   49.61670    7.03660    6.54660    6.54660    -999.25    0.08230    0.04260    2.63250   10.19110    -999.25    0.13750  -21.70750   -2.34880   10.19110
 14700.00000    -999.25   11.45390    -999.25   11.45390  585.85740   -0.00130   -0.00130    2.61590    -999.25    0.02040    0.05500    1.70690   83.99440   83.99440   76.27750    -999.25   76.27750    1.70690    1.68080    1.68080    -999.25    0.19890    0.15550    2.61590    2.15810    -999.25    0.25790  -20.76140   -1.35050    2.15810
 14750.00000    -999.25   11.96570    -999.25   11.96570  366.93210    0.00700    0.00700    2.62160    -999.25    0.01330    0.05170    2.72530   76.24290   76.24290   59.55360    -999.25   59.55360    2.72530    2.56500    2.56500    -999.25    0.17410    0.13110    2.62160    3.08880    -999.25    0.20310  -20.97360   -1.51050    3.08880
 14800.00000    -999.25   12.08160    -999.25   12.08160  320.84190   -0.02750   -0.02750    2.42630    -999.25    0.13600    0.16590    3.11680   74.43120   74.43120   58.79320    -999.25   58.79320    3.11680    2.92250    2.92250    -999.25    0.16650    0.12360    2.42630    3.74020    -999.25    0.19030  -21.76290   -2.24760    3.74020
 14850.00000    -999.25   11.62360    -999.25   11.62360  709.47140    0.01790    0.01790    2.60930    -999.25    0.02370    0.05890    1.40950   90.48160   90.48160   77.59560    -999.25   77.59560    1.40950    1.35760    1.35760    -999.25    0.23190    0.18810    2.60930    1.77890    -999.25    0.30380  -20.65120   -1.08840    1.77890
 14900.00000    -999.25   11.33310    -999.25   11.33310  711.13640    0.03070    0.03070    2.62410    -999.25    0.01600    0.05020    1.40620   90.73350   90.73350   79.17060    -999.25   79.17060    1.40620    1.31270    1.31270    -999.25    0.23320    0.18940    2.62410    1.78140    -999.25    0.30550  -22.25130   -2.68850    1.78140
 14950.00000    -999.25   10.16240    -999.25   10.16240  708.91820    0.01060    0.01060    2.58460    0.07720    -999.25    0.07330    1.41060   88.61540   88.61540   76.69240    -999.25   76.69240    1.41060    1.35430    1.35430    0.19610    -999.25    0.19610    2.58460    1.76590    -999.25    0.29060  -23.49480   -3.93200    1.76590
 15000.00000    -999.25    8.99860    -999.25    8.99860  147.27320    0.01110    0.01110    2.64920    0.03400    -999.25    0.03560    6.79010   85.30840   85.30840   56.40680   18.97180   56.40680    6.79010    6.26740    6.26740    0.04890    -999.25    0.04890    2.64920    9.90250    -999.25    0.26720  -25.85780   -6.29500    9.90250
 15050.00000   62.45040    6.75120    6.75330    6.75120  136.26580    0.23110    0.23110    2.70820   -0.00070    -999.25    0.00110    7.33860   67.67010   67.67010   16.06250   25.75050   16.06250    7.33860    8.23360    8.23360    0.05380    -999.25    0.05380    2.70820    -999.25    0.11550    0.14250    -999.25    -999.25    -999.25
 15100.00000   65.42880    6.76860    6.74930    6.76860  109.84420    0.22710    0.22710    2.68380    0.01620    -999.25    0.01530    9.10380   65.95820   65.95820   29.01170   40.43270   29.01170    9.10380    9.48620    9.48620    0.07260    -999.25    0.07260    2.68380    -999.25    0.13580    0.13040    -999.25    -999.25    -999.25
 15150.00000   58.18920    6.76960    6.75020    6.76960   50.68350    0.21870    0.21870    2.68390    0.01560    -999.25    0.01530   19.73030   59.27710   59.27710   14.20470   17.57380   14.20470   19.73030   20.52550   20.52550    0.04860    -999.25    0.04860    2.68390    -999.25    0.08450    0.08320    -999.25    -999.25    -999.25
 15200.00000   60.47630    6.78930    6.75060    6.78930   96.31870    0.21240    0.21240    2.65230    0.03680    -999.25    0.03370   10.38220   64.44280   64.44280   21.80700   33.72950   21.80700   10.38220   10.53990   10.53990    0.07400    -999.25    0.07400    2.65230    -999.25    0.10340    0.11970    -999.25    -999.25    -999.25
 15250.00000   66.35450    6.79180    6.77580    6.79180  121.79230    0.23480    0.23480    2.71100    0.00020    -999.25   -0.00060    8.21070   67.70560   67.70560   22.86430   31.30650   22.86430    8.21070    7.69870    7.69870    0.07900    -999.25    0.07900    2.71100    -999.25    0.14410    0.14280    -999.25    -999.25    -999.25
 15300.00000   56.60000    7.03200    6.90800    7.03200   21.91450    0.25760    0.25760    2.72600   -0.01090    -999.25   -0.00940   45.63180   55.85810   55.85810   14.83200   10.20790   14.83200   45.63180   38.58420   38.58420    0.03790    -999.25    0.03790    2.72600    -999.25    0.07470    0.05910    -999.25    -999.25    -999.25
 15350.00000   59.72090    7.02660    6.89870    7.02660   20.59450    0.20980    0.20980    2.60130    0.06170    -999.25    0.06360   48.55670   60.57040   60.57040   21.06190   27.22960   21.06190   48.55670   31.41670   31.41670    0.04720    -999.25    0.04720    2.60130    -999.25    0.09600    0.09240    -999.25    -999.25    -999.25
 15400.00000   57.51240    7.06190    6.90780    7.06190   29.68630    0.21450    0.21450    2.64350    0.03780    -999.25    0.03890   33.68560   59.57940   59.57940   20.39050   22.46850   20.39050   33.68560   29.70560   29.70560    0.04360    -999.25    0.04360    2.64350    -999.25    0.07720    0.08540    -999.25    -999.25    -999.25
 15450.00000   91.47040    7.06980    6.96930    7.06980  296.65670    0.22930    0.22930    2.60380    0.06170    -999.25    0.06210    3.37090   92.18600   92.18600   50.39750   61.29360   50.39750    3.37090    3.24200    3.24200    0.16270    -999.25    0.16270    2.60380    -999.25    0.31600    0.31580    -999.25    -999.25    -999.25
 15500.00000   83.33850    7.07690    6.98560    7.07690  208.79440    0.22110    0.22110    2.63510    0.04670    -999.25    0.04380    4.78940   84.82630   84.82630   21.81420   31.51350   21.81420    4.78940    5.14450    5.14450    0.12460    -999.25    0.12460    2.63510    -999.25    0.26050    0.26380    -999.25    -999.25    -999.25
 15550.00000   80.07210    7.11810    7.11980    7.11810  198.51120    0.23970    0.23970    2.68180    0.01710    -999.25    0.01650    5.03750   82.31440   82.31440   27.43590   33.43540   27.43590    5.03750    5.21320    5.21320    0.14690    -999.25    0.14690    2.68180    -999.25    0.23930    0.24600    -999.25    -999.25    -999.25
 15600.00000   71.71310    7.10440    7.26970    7.10440  153.36480    0.22970    0.22970    2.71070   -0.00110    -999.25   -0.00040    6.52040   73.56030   73.56030   25.09430   31.46940   25.09430    6.52040    6.87290    6.87290    0.12860    -999.25    0.12860    2.71070    -999.25    0.17920    0.18420    -999.25    -999.25    -999.25
 15650.00000   90.53680    7.32070    7.26220    7.32070  427.13140    0.24380    0.24380    2.66530    0.02480    -999.25    0.02610    2.34120   90.97510   90.97510   42.03080   62.51400   42.03080    2.34120    2.37890    2.37890    0.25690    -999.25    0.25690    2.66530    -999.25    0.31100    0.30720    -999.25    -999.25    -999.25
