~Version ---------------------------------------------------
VERS. 2.0 : CWLS log ASCII Standard -VERSION 2.0
WRAP. YES : Multiple lines per depth step
~Well ------------------------------------------------------
STRT.FT                   4000.0 : START DEPTH
STOP.FT                   8600.0 : STOP DEPTH
STEP.FT                 50.00000 : STEP LENGTH
NULL.                    -999.25 : NULL VALUE
COMP. CHAMPLIN PETROLEUM COMPANY : COMPANY
WELL.           JOE J MAREK #A-1 : WELL
FLD .                   GIDDINGS : FIELD
LOC .                            : LOCATION
CNTY.                   BURLESON : COUNTY
STAT.                      TEXAS : STATE
CTRY.   UNITED STATES OF AMERICA : COUNTRY
SRVC.               Schlumberger : SERVICE COMPANY
DATE.                23-Sep-1980 : LOGDATE
API .             42051309940000 : API NUMBER
UWI .             42051309940000 : UNIQUE WELL ID
SLAT.WGS84             30.425386 : SURFACE LATITUDE
SLON.WGS84            -96.678468 : SURFACE LONGITUDE
~Curve Information -----------------------------------------
DEPT    .FT    : DEPTH FEET
CALWS   .IN    : CALIPER [DCALED + BITS]
CONDWS  .MMHO  : CONDUCTIVITY [1000/DRESWS]
DCALED  .IN    : DIFFERENTIAL CALIPER FROM DISFL-CNFD LOG
DCORWS  .G/C3  : DENSITY CORRECTION [DRHOED]
DENWS   .G/C3  : FORMATION BULK DENSITY [CALCULATED FROM DPOWS, M=2.71, F=1.0]
DPHILSED.V/V   : DENSITY POROSITY LIMESTONE [M=2.71, F=1.0] FROM DISFL-CNFD LOG
DPHISSED.V/V   : DENSITY POROSITY SANDSTONE [M=2.65, F=1.0] FROM DISFL-CNFD LOG
DPOWS   .V/V   : DENSITY POROSITY LIMESTONE [DPHISSED CONVERTED TO LIMESTONE ([M=2.71, F=1.0) & SPLICED WITH DPHILSED @ 6774']
DRESWS  .OHMM  : DEEP RESISTIVITY [ILDED]
DRHOED  .G/C3  : BULK DENSITY CORRECTION FROM DISFL-CNFD LOG
GRRED   .GAPI  : GAMMA RAY FROM DISFL-CNFD LOG
GRWS    .GAPI  : GAMMA RAY [GRRED]
ILDED   .OHMM  : DEEP INDUCTION FROM DISFL-CNFD LOG
ILMED   .OHMM  : MEDIUM INDUCTION FROM DISFL-CNFD LOG
MRESWS  .OHMM  : MEDIUM RESISTIVITY [ILMED]
NPHILSED.V/V   : NEUTRON POROSITY LIMESTONE FROM DISFL-CNFD LOG
NPHISSED.V/V   : NEUTRON POROSITY SANDSTONE FROM DISFL-CNFD LOG
NPOWS   .V/V   : NEUTRON POROSITY LIMESTONE [NPHISSED CONVERTED TO LIMESTONE MATRIX & SPLICED WITH NPHILSED @ 6769']
SFLUED  .OHMM  : SHALLOW FOCUSED INDUCTION (UNAVERAGED) FROM DISFL-CNFD LOG
SPRED   .MV    : SPONTANEOUS POTENTIAL FROM DISFL-CNFD LOG
SPWS    .MV    : SPONTANEOUS POTENTIAL [BASELINE 0 MV, SPRED]
SRESWS  .OHMM  : SHALLOW RESISTIVITY [SFLUED]
~Params ----------------------------------------------------
PD  .                     GL : PERMANENT DATUM
EPD .FT                  348 : ELEVATION PERMANENT DATUM
LMF .                     KB : LOG MEASURED FROM
DAPD.FT                   18 : FEET ABOVE PERMANENT DATUM
DMF .                     KB : DRILLING MEASURED FROM
EKB .FT                  348 : KELLY BUSHING
EDF .FT                  347 : DRILLING FLOOR
EGL .FT                  330 : GROUND LEVEL
DATE.               09/23/80 : RUN DATE
RUN .                      1 : RUN NUMBER
DD  .FT                 8621 : DEPTH DRILLER
DL  .FT                 8617 : DEPTH LOGGER
BLI .FT                 8611 : BOTTOM LOG INTERVAL
TLI .FT                 4018 : TOP LOG INTERVAL
CS  .IN                9.625 : CASING SIZE
CBD .FT                 4021 : CASING BOTTOM DRILLER
CBL .FT                 4018 : CASING BOTTOM LOGGER
BS  .IN                 8.75 : BIT SIZE
BSD .FT                 8621 : BIT SIZE AT DEPTH
DFT .                  BENEX : DRILLING FLUID TYPE
DFD .                    9.5 : DRILLING FLUID DENSITY
DFV .                     40 : DRILLING FLUID VISCOSITY
DFPH.                    9.5 : DRILLING FLUID PH
DFL .                      7 : DRILLING FLUID LOSS
MSS .                   TANK : MUD SAMPLE SOURCE
RMS .OHMM                1.7 : RESISTIVITY MUD SAMPLE
MST .DEGF                110 : MUD SAMPLE TEMPERATURE
RMF .OHMM               1.28 : RESISTIVITY MUD FILTRATE SAMPLE
MFST.DEGF                110 : MUD FILTRATE SAMPLE TEMPERATURE
RMC .OHMM               2.56 : RESISTIVITY MUD CAKE
MCST.DEGF                110 : MUD CAKE SAMPLE TEMPERATURE
MFSS.                      M : MUD FILTRATE SAMPLE SOURCE
MCSS.                      C : MUD CAKE SAMPLE SOURCE
RMB .OHMM               0.91 : RESISTIVITY MUD AT BHT
TCS .HRS                2000 : TIME CIRCULATED STOPPED
TLAB.HRS                 100 : TIME LOGGER AT BOTTOM
LUN .                   8141 : LOGGING UNIT NUMBER
LUL .                LRENHAM : LOGGING UNIT LOCATION
ENGI.              GILLILAND : RECORDING ENGINEER
WITN.                 SCHELL : WITNESSED BY
CLNT.                A2DTECH : CLIENT CODE
ORIG.          1" 2.5" PRINT : ORIGIN OF DATA
UWI .         42051309940000 : UNIQUE WELL ID
DICO. A2D Technologies, Inc. : DIGITIZING COMPANY
~Other -----------------------------------------------------
~ASCII -----------------------------------------------------
# ...
 5600.00000   12.45420 1114.45450    3.70420    0.03980    2.43450    -999.25    0.13060    0.16110    0.89730    0.03980  107.38060  107.38060    0.89730    0.91700    0.91700    -999.25    0.36550    0.32210    1.21730  -14.17580   -1.89280    1.21730
 5650.00000   12.23250  968.05420    3.48250    0.04210    2.47640    -999.25    0.10520    0.13660    1.03300    0.04210  107.45770  107.45770    1.03300    1.06650    1.06650    -999.25    0.36490    0.32140    1.26080  -12.14980   -1.60330    1.26080
 5700.00000   12.36800  814.39860    3.61800    0.07880    2.53050    -999.25    0.07240    0.10490    1.22790    0.07880  100.00360  100.00360    1.22790    1.27200    1.27200    -999.25    0.30970    0.26580    1.62690  -15.05560   -1.74760    1.62690
 5750.00000   10.95550 1130.71010    2.20550    0.10920    2.26010    -999.25    0.23630    0.26310    0.88440    0.10920  101.82160  101.82160    0.88440    0.91090    0.91090    -999.25    0.41140    0.36880    1.20690  -17.89970   -4.89320    1.20690
 5800.00000   10.58760 1007.65820    1.83760    0.16200    2.31040    -999.25    0.20580    0.23370    0.99240    0.16200   99.38310   99.38310    0.99240    1.01420    1.01420    -999.25    0.42870    0.38650    1.31160  -17.78220   -5.07720    1.31160
 5850.00000   11.23370  999.60020    2.48370    0.10690    2.33830    -999.25    0.18890    0.21740    1.00040    0.10690   99.37240   99.37240    1.00040    1.03160    1.03160    -999.25    0.39930    0.35640    1.32050  -20.02430   -7.62080    1.32050
 5900.00000   10.79570  799.61620    2.04570    0.10570    2.44920    -999.25    0.12170    0.15250    1.25060    0.10570  113.72100  113.72100    1.25060    1.28840    1.28840    -999.25    0.37110    0.32770    1.56330  -19.99200   -7.89000    1.56330
 5950.00000   10.52280  632.35110    1.77280    0.06690    2.50450    -999.25    0.08820    0.12020    1.58140    0.06690   83.44550   83.44550    1.58140    1.63020    1.63020    -999.25    0.25750    0.21360    2.07950  -19.22690   -7.42640    2.07950
 6000.00000   10.93560  853.67940    2.18560    0.12040    2.35940    -999.25    0.17610    0.20500    1.17140    0.12040  113.23230  113.23230    1.17140    1.20970    1.20970    -999.25    0.36130    0.31780    1.38710  -13.91590   -2.41690    1.38710
 6050.00000   10.67670  643.62490    1.92670    0.04730    2.45400    -999.25    0.11880    0.14970    1.55370    0.04730   92.48350   92.48350    1.55370    1.58770    1.58770    -999.25    0.29110    0.24710    1.86670  -17.29560   -4.99560    1.86670
 6100.00000   10.25460  552.05920    1.50460    0.03430    2.50910    -999.25    0.08540    0.11750    1.81140    0.03430   88.45460   88.45460    1.81140    1.85120    1.85120    -999.25    0.27310    0.22910    2.19290  -16.41170   -2.71720    2.19290
 6150.00000   11.48360  859.91920    2.73360    0.10730    2.36440    -999.25    0.17310    0.20210    1.16290    0.10730  124.76910  124.76910    1.16290    1.18460    1.18460    -999.25    0.34070    0.29700    1.38980  -17.33060   -2.24160    1.38980
 6200.00000   12.32740  787.33960    3.57740    0.08440    2.34520    -999.25    0.18470    0.21330    1.27010    0.08440  121.38560  121.38560    1.27010    1.29800    1.29800    -999.25    0.36190    0.31840    1.50120  -14.66430   -0.92350    1.50120
 6250.00000   13.63790  670.42100    4.88790    0.11430    2.39210    -999.25    0.15630    0.18590    1.49160    0.11430  115.47170  115.47170    1.49160    1.52850    1.52850    -999.25    0.34490    0.30120    1.80560  -20.72610   -8.44320    1.80560
 6300.00000   13.18030  874.58460    4.43030    0.08800    2.29010    -999.25    0.21810    0.24550    1.14340    0.08800  106.81810  106.81810    1.14340    1.16860    1.16860    -999.25    0.43170    0.38950    1.39280  -16.46300   -4.61390    1.39280
 6350.00000   12.49270 1089.20600    3.74270    0.10280    2.32630    -999.25    0.19620    0.22440    0.91810    0.10280  120.92250  120.92250    0.91810    0.97990    0.97990    -999.25    0.42680    0.38450    1.17760  -13.75610   -2.34090    1.17760
 6400.00000   11.68750  667.69050    2.93750    0.12700    2.41310    -999.25    0.14360    0.17360    1.49770    0.12700  112.59850  112.59850    1.49770    1.53720    1.53720    -999.25    0.32920    0.28540    1.87880  -15.13510   -4.15370    1.87880
 6450.00000   10.48610  571.91880    1.73610    0.10560    2.51730    -999.25    0.08040    0.11270    1.74850    0.10560   98.72460   98.72460    1.74850    1.88030    1.88030    -999.25    0.24260    0.19870    2.47850  -14.82360   -4.27600    2.47850
 6500.00000   10.24710  547.22560    1.49710    0.12170    2.53350    -999.25    0.07060    0.10320    1.82740    0.12170  103.04040  103.04040    1.82740    1.86730    1.86730    -999.25    0.28620    0.24220    2.30450  -13.85930   -3.98050    2.30450
 6550.00000   11.08700  505.58670    2.33700    0.07260    2.39490    -999.25    0.15460    0.18430    1.97790    0.07260  108.09870  108.09870    1.97790    2.03020    2.03020    -999.25    0.36830    0.32490    2.47730  -16.12970   -7.00230    2.47730
 6600.00000   11.40420  682.73370    2.65420    0.15560    2.47230    -999.25    0.10770    0.13900    1.46470    0.15560  105.29310  105.29310    1.46470    1.49690    1.49690    -999.25    0.30360    0.25960    1.87810  -15.84230   -7.46630    1.87810
 6650.00000   11.45520  652.74150    2.70520    0.16420    2.50840    -999.25    0.08580    0.11790    1.53200    0.16420   93.06990   93.06990    1.53200    1.60490    1.60490    -999.25    0.30390    0.25990    2.06520  -14.79870   -7.17410    2.06520
 6700.00000   12.45900  841.68000    3.70900    0.14280    2.40650    -999.25    0.14760    0.17750    1.18810    0.14280  102.63640  102.63640    1.18810    1.24310    1.24310    -999.25    0.35910    0.31560    1.58640  -17.13470  -10.26140    1.58640
 6750.00000   12.24640  686.53030    3.49640    0.21090    2.46140    -999.25    0.11430    0.14540    1.45660    0.21090   92.16950   92.16950    1.45660    1.49780    1.49780    -999.25    0.31020    0.26630    1.91760  -14.70280   -8.58090    1.91760
 6800.00000   10.86640  678.70230    2.11640    0.05090    2.50020    0.12270    -999.25    0.12270    1.47340    0.05090   87.83380   87.83380    1.47340    1.57340    1.57340    0.23410    -999.25    0.23410    1.95820  -11.82380   -6.28820    1.95820
 6850.00000    9.92120  373.53850    1.17120    0.01360    2.60430    0.06180    -999.25    0.06180    2.67710    0.01360   78.64850   78.64850    2.67710    2.74740    2.74740    0.14770    -999.25    0.14770    2.97980   -8.05510   -2.81240    2.97980
 6900.00000    9.67810  277.70840    0.92810    0.01440    2.60190    0.06320    -999.25    0.06320    3.60090    0.01440   61.53700   61.53700    3.60090    3.85770    3.85770    0.09880    -999.25    0.09880    4.74500  -10.94730   -5.99750    4.74500
 6950.00000    9.58140  217.07040    0.83140    0.01330    2.59680    0.06620    -999.25    0.06620    4.60680    0.01330   45.18620   45.18620    4.60680    4.87650    4.87650    0.10600    -999.25    0.10600    6.19650  -15.12970  -10.47280    6.19650
 7000.00000   11.05880  506.94510    2.30880    0.10700    2.60910    0.05900    -999.25    0.05900    1.97260    0.10700   95.52480   95.52480    1.97260    2.02160    2.02160    0.23850    -999.25    0.23850    2.36420  -10.56830   -6.20430    2.36420
 7050.00000   11.36980  546.86650    2.61980    0.09510    2.57900    0.07660    -999.25    0.07660    1.82860    0.09510  102.54680  102.54680    1.82860    1.89950    1.89950    0.23820    -999.25    0.23820    2.36690  -10.84160   -6.77050    2.36690
 7100.00000   10.67120  342.85320    1.92120    0.02870    2.61180    0.05740    -999.25    0.05740    2.91670    0.02870   99.01480   99.01480    2.91670    3.02870    3.02870    0.15520    -999.25    0.15520    4.54440   -8.24020   -4.46200    4.54440
 7150.00000   11.00650  473.91120    2.25650    0.03900    2.55200    0.09240    -999.25    0.09240    2.11010    0.03900   94.52650   94.52650    2.11010    2.19630    2.19630    0.19080    -999.25    0.19080    2.81930   -7.39930   -3.91400    2.81930
