~Version ---------------------------------------------------
VERS. 2.0 : CWLS log ASCII Standard -VERSION 2.0
WRAP. YES : MULTIPLE LINES PER DEPTH STEP
~Well ------------------------------------------------------
STRT.FT                  300.0 : START DEPTH
STOP.FT                18600.0 : STOP DEPTH
STEP.FT               50.00000 : STEP LENGTH
NULL.                  -999.25 : NULL VALUE
COMP.        SHELL OIL COMPANY : COMPANY
WELL. PAWELEK BEN A ET AL A #1 : WELL
FLD .    PERSON AREA (WILDCAT) : FIELD
LOC .                          : LOCATION
CNTY.                   KARNES : COUNTY
STAT.                    TEXAS : STATE
CTRY. UNITED STATES OF AMERICA : COUNTRY
SRVC.             Schlumberger : SERVICE COMPANY
DATE.              22-May-1978 : LOGDATE
API .           42255305980000 : API NUMBER
UWI .           42255305980000 : UNIQUE WELL ID
SLAT.WGS84       29.0241796548 : SURFACE LATITUDE
SLON.WGS84      -97.8796797249 : SURFACE LONGITUDE
~Curve Information -----------------------------------------
DEPT    .FT    : DEPTH FEET
CALDED  .IN    : CALIPER FROM DENSITY LOG [DEP ADJ TO GRSED]
CALMED  .IN    : CALIPER FROM MICROLOG [DEP ADJ TO SFLED]
CALSED  .IN    : CALIPER FROM SONIC LOG
CALWS   .IN    : CALIPER [10 CALDED 4845.5 CALMED 4849 CALDED 17451 CALSED 17577 CALDED]
CONDWS  .MMHO  : CONDUCTIVITY [1000/DRESWS]
DCORWS  .G/C3  : DENSITY CORRECTION [DRHOED]
DENWS   .G/C3  : BULK DENSITY [M=2.71 F=1.0] [RHOBED]
DPHILSED.V/V   : DENSITY POROSITY [M=2.71 F=1.0] FROM DENSITY LOG [DEP ADJ TO GRSED/RHOBED]
DPHISSED.V/V   : DENSITY POROSITY [M=2.65 F=1.0] FROM DENSITY LOG [DEP ADJ TO GRSED/RHOBED]
DPOLSWS .V/V   : DENSITY POROSITY [M=2.71 F=1.0] [CAL FR DENWS]
DRESWS  .OHMM  : DEEP RESISTIVITY [ILDED]
DRHOED  .G/C3  : DENSITY CORRECTION FROM DENSITY LOG [DEP ADJ TO GRSED]
DTED    .US/F  : DELTA TIME FROM SONIC LOG
DTWS    .US/F  : DELTA TIME [DTED]
GRDED   .GAPI  : GAMMA RAY FROM DENSITY LOG
GRRED   .GAPI  : GAMMA RAY FROM RESISTIVITY LOG [DEP ADJ TO GRSED]
GRSED   .GAPI  : GAMMA RAY FROM SONIC LOG
GRWS    .GAPI  : GAMMA RAY [70 GRDED 4800.5 GRDEDNRM [0-100 TO 0-140]4844.5 GRSED 4853.5 GRDED 12903.5 GRSED 12939.5 GRDED 12962 GRSED 17526 GRDED 17550 GRRED 18607 GRDED]
ILDED   .OHMM  : INDUCTION LOG DEEP RESISTIVITY
ILMED   .OHMM  : INDUCTION LOG MEDIUM RESISTIVITY
MRESWS  .OHMM  : MEDIUM RESISTIVITY [ILMED]
NPHILSED.V/V   : NEUTRON POROSITY LISTONE FROM DENSITY LOG [DEP ADJ TO GRSED/RHOBED]
NPHISSED.V/V   : NEUTRON POROSITY SANDSTONE FROM DENSITY LOG [DEP ADJ TO GRSED/RHOBED]
NPOLSWS .V/V   : NEUTRON POROSITY LIMESTONE [10 NPOLSCAL 9446 NPHILSED] [NPHISSED IS CONVERTED TO NPOLSCAL USING POWERLOG MODULE]
PROXED  .OHMM  : PROXIMITY RESISTIVITY FROM MICROLOG [DEP ADJ TO SFLED]
RHOBED  .G/C3  : BULK DENSITY FROM DENSITY LOG [DEP ADJ TO GRSED]
SFLED   .OHMM  : SPHERICALLY FOCUSED LOG RESISTIVITY
SPRED   .MV    : SPONTANEOUS POTENTIAL FROM RESISTIVITY LOG [SHIFTS ARE REMOVED]
SPWS    .MV    : SPONTANEOUS POTENTIAL [BASELINE 0 MV] [SPRED][PL. USE W/ RESERVATIONS]
SRESWS  .OHMM  : SHALLOW RESISTIVITY [SFLED]
TENDED  .LBF   : TENSION FROM DENSITY LOG [DEP ADJ TO GRSED]
~Params ----------------------------------------------------
PD  .                     GL : PERMANENT DATUM
EPD .FT                  335 : ELEVATION PERMANENT DATUM
LMF .                     KB : LOG MEASURED FROM
DAPD.FT                   28 : FEET ABOVE PERMANENT DATUM
DMF .                     KB : DRILLING MEASURED FROM
EKB .FT                  363 : KELLY BUSHING
EDF .FT                  362 : DRILLING FLOOR
EGL .FT                  335 : GROUND LEVEL
DATE.               05/22/78 : RUN DATE
RUN .                      4 : RUN NUMBER
DD  .FT                18626 : DEPTH DRILLER
DL  .FT                18642 : DEPTH LOGGER
BLI .FT                18637 : BOTTOM LOG INTERVAL
TLI .FT                17550 : TOP LOG INTERVAL
CS  .IN                    7 : CASING SIZE
CBD .FT                17544 : CASING BOTTOM DRILLER
CBL .FT                17550 : CASING BOTTOM LOGGER
BS  .IN                    6 : BIT SIZE
BSD .FT                18626 : BIT SIZE AT DEPTH
DFT .               INVERMUL : DRILLING FLUID TYPE
DFD .                   17.6 : DRILLING FLUID DENSITY
DFV .                     70 : DRILLING FLUID VISCOSITY
DFL .                      2 : DRILLING FLUID LOSS
LUN .                   7799 : LOGGING UNIT NUMBER
LUL .                  PLEAS : LOGGING UNIT LOCATION
ENGI.             TURBEVILLE : RECORDING ENGINEER
WITN.                JARRELL : WITNESSED BY
CLNT.                A2DTECH : CLIENT CODE
ORIG.            2" 5" PRINT : ORIGIN OF DATA
UWI .         42255305980000 : UNIQUE WELL ID
DICO. A2D Technologies, Inc. : DIGITIZING COMPANY
~Other -----------------------------------------------------
~ASCII -----------------------------------------------------
# ...
 6050.00000   12.28210   11.39840   11.62610   12.28210  872.14370    0.03720    2.23460    -999.25    0.25080    0.27800    1.14660    0.03720   92.45020   92.45020   48.65610    -999.25   56.00060   48.65610    1.14660    1.49090    1.49090    -999.25    0.34740    0.30370    2.04620    2.23460    2.00370  -72.46990  -25.48190    2.00370 9539.83010
 6100.00000   12.03570   11.01100   11.62580   12.03570  947.95710    0.02620    2.20790    -999.25    0.27000    0.29360    1.05490    0.02620   86.01510   86.01510   39.40510    -999.25   40.98570   39.40510    1.05490    1.35990    1.35990    -999.25    0.32540    0.28150    2.91480    2.20790    2.13250  -93.89660  -47.67000    2.13250 9527.35840
 6150.00000   12.07720   10.87170   11.54320   12.07720  792.45590    0.02600    2.21090    -999.25    0.26280    0.29190    1.26190    0.02600   86.52060   86.52060   41.87310    -999.25   47.61780   41.87310    1.26190    1.72280    1.72280    -999.25    0.33510    0.29130    3.78500    2.21090    2.94800  -93.15990  -47.69480    2.94800 9791.86820
 6200.00000   12.04700   10.70790   11.59250   12.04700  692.90470    0.04940    2.29640    -999.25    0.22300    0.24190    1.44320    0.04940   82.12960   82.12960   38.05250    -999.25   42.52070   38.05250    1.44320    2.11720    2.11720    -999.25    0.28120    0.23720    2.81050    2.29640    3.16360  -91.09330  -46.38960    3.16360 9687.97850
 6250.00000   12.26810   11.37450   11.73390   12.26810  559.15900    0.07030    2.33610    -999.25    0.18450    0.21870    1.78840    0.07030   83.42800   83.42800   46.73640    -999.25   54.07240   46.73640    1.78840    2.40390    2.40390    -999.25    0.30460    0.26060    2.89100    2.33610    2.97080  -76.23390  -32.29170    2.97080 9637.56840
 6300.00000   12.28390   11.14730   11.53160   12.28390  746.60290    0.02820    2.24610    -999.25    0.24050    0.27130    1.33940    0.02820   86.10630   86.10630   39.83120    -999.25   45.02240   39.83120    1.33940    1.99190    1.99190    -999.25    0.36940    0.32600    4.73760    2.24610    3.61520  -95.22520  -52.04440    3.61520 9612.81540
 6350.00000   12.77470   11.44990   11.87340   12.77470  624.25870    0.06720    2.28010    -999.25    0.22820    0.25140    1.60190    0.06720   92.87960   92.87960   71.10840    -999.25   81.77910   71.10840    1.60190    1.89630    1.89630    -999.25    0.39930    0.35640    2.34830    2.28010    2.29300  -70.11700  -27.69770    2.29300 9307.19040
 6400.00000   12.22920   10.74390   11.46720   12.22920  889.99650    0.03650    2.21620    -999.25    0.26160    0.28880    1.12360    0.03650   85.19900   85.19900   40.36950    -999.25   45.67900   40.36950    1.12360    1.73430    1.73430    -999.25    0.35610    0.31250    2.63410    2.21620    2.74170 -103.38910  -61.73120    2.74170 9404.20800
 6450.00000   13.70330   13.48780   12.98890   13.70330  891.02730    0.13520    2.09870    -999.25    0.31710    0.35750    1.12230    0.13520   99.49800   99.49800   74.03240    -999.25   76.40680   74.03240    1.12230    1.13040    1.13040    -999.25    0.51980    0.47810    1.29250    2.09870    1.35870  -43.98870   -3.09230    1.35870 9176.51070
 6500.00000   12.00380   11.00740   11.39760   12.00380  769.28990    0.04840    2.28320    -999.25    0.22030    0.24960    1.29990    0.04840   75.43010   75.43010   62.95240    -999.25   63.97550   62.95240    1.29990    1.90520    1.90520    -999.25    0.33720    0.29340    4.03640    2.28320    3.21020  -89.19730  -47.65930    3.21020 9806.23930
 6550.00000   11.94240   10.75500   11.27540   11.94240  378.20050    0.05080    2.42030    -999.25    0.14030    0.16940    2.64410    0.05080   73.68130   73.68130   47.78620    -999.25   50.94440   47.78620    2.64410    4.31950    4.31950    -999.25    0.24450    0.20060    8.53810    2.42030    6.48670  -69.70980  -27.35670    6.48670 9786.48440
 6600.00000   13.68180   12.20920   13.15790   13.68180  912.57530    0.07420    2.20300    -999.25    0.25350    0.29650    1.09580    0.07420  101.59560  101.59560   78.47510    -999.25   74.36470   78.47510    1.09580    1.13180    1.13180    -999.25    0.52780    0.48610    1.25330    2.20300    1.50900  -44.11090   -0.99350    1.50900 9638.22750
 6650.00000   12.08420   10.55880   11.40600   12.08420  877.50090    0.03300    2.20250    -999.25    0.27100    0.29680    1.13960    0.03300   89.25280   89.25280   37.08110    -999.25   45.35250   37.08110    1.13960    1.82790    1.82790    -999.25    0.36970    0.32630    2.90340    2.20250    2.93860 -101.57020  -58.36260    2.93860 9649.47360
 6700.00000   12.23400   10.85770   11.81960   12.23400  564.93980    0.08060    2.30040    -999.25    0.22920    0.23950    1.77010    0.08060   75.84100   75.84100   73.09360    -999.25   74.11400   73.09360    1.77010    2.43000    2.43000    -999.25    0.37110    0.32770    6.48270    2.30040    3.82080  -79.47240  -36.17470    3.82080 9654.73140
 6750.00000   12.43270   10.82040   11.48160   12.43270  466.22220    0.07220    2.26830    -999.25    0.23840    0.25830    2.14490    0.07220   79.01550   79.01550   66.47370    -999.25   76.67530   66.47370    2.14490    2.97230    2.97230    -999.25    0.37190    0.32850    4.11920    2.26830    4.53530  -78.22690  -34.83910    4.53530 9740.93750
 6800.00000   14.43410   12.90600   12.49630   14.43410  607.68110    0.07500    2.24190    -999.25    0.25500    0.27370    1.64560    0.07500   84.44280   84.44280   74.72810    -999.25   80.62420   74.72810    1.64560    1.71730    1.71730    -999.25    0.44550    0.40370    1.96740    2.24190    1.98100  -61.17080  -17.69290    1.98100 9550.58890
 6850.00000   15.58540   13.66470   13.23960   15.58540  673.80900    0.05670    2.06020    -999.25    0.38300    0.38000    1.48410    0.05670   97.08220   97.08220   70.24500    -999.25   76.50390   70.24500    1.48410    1.54700    1.54700    -999.25    0.52330    0.48160    1.23450    2.06020    1.68640  -63.04890  -19.48080    1.68640 9544.48340
 6900.00000   15.80420   13.21420   13.70070   15.80420  732.65440    0.10480    2.12270    -999.25    0.32460    0.34350    1.36490    0.10480   96.84740   96.84740   78.30520    -999.25   84.92540   78.30520    1.36490    1.44960    1.44960    -999.25    0.50510    0.46340    1.84330    2.12270    1.78650  -62.57850  -18.92030    1.78650 9516.95510
 6950.00000   15.57250   12.62830   14.12020   15.57250  654.23620    0.12590    2.12250    -999.25    0.32220    0.34360    1.52850    0.12590   96.37300   96.37300   78.69320    -999.25   83.30050   78.69320    1.52850    1.56010    1.56010    -999.25    0.54130    0.49960    1.46730    2.12250    2.06250  -60.74840  -17.00010    2.06250 9377.41700
 7000.00000   14.57890   12.67140   13.27690   14.57890  761.67270    0.12160    2.14970    -999.25    0.29490    0.32770    1.31290    0.12160   95.88930   95.88930   83.07140    -999.25   93.81540   83.07140    1.31290    1.46060    1.46060    -999.25    0.49490    0.45320    2.09760    2.14970    1.98920  -57.84780  -14.00930    1.98920 9848.51950
 7050.00000   13.79380   12.46670   12.53210   13.79380  770.29730    0.05420    2.00950    -999.25    0.38570    0.40960    1.29820    0.05420   87.68070   87.68070   70.36260    -999.25   73.67490   70.36260    1.29820    1.48610    1.48610    -999.25    0.49660    0.45490    1.74890    2.00950    1.91810  -59.62210  -15.69350    1.91810 9647.20310
 7100.00000   13.05440   11.70500   11.88080   13.05440  305.68890    0.05820    2.29140    -999.25    0.20980    0.24480    3.27130    0.05820   68.99550   68.99550   62.06960    -999.25   67.80950   62.06960    3.27130    4.81120    4.81120    -999.25    0.33840    0.29460   49.47810    2.29140   26.69890  -60.98800  -16.96930   26.69890 9638.93260
 7150.00000   13.83200   12.54670   12.48260   13.83200  526.12190    0.08120    2.19430    -999.25    0.29710    0.30160    1.90070    0.08120   87.93520   87.93520   78.82660    -999.25   92.59770   78.82660    1.90070    2.11210    2.11210    -999.25    0.43680    0.39480    2.31300    2.19430    2.44640  -59.35570  -15.24690    2.44640 9648.82130
