~Version ---------------------------------------------------
VERS. 2.0 : CWLS log ASCII Standard -VERSION 2.0
WRAP. YES : MULTIPLE LINES PER DEPTH STEP
~Well ------------------------------------------------------
STRT.FT                   3300.0 : START DEPTH
STOP.FT                   8250.0 : STOP DEPTH
STEP.FT                 50.00000 : STEP LENGTH
NULL.                    -999.25 : NULL VALUE
COMP. CHAMPLIN EXPLORATION, INC. : COMPANY
WELL.      WILLIE LEHMAN UNIT #1 : WELL
FLD .                   GIDDINGS : FIELD
LOC .                            : LOCATION
CNTY.                    FAYETTE : COUNTY
STAT.                      TEXAS : STATE
CTRY.   UNITED STATES OF AMERICA : COUNTRY
SRVC.               Schlumberger : SERVICE COMPANY
DATE.                15-Mar-1980 : LOGDATE
API .             42149304890000 : API NUMBER
UWI .             42149304890000 : UNIQUE WELL ID
SLAT.WGS84         30.0169410094 : SURFACE LATITUDE
SLON.WGS84        -97.0211316988 : SURFACE LONGITUDE
~Curve Information -----------------------------------------
DEPT    .FT    : DEPTH FEET
CALRED  .IN    : CALIPER FROM RESISTIVITY LOG
CALWS   .IN    : CALIPER [CALRED]
CONDWS  .MMHO  : CONDUCTIVITY [1000/DRESWS]
DCORWS  .G/C3  : DENSITY CORRECTION [DRHOED]
DENWS   .G/C3  : BULK DENSITY [M=2.71 F=1.0] CALCULATED FROM [DPHILSED]
DPHILSED.V/V   : DENSITY POROSITY [M=2.71 F=1.0] FROM DENSITY LOG
DPOWS   .V/V   : DENSITY POROSITY [DPHILSED]
DRESWS  .OHMM  : DEEP RESISTIVITY [ILDED]
DRHOED  .G/C3  : DENSITY CORRECTION FROM DENSITY LOG
GRRED   .GAPI  : GAMMA RAY FROM RESISTIVITY LOG
GRWS    .GAPI  : GAMMA RAY [GRRED]
ILDED   .OHMM  : INDUCTION LOG DEEP RESISTIVITY
ILMED   .OHMM  : INDUCTION LOG MEDIUM RESISTIVITY
MRESWS  .OHMM  : MEDIUM RESISTIVITY [ILMED]
NPHILSED.V/V   : NEUTRON POROSITY LIMESTONE FROM DENSITY LOG
NPOWS   .V/V   : NEUTRON POROSITY LIMESTONE [NPHILSED]
RHOBED  .G/C3  : BULK DENSITY FROM DENSITY LOG
SFLUED  .OHMM  : SPHERICALLY FOCUSED LOG RESISTIVITY
SPRED   .MV    : SPONTANEOUS POTENTIAL FROM RESISTIVITY LOG
SPWS    .MV    : SPONTANEOUS POTENTIAL [BASELINE 0 MV] [SPRED]
SRESWS  .OHMM  : SHALLOW RESISTIVITY [SFLUED]
~Params ----------------------------------------------------
PD  .                     GL : PERMANENT DATUM
EPD .F                   366 : ELEVATION PERMANENT DATUM
LMF .                     KB : LOG MEASURED FROM
DAPD.F                  10.0 : FEET ABOVE PERMANENT DATUM
DMF .                     KB : DRILLING MEASURED FROM
EKB .F                   377 : KELLING BUSHING
EDF .F                   376 : DRILLING FLOOR
EGL .F                   366 : GROUND LEVEL
DATE.            15-MAR-1980 : RUN DATE
RUN .                      1 : RUN NUMBER
DD  .F                  8317 : DEPTH DRILLER
DL  .F                  8290 : DEPTH LOGGER
BLI .F                  8284 : BOTTOM LOG INTERVAL
TLI .F                  3284 : TOP LOG INTERVAL
CS  .IN                8.625 : CASING SIZE
CBD .F                  3300 : CASING BOTTOM DRILLER
CBL .F                  3284 : CASING BOTTOM LOGGER
BS  .IN                7.875 : BIT SIZE
BSD .F                  8317 : BIT SIZE AT DEPTH
DFT .                    LNS : DRILLING FLUID TYPE
DFD .                    9.4 : DRILLING FLUID DENSITY
DFV .                     56 : DRILLING FLUID VISCOSITY
DFPH.                    9.0 : DRILLING FLUID PH
DFL .                    5.0 : DRILLING FLUID LOSS
MSS .              CIRC. PIT : MUD SAMPLE SOURCE
RMS .OHMM                2.1 : RESISTIVITY MUD SAMPLE
MST .F                    75 : MUD SAMPLE TEMPERATURE
RMF .OHMM               1.81 : RESISTIVITY MUD FILTRATE SAMPLE
MFST.F                    75 : MUD FILTRATE SAMPLE TEMPERATURE
RMC .OHMM                3.0 : RESISTIVITY MUD CAKE
MCST.F                    75 : MUD CAKE SAMPLE TEMPERATURE
MFSS.                      M : MUD FILTRATE SAMPLE SOURCE
MCSS.                      C : MUD CAKE SAMPLE SOURCE
RMB .OHMM                0.8 : RESISTIVITY MUD AT BHT
TCS .HRS                2000 : TIME CURCULATED STOPPED
TLAB.HRS                 230 : TIME LOGGER AT BOTTOM
LUN .                   8176 : LOGGING UNIT NUMBER
LUL .                BRENHAM : LOGGING UNIT LOCATION
ENGI.                 WRIGHT : RECORDING ENGINEER
WITN.              ROBERTSON : WITNESSED BY
CLNT.                A2DTECH : CLIENT CODE
ORIG.               5" PRINT : ORIGIN OF DATA
UWI .         42149304890000 : UNIQUE WELL ID
DICO. A2D Technologies, Inc. : DIGITIZING COMPANY
~Other -----------------------------------------------------
~ASCII -----------------------------------------------------
# ...
 6600.00000    9.23240    9.23240  936.15430    -999.25    -999.25    -999.25    -999.25    1.06820    -999.25   92.43090   92.43090    1.06820    1.16720    1.16720    -999.25    -999.25    -999.25    1.25540   -3.60050    4.22120    1.25540
 6650.00000   11.28130   11.28130  815.86030    -999.25    -999.25    -999.25    -999.25    1.22570    -999.25   84.91540   84.91540    1.22570    1.31340    1.31340    -999.25    -999.25    -999.25    1.40860  -10.46140   -1.73560    1.40860
 6700.00000   10.55180   10.55180  745.76780    -999.25    -999.25    -999.25    -999.25    1.34090    -999.25   83.93940   83.93940    1.34090    1.42340    1.42340    -999.25    -999.25    -999.25    1.49040  -11.09890   -1.46900    1.49040
 6750.00000   10.96190   10.96190  685.44790    -999.25    -999.25    -999.25    -999.25    1.45890    -999.25   95.14890   95.14890    1.45890    1.58120    1.58120    -999.25    -999.25    -999.25    1.70170  -12.24750   -1.71350    1.70170
 6800.00000   10.62600   10.62600  752.78530    -999.25    -999.25    -999.25    -999.25    1.32840    -999.25  114.21400  114.21400    1.32840    1.43700    1.43700    -999.25    -999.25    -999.25    1.55790  -13.89880   -2.46060    1.55790
 6850.00000   10.65400   10.65400  609.79330    -999.25    -999.25    -999.25    -999.25    1.63990    -999.25   94.51180   94.51180    1.63990    1.76370    1.76370    -999.25    -999.25    -999.25    1.96130  -11.90620   -0.92510    1.96130
 6900.00000   12.73460   12.73460  746.71440    -999.25    -999.25    -999.25    -999.25    1.33920    -999.25   85.10130   85.10130    1.33920    1.43910    1.43910    -999.25    -999.25    -999.25    1.50880  -16.00850   -5.61920    1.50880
 6950.00000   14.78030   14.78030  828.63780    -999.25    -999.25    -999.25    -999.25    1.20680    -999.25   95.68530   95.68530    1.20680    1.31100    1.31100    -999.25    -999.25    -999.25    1.36610  -16.30180   -6.50420    1.36610
 7000.00000   14.71290   14.71290  723.06580    0.24260    2.45440    0.14950    0.14950    1.38300    0.24260   81.93260   81.93260    1.38300    1.44570    1.44570    0.33460    0.33460    2.45520    1.63270  -18.98070   -9.77480    1.63270
 7050.00000   14.75970   14.75970  575.83780    0.14260    2.29960    0.24000    0.24000    1.73660    0.14260   77.22140   77.22140    1.73660    1.70850    1.70850    0.39620    0.39620    2.30320    1.67980  -14.66250   -6.04840    1.67980
 7100.00000    9.39430    9.39430  266.70220    0.03220    2.58620    0.07240    0.07240    3.74950    0.03220   70.56050   70.56050    3.74950    3.85560    3.85560    0.16490    0.16490    2.58960    4.41760   -8.57310   -0.55070    4.41760
 7150.00000   10.86290   10.86290  400.36830    0.12730    2.50860    0.11780    0.11780    2.49770    0.12730   75.58750   75.58750    2.49770    2.31770    2.31770    0.27070    0.27070    2.50930    2.14290   -9.86290   -2.43230    2.14290
 7200.00000   10.36610   10.36610  457.14290    0.00870    2.53250    0.10380    0.10380    2.18750    0.00870   82.93990   82.93990    2.18750    2.34510    2.34510    0.22900    0.22900    2.53230    2.61560   -6.40320    0.43570    2.61560
 7250.00000    9.84630    9.84630  280.74110    0.02080    2.59630    0.06650    0.06650    3.56200    0.02080   57.50990   57.50990    3.56200    3.86490    3.86490    0.15620    0.15620    2.59270    4.85010   -7.92470   -1.67750    4.85010
 7300.00000   10.83930   10.83930  507.20230    0.18120    2.53420    0.10280    0.10280    1.97160    0.18120   86.85240   86.85240    1.97160    2.10900    2.10900    0.30310    0.30310    2.53380    2.26260   -8.93610   -3.28070    2.26260
 7350.00000   11.41600   11.41600  589.41410    0.15510    2.53460    0.10260    0.10260    1.69660    0.15510   92.39130   92.39130    1.69660    1.80070    1.80070    0.31230    0.31230    2.53510    1.96100   -9.53280   -4.46910    1.96100
 7400.00000    9.69610    9.69610  174.37700    0.03770    2.65070    0.03470    0.03470    5.73470    0.03770   32.67060   32.67060    5.73470    6.08770    6.08770    0.07780    0.07780    2.64560    7.40730  -14.77540   -9.88580    7.40730
 7450.00000   10.29630   10.29630  140.31540    0.03650    2.68140    0.01670    0.01670    7.12680    0.03650   31.73930   31.73930    7.12680    7.32600    7.32600    0.07680    0.07680    2.67870    7.28300  -11.51380   -6.58310    7.28300
 7500.00000    9.95890    9.95890  104.74390    0.00820    2.63730    0.04250    0.04250    9.54710    0.00820   27.19540   27.19540    9.54710   10.20960   10.20960    0.05850    0.05850    2.63780   11.88170  -14.36580   -9.39410   11.88170
 7550.00000    9.77200    9.77200  116.58680    0.00970    2.62720    0.04840    0.04840    8.57730    0.00970   26.49460   26.49460    8.57730    9.78010    9.78010    0.07090    0.07090    2.63040   10.02950  -16.14380  -11.13100   10.02950
 7600.00000    9.81220    9.81220   87.91130    0.08100    2.67290    0.02170    0.02170   11.37510    0.08100   22.04720   22.04720   11.37510   12.44510   12.44510    0.04810    0.04810    2.68160   16.97350  -14.88930   -9.83550   16.97350
 7650.00000    9.07630    9.07630   98.97560    0.04070    2.67240    0.02200    0.02200   10.10350    0.04070   23.90750   23.90750   10.10350   10.76350   10.76350    0.05950    0.05950    2.66950   11.45610  -14.98110   -9.88620   11.45610
 7700.00000    8.75410    8.75410  156.10120    0.05400    2.62230    0.05130    0.05130    6.40610    0.05400   43.23280   43.23280    6.40610    7.00600    7.00600    0.11000    0.11000    2.61670    5.73030   -8.63860   -3.50270    5.73030
 7750.00000    8.95720    8.95720  156.47490    0.01590    2.63720    0.04260    0.04260    6.39080    0.01590   31.66640   31.66640    6.39080    7.12440    7.12440    0.06730    0.06730    2.63320   15.19230   -9.41960   -4.48560   15.19230
 7800.00000    8.93720    8.93720  164.60910    0.02020    2.63700    0.04270    0.04270    6.07500    0.02020   37.29850   37.29850    6.07500    6.45570    6.45570    0.08850    0.08850    2.63330    6.36980   -6.13710   -1.56040    6.36980
 7850.00000    8.58020    8.58020  181.77520    0.05140    2.66010    0.02920    0.02920    5.50130    0.05140   59.97230   59.97230    5.50130    5.51230    5.51230    0.12300    0.12300    2.66490    4.65770   -7.39200   -3.17270    4.65770
 7900.00000    8.18720    8.18720  149.65800    0.02900    2.66720    0.02500    0.02500    6.68190    0.02900   50.84790   50.84790    6.68190    7.01380    7.01380    0.08300    0.08300    2.66890    8.24990   -4.08240   -0.22040    8.24990
 7950.00000    8.10430    8.10430   85.09990    0.06520    2.64600    0.03740    0.03740   11.75090    0.06520   50.13180   50.13180   11.75090   11.55550   11.55550    0.08020    0.08020    2.63810   10.73240  -12.98850   -9.48380   10.73240
 8000.00000    8.03140    8.03140   50.22370    0.04220    2.66840    0.02430    0.02430   19.91090    0.04220   40.94590   40.94590   19.91090   21.32170   21.32170    0.07040    0.07040    2.66410   15.59610  -21.29350  -18.14620   15.59610
 8050.00000    7.79180    7.79180   87.79860    0.12220    2.29940    0.24010    0.24010   11.38970    0.12220   47.77900   47.77900   11.38970   10.23090   10.23090    0.14590    0.14590    2.29940    6.95150  -23.94560  -21.15560    6.95150
 8100.00000    7.73000    7.73000  110.91760    0.02930    2.46510    0.14320    0.14320    9.01570    0.02930   90.97320   90.97320    9.01570    9.33890    9.33890    0.21490    0.21490    2.46430   15.24900    5.02900   -2.31740   15.24900
 8150.00000    7.82640    7.82640  259.45720    0.16760    2.62790    0.04800    0.04800    3.85420    0.16760  115.83800  115.83800    3.85420    3.56960    3.56960    0.28010    0.28010    2.62780    6.20380    1.40390   -9.43420    6.20380
 8200.00000    7.53120    7.53120  103.73440    0.03630    2.70950    0.00030    0.00030    9.64000    0.03630   40.16500   40.16500    9.64000   10.30380   10.30380    0.07710    0.07710    2.70550   12.66420    1.13650   -9.45350   12.66420
