~Version ---------------------------------------------------
VERS. 2.0 : CWLS log ASCII Standard -VERSION 2.0
WRAP. YES : MULTIPLE LINES PER DEPTH STEP
~Well ------------------------------------------------------
STRT.FT                   1650.0 : START DEPTH
STOP.FT                   8150.0 : STOP DEPTH
STEP.FT                 50.00000 : STEP LENGTH
NULL.                    -999.25 : NULL VALUE
COMP. CHAMPLIN PETROLEUM COMPANY : COMPANY
WELL. STEDMAN RANCH BETTY ANN #1 : WELL
FLD .                    WILDCAT : FIELD
LOC .                            : LOCATION
CNTY.                     DIMMIT : COUNTY
STAT.                      TEXAS : STATE
CTRY.   UNITED STATES OF AMERICA : COUNTRY
SRVC.               Schlumberger : SERVICE COMPANY
DATE.                02-May-1978 : LOGDATE
API .             42127316900000 : API NUMBER
UWI .             42127316900000 : UNIQUE WELL ID
SLAT.WGS84         28.2409522221 : SURFACE LATITUDE
SLON.WGS84        -99.9298835912 : SURFACE LONGITUDE
~Curve Information -----------------------------------------
DEPT  .FT    : DEPTH FEET
SPWS  .MV    : SPONTANEOUS POTENTIAL [BASELINE 0 MV] [SPRED.  REVERSED IN SHALLOW SECTION]
CALWS .IN    : CALIPER [CALDED]
DCORWS.G/C3  : DENSITY CORRECTION [CORRED]
GRWS  .GAPI  : GAMMA RAY [GRDED]
SRESWS.OHMM  : SHALLOW RESISTIVITY [LL8ED]
MRESWS.OHMM  : MEDIUM RESISTIVITY [ILMED]
SPRED .MV    : SPONTANEOUS POTENTIAL FROM RESISTIVITY LOG
DTED  .US/F  : DELTA TIME FROM SONIC LOG
LL8ED .OHMM  : 8 INCH LATEROLOG RESISTIVITY
ILDED .OHMM  : INDUCTION LOG DEEP RESISTIVITY
ILMED .OHMM  : INDUCTION LOG MEDIUM RESISTIVITY
NPHIED.V/V   : NEUTRON POROSITY SANDSTONE AND LIMESTONE FROM DENSITY LOG [MATRIX CHANGE AT 5822 TO LIMESTONE] [DEPTH SHIFTED TO RES.]
CALDED.IN    : CALIPER FROM DENSITY LOG [DEPTH SHIFTED TO RES.]
CORRED.G/C3  : DENSITY CORRECTION FROM DENSITY LOG [DEPTH SHIFTED TO RES.]
DRESWS.OHMM  : DEEP RESISTIVITY [ILDED]
GRDED .GAPI  : GAMMA RAY FROM DENSITY LOG [DEPTH SHIFTED TO RES.]
RHOBED.G/C3  : BULK DENSITY FROM DENSITY LOG [DEPTH SHIFTED TO RES.]
CONDWS.MMHO  : CONDUCTIVITY [1000/DRESws]
NPOWS .V/V   : NEUTRON POROSITY SANDSTONE AND LIMESTONE [NPHIED.  MATRIX CHANGE TO LIMESTONE AT 5822]
DENWS .G/C3  : BULK DENSITY [M=2.68 F=1.0 TO 5838 FEET, THEN 2.71, 1 TO TD] [RHOBED]
DPOWS .V/V   : DENSITY POROSITY [M=2.68 F=1.0 TO 5838 FEET, THEN 2.71, 1 TO TD] [CALCULATED FROM DENws]
DTWS  .US/F  : DELTA TIME [DTED]
~Params ----------------------------------------------------
PD  .                     GL : PERMANENT DATUM
EPD .FT                  821 : ELEVATION PERMANENT DATUM
LMF .                     KB : LOG MEASURED FROM
DAPD.FT                  9.7 : FEET ABOVE PERMANENT DATUM
DMF .                     KB : DRILLING MEASURED FROM
EKB .FT                830.7 : KELLY BUSHING
EDF .FT                829.7 : DRILLING FLOOR
EGL .FT                821.0 : GROUND LEVEL
DATE.               05/02/78 : RUN DATE
RUN .                      1 : RUN NUMBER
DD  .FT                 8186 : DEPTH DRILLER
DL  .FT                 8167 : DEPTH LOGGER
BLI .FT                 8166 : BOTTOM LOG INTERVAL
TLI .FT                 1612 : TOP LOG INTERVAL
CS  .IN                8.625 : CASING SIZE
CBD .FT                 1610 : CASING BOTTOM DRILLER
CBL .FT                 1612 : CASING BOTTOM LOGGER
BS  .IN                7.875 : BIT SIZE
BSD .FT                 8186 : BIT SIZE AT DEPTH
DFT .   SPER GEL  SALT WATER : DRILLING FLUID TYPE
DFD .                    9.5 : DRILLING FLUID DENSITY
DFV .                     45 : DRILLING FLUID VISCOSITY
DFPH.                    8.5 : DRILLING FLUID PH
MSS .               FLOWLINE : MUD SAMPLE SOURCE
RMS .OHMM              0.456 : RESISTIVITY MUD SAMPLE
MST .FT                   86 : MUD SAMPLE TEMPERATURE
RMF .OHMM                378 : RESISTIVITY MUD FILTRATE SAMPLE
MFST.FT                   86 : MUD FILTRATE SAMPLE TEMPERATURE
RMC .OHMM               0.41 : RESISTIVITY MUD CAKE
MCST.FT                   86 : MUD CAKE SAMPLE TEMPERATURE
MFSS.                      M : MUD FILTRATE SAMPLE SOURCE
MCSS.                      C : MUD CAKE SAMPLE SOURCE
RMB .OHMM               0.24 : RESISTIVITY MUD AT BHT
TCS .HRS                 100 : TIME CURCULATED STOPPED
TLAB.HRS                 700 : TIME LOGGER AT BOTTOM
LUN .                   7769 : LOGGING UNIT NUMBER
LUL .                 LAREDO : LOGGING UNIT LOCATION
ENGI.                  FOGAL : RECORDING ENGINEER
WITN.                 PONDER : WITNESSED BY
CLNT.                A2DTECH : CLIENT CODE
ORIG.               5" PRINT : ORIGIN OF DATA
UWI .         42127316900000 : UNIQUE WELL ID
DICO. A2D Technologies, Inc. : DIGITIZING COMPANY
~Other -----------------------------------------------------
~ASCII -----------------------------------------------------
# ...
 6450.00000   -9.82180    8.33600    0.00800   23.50050   72.57570   59.02240  -66.70470   59.88020   72.57570   54.67860   59.02240    0.06390    8.33600    0.00800   54.67860   23.50050    2.57810   18.28870    0.06390    2.57810    0.07710   59.88020
 6500.00000   -2.18550    8.50730    0.00990   26.02020   33.58380   20.84290  -59.15510   58.09220   33.58380   23.73100   20.84290    0.05990    8.50730    0.00990   23.73100   26.02020    2.66220   42.13900    0.05990    2.66220    0.02800   58.09220
 6550.00000   -9.11320    8.54030   -0.00760   20.24000   14.37490   14.24360  -66.16950   65.31010   14.37490   22.84540   14.24360    0.07230    8.54030   -0.00760   22.84540   20.24000    2.58950   43.77250    0.07230    2.58950    0.07050   65.31010
 6600.00000   -6.67400    8.46010    0.00860   24.19240   48.91880   31.78520  -63.81710   59.02580   48.91880   30.92240   31.78520    0.04220    8.46010    0.00860   30.92240   24.19240    2.62740   32.33900    0.04220    2.62740    0.04830   59.02580
 6650.00000   -5.52710    8.50410    0.00680   36.14910   56.19390   47.37310  -62.75690   61.22560   56.19390   42.13750   47.37310    0.05350    8.50410    0.00680   42.13750   36.14910    2.62050   23.73180    0.05350    2.62050    0.05230   61.22560
 6700.00000   -2.47700    8.61140    0.00110   52.68390   74.60070   44.12560  -59.73520   60.37770   74.60070   41.65630   44.12560    0.06210    8.61140    0.00110   41.65630   52.68390    2.59350   24.00600    0.06210    2.59350    0.06810   60.37770
 6750.00000  -11.03240    8.55870    0.01960   39.21470  124.69550  148.22180  -67.84650   61.35220  124.69550  156.83840  148.22180    0.07160    8.55870    0.01960  156.83840   39.21470    2.55220    6.37600    0.07160    2.55220    0.09230   61.35220
 6800.00000   -4.56040    8.65480    0.01610   47.37970   43.41940   33.89330  -60.93040   73.30310   43.41940   38.01270   33.89330    0.11810    8.65480    0.01610   38.01270   47.37970    2.53880   26.30700    0.11810    2.53880    0.10010   73.30310
 6850.00000   -3.14940    8.78760    0.01870   41.39910   44.07460   29.89510  -59.07530   73.10140   44.07460   31.96750   29.89510    0.11370    8.78760    0.01870   31.96750   41.39910    2.54930   31.28180    0.11370    2.54930    0.09400   73.10140
 6900.00000   -2.04630    8.75070    0.01270   34.52910   54.30420   38.34110  -57.52820   67.90910   54.30420   35.81110   38.34110    0.07920    8.75070    0.01270   35.81110   34.52910    2.57550   27.92430    0.07920    2.57550    0.07870   67.90910
 6950.00000   -2.65580    8.75350    0.01920   39.75560   35.83660   20.88180  -57.69360   74.09540   35.83660   18.28810   20.88180    0.12200    8.75350    0.01920   18.28810   39.75560    2.52760   54.68040    0.12200    2.52760    0.10670   74.09540
 7000.00000   -3.77500    8.95820    0.00730   66.65010   79.54840   43.41940  -58.82580   81.19320   79.54840   42.53510   43.41940    0.15600    8.95820    0.00730   42.53510   66.65010    2.41840   23.51000    0.15600    2.41840    0.17050   81.19320
 7050.00000   -3.19640    9.30310    0.01140   57.66500   80.87210   56.00650  -58.81900   82.13380   80.87210   55.11490   56.00650    0.15980    9.30310    0.01140   55.11490   57.66500    2.44780   18.14390    0.15980    2.44780    0.15330   82.13380
 7100.00000   -1.56710    9.08500    0.01250   70.52680   44.49450   39.76260  -57.76150   78.88090   44.49450   34.05370   39.76260    0.14820    9.08500    0.01250   34.05370   70.52680    2.45410   29.36540    0.14820    2.45410    0.14960   78.88090
 7150.00000   -7.21780    9.92640    0.13590   14.14910  217.61690  112.72650  -63.05460   51.63440  217.61690  208.42910  112.72650    0.00620    9.92640    0.13590  208.42910   14.14910    2.58160    4.79780    0.00620    2.58160    0.07510   51.63440
 7200.00000  -14.34470    8.55100    0.15590   10.79100  292.66350  708.34960  -67.75530   52.61340  292.66350  139.38740  708.34960    0.00960    8.55100    0.15590  139.38740   10.79100    2.63130    7.17420    0.00960    2.63130    0.04600   52.61340
 7250.00000  -11.78940    8.32290    0.10620   30.84990   60.41010   54.31820  -62.77390   54.41350   60.41010   58.59010   54.31820    0.02860    8.32290    0.10620   58.59010   30.84990    2.73520   17.06770    0.02860    2.73520   -0.01470   54.41350
 7300.00000   -1.64410    9.33310    0.16880   69.41150    7.39200    4.17020  -51.10800   73.99410    7.39200    3.35840    4.17020    0.29580    9.33310    0.16880    3.35840   69.41150    2.42930  297.76080    0.29580    2.42930    0.16420   73.99410
 7350.00000   -1.46850    9.44940    0.12610   64.86030    4.50420    4.91350  -51.09340   71.76170    4.50420    4.59670    4.91350    0.17270    9.44940    0.12610    4.59670   64.86030    2.53180  217.54740    0.17270    2.53180    0.10420   71.76170
 7400.00000   -0.65770   10.10540    0.20560   57.40560    7.20150    6.26850  -50.73410   73.77200    7.20150    6.87030    6.26850    0.17290   10.10540    0.20560    6.87030   57.40560    2.42640  145.55410    0.17290    2.42640    0.16580   73.77200
 7450.00000   -6.77520   11.93440    0.18190   23.59560  106.68950   17.83320  -59.43340   56.79920  106.68950   58.63560   17.83320    0.00340   11.93440    0.18190   58.63560   23.59560    2.54830   17.05450    0.00340    2.54830    0.09460   56.79920
 7500.00000  -22.44490    8.17190    0.01540    9.09540   88.20150  114.04910  -77.68490   56.89860   88.20150  134.19090  114.04910    0.02610    8.17190    0.01540  134.19090    9.09540    2.60020    7.45210    0.02610    2.60020    0.06420   56.89860
 7550.00000  -21.05230   14.44020    0.16660   13.40160  144.32460   33.89330  -78.87410   53.61830  144.32460  264.57210   33.89330    0.00800   14.44020    0.16660  264.57210   13.40160    2.43560    3.77970    0.00800    2.43560    0.16050   53.61830
 7600.00000   -7.24260   12.85580    0.18190   17.40740  309.06940   94.32150  -67.64610   56.80160  309.06940  132.96560   94.32150    0.00430   12.85580    0.18190  132.96560   17.40740    2.44610    7.52070    0.00430    2.44610    0.15430   56.80160
 7650.00000  -21.50770   18.59440    0.21270   13.21270  354.84120   85.60600  -84.49300   56.33680  354.84120  162.74300   85.60600    0.00720   18.59440    0.21270  162.74300   13.21270    2.43630    6.14470    0.00720    2.43630    0.16010   56.33680
 7700.00000  -18.46230   15.46200    0.14880   10.52980  236.99280  111.31120  -84.02940   55.40760  236.99280  188.42290  111.31120    0.01700   15.46200    0.14880  188.42290   10.52980    2.41240    5.30720    0.01700    2.41240    0.17400   55.40760
 7750.00000  -22.68040   18.05760    0.20870   16.30290  147.75970   19.27940  -90.82930   54.21470  147.75970  127.00440   19.27940    0.01040   18.05760    0.20870  127.00440   16.30290    1.97060    7.87370    0.01040    1.97060    0.43240   54.21470
 7800.00000  -17.00890   12.61030    0.14810   26.45980  430.22860 1721.42930  -87.73960   53.40760  430.22860 1703.36950 1721.42930    0.00900   12.61030    0.14810 1703.36950   26.45980    2.12980    0.58710    0.00900    2.12980    0.33930   53.40760
 7850.00000   -5.33370    8.38490   -0.00880   29.99080  955.68080  272.33080  -78.74770   49.64220  955.68080   95.60980  272.33080   -0.00030    8.38490   -0.00880   95.60980   29.99080    2.80050   10.45920   -0.00030    2.80050   -0.05290   49.64220
 7900.00000  -28.30020    8.69260    0.17890   44.66140 1482.66130  290.94970 -105.56580   51.43260 1482.66130 1015.29860  290.94970    0.00400    8.69260    0.17890 1015.29860   44.66140    2.83030    0.98490    0.00400    2.83030   -0.07040   51.43260
 7950.00000   -3.77350    8.39220    0.13940   26.25250   79.54840   52.37410  -84.89070   55.94590   79.54840   59.31620   52.37410    0.02720    8.39220    0.13940   59.31620   26.25250    2.46420   16.85880    0.02720    2.46420    0.14370   55.94590
 8000.00000   -2.86830    7.83670    0.14190   46.05870   14.57400   11.17440  -88.59040   67.02480   14.57400   10.44580   11.17440    0.08230    7.83670    0.14190   10.44580   46.05870    2.67810   95.73230    0.08230    2.67810    0.01870   67.02480
