~Version ---------------------------------------------------
VERS. 2.0 : CWLS log ASCII Standard -VERSION 2.0
WRAP.  NO : ONE LINE PER DEPTH STEP
~Well ------------------------------------------------------
STRT.F                   300.0 : START DEPTH
STOP.F                 10950.0 : STOP DEPTH
STEP.F                50.00000 : STEP LENGTH
NULL.                  -999.25 : NULL VALUE
COMP.     THE PURE OIL COMPANY : COMPANY
WELL.          W. T. BRUTON #7 : WELL
FLD .            FORT TRINIDAD : FIELD
LOC .                          : LOCATION
CNTY.                  HOUSTON : COUNTY
STAT.                    TEXAS : STATE
CTRY. UNITED STATES OF AMERICA : COUNTRY
SRVC.             Schlumberger : SERVICE COMPANY
DATE.              29-Jan-1963 : LOGDATE
API .           42225004270000 : API NUMBER
UWI .           42225004270000 : UNIQUE WELL ID
SLAT.WGS84       31.0768046547 : SURFACE LATITUDE
SLON.WGS84      -95.6233840744 : SURFACE LONGITUDE
~Curve Information -----------------------------------------
DEPT.F    0   1   0  0 : 1 MEASURED DEPTH
MCAL.IN   15 280 01 00 : MLT (MICROLOG) CALIPER
DT  .US/F 60 500 31 00 : DELTA-T (INTERVAL TRANSIT TIME)
ASN .OHMM 05 041 16 00 : AMPLIFIED SHORT NORMAL RESISTIVITY
CILD.MMHO 05 110 46 00 : INDUCTION DEEP CONDUCTIVITY
ILD .OHMM 05 120 46 00 : INDUCTION DEEP RESISTIVITY
SPR .MV   05 010 01 00 : SPONTANEOUS POTENTIAL FROM RESISTIVITY LOG
LT18.OHMM 01 070 18 00 : LATERAL 18'
LN  .OHMM 01 060 64 00 : LONG NORMAL RESISTIVITY
GR  .GAPI 30 310 01 00 : GAMMA RAY
~Params ----------------------------------------------------
PD  .                     RT : PERMANENT DATUM
LMF .                    SCF : LOG MEASURED FROM
DAPD.FT                   16 : FEET ABOVE PERMANENT DATUM
DMF .                    SCF : DRILLING MEASURED FROM
EKB .FT                  195 : KELLY BUSHING
EDF .FT                  197 : DRILLING FLOOR
EGL .FT                  181 : GROUND LEVEL
DATE.               01/29/63 : RUN DATE
RUN .                      2 : RUN NUMBER
DD  .FT                10975 : DEPTH DRILLER
DL  .FT                10982 : DEPTH LOGGER
BLI .FT                10981 : BOTTOM LOG INTERVAL
TLI .FT                 9216 : TOP LOG INTERVAL
CBD .FT                 9215 : CASING BOTTOM DRILLER
CBL .FT                 9216 : CASING BOTTOM LOGGER
BS  .IN                6.125 : BIT SIZE
BSD .FT                10975 : BIT SIZE AT DEPTH
DFT .         LIGNOSULFONATE : DRILLING FLUID TYPE
DFD .                   10.4 : DRILLING FLUID DENSITY
DFV .                     52 : DRILLING FLUID VISCOSITY
DFPH.                     10 : DRILLING FLUID PH
DFL .                    4.6 : DRILLING FLUID LOSS
MSS .               FLOWLINE : MUD SAMPLE SOURCE
RMS .OHMM                1.7 : RESISTIVITY MUD SAMPLE
MST .DEGF                 75 : MUD SAMPLE TEMPERATURE
RMF .OHMM                1.5 : RESISTIVITY MUD FILTRATE SAMPLE
MFST.DEGF                 75 : MUD FILTRATE SAMPLE TEMPERATURE
RMC .OHMM                1.9 : RESISTIVITY MUD CAKE
MCST.DEGF                 75 : MUD CAKE SAMPLE TEMPERATURE
RMB .OHMM               0.49 : RESISTIVITY MUD AT BHT
TCS .HRS                   2 : TIME CIRCULATED STOPPED
LUN .                   4513 : LOGGING UNIT NUMBER
LUL .                HUNT SV : LOGGING UNIT LOCATION
ENGI.                PURCELL : RECORDING ENGINEER
WITN.             BLACKSTOCK : WITNESSED BY
CLNT.                A2DTECH : CLIENT CODE
ORIG.            2" 5" PRINT : ORIGIN OF DATA
UWI .         42225004270000 : UNIQUE WELL ID
DICO. A2D Technologies, Inc. : DIGITIZING COMPANY
~Other -----------------------------------------------------
~ASCII -----------------------------------------------------
# ...
 3950.00000    -999.25    -999.25    8.81330  168.15480    7.26530  -71.30350    6.18620    3.05930    -999.25
 4000.00000    -999.25    -999.25    7.59610  347.09620    2.85770 -109.43620    1.37870    3.93260    -999.25
 4050.00000    -999.25    -999.25    5.95820  442.96750    2.27160 -111.61550    0.78970    2.84970    -999.25
 4100.00000    -999.25    -999.25    3.28020  479.37410    2.05380  -88.49590    1.71810    1.94030    -999.25
 4150.00000    -999.25    -999.25    3.82190  407.82680    2.32240  -78.24160    1.79160    1.91810    -999.25
 4200.00000    -999.25    -999.25    5.29190  791.20250    1.20390 -132.33150    1.89190    1.40650    -999.25
 4250.00000    -999.25    -999.25   12.97650  384.43730    2.49940 -129.12640    1.55400    3.95500    -999.25
 4300.00000    -999.25    -999.25    4.79880 1020.82200    0.81840 -138.23130    0.99020    1.06820    -999.25
 4350.00000    -999.25    -999.25    5.30040  468.74050    2.20850 -107.40440    1.64050    1.26250    -999.25
 4400.00000    -999.25    -999.25    2.59210 1027.46550    0.75630 -136.29710    1.66280    0.63270    -999.25
 4450.00000    -999.25    -999.25    1.32240  952.68330    0.96200 -142.00550    0.92430    1.20370    -999.25
 4500.00000    -999.25    -999.25    2.95380  856.60530    1.09440 -136.63440    1.29230    0.97470    -999.25
 4550.00000    -999.25    -999.25    6.50900  625.92220    1.51420 -138.73530    1.09670    1.33950    -999.25
 4600.00000    -999.25    -999.25    4.92700  289.41290    3.44210  -75.86100    1.74540    1.13860    -999.25
 4650.00000    -999.25    -999.25    5.59060  403.77880    2.46950  -92.08470    0.58400    2.71630    -999.25
 4700.00000    -999.25    -999.25    4.40900  406.95830    2.44160  -91.82440    1.51120    2.07960    -999.25
 4750.00000    -999.25    -999.25    5.47660 1100.11650    0.79050 -139.62140    2.46850    1.53410    -999.25
 4800.00000    -999.25    -999.25    6.93130  238.80930    4.03290  -88.65700    2.95770    1.69980    -999.25
 4850.00000    -999.25    -999.25    3.13280  381.34180    2.66280  -74.54320    0.72210    3.55810    -999.25
 4900.00000    -999.25    -999.25    4.63720  435.33840    2.17390 -103.80910    1.94810    1.47240    -999.25
 4950.00000    -999.25    -999.25    3.87240  810.71990    1.11570 -111.13750    1.26610    1.38750    -999.25
 5000.00000    -999.25    -999.25    4.46840  882.24540    1.01330 -122.66440    1.60330    1.40460    -999.25
 5050.00000    -999.25    -999.25    1.66070  787.99270    1.10020  -95.75080    2.21560    1.10720    -999.25
 5100.00000    -999.25    -999.25    3.93520  558.05720    1.75280 -101.17500    1.34220    1.37870    -999.25
 5150.00000    -999.25    -999.25    2.17180  555.41090    1.78590  -82.07780    2.06710    1.51390    -999.25
 5200.00000    -999.25    -999.25    1.65890  481.53160    2.04940  -66.80960    2.42660    1.92500    -999.25
 5250.00000    -999.25    -999.25    1.54180  501.24460    2.04300  -70.42290    2.36120    1.87810    -999.25
 5300.00000    -999.25    -999.25    1.52280  513.37220    1.84840  -68.38140    1.95150    1.83850    -999.25
 5350.00000    -999.25    -999.25    1.45680  531.49350    1.81540  -68.35390    2.56530    1.81940    -999.25
 5400.00000    -999.25    -999.25    1.39390  543.53220    1.81960  -68.00350    2.42920    1.71710    -999.25
 5450.00000    -999.25    -999.25    1.58780  526.07050    1.95020  -73.43750    1.44630    2.08530    -999.25
 5500.00000    -999.25    -999.25    1.57150  481.84300    2.05370  -70.26640    2.23230    1.89910    -999.25
 5550.00000    -999.25    -999.25    1.73550  459.46510    2.13450  -72.23440    2.12250    1.95070    -999.25
 5600.00000    -999.25    -999.25    1.73760  459.90150    2.16730  -73.04480    2.15980    2.01410    -999.25
 5650.00000    -999.25    -999.25    1.70490  450.38960    2.21580  -70.44230    2.10560    2.07670    -999.25
 5700.00000    -999.25    -999.25    1.79400  447.75560    2.25300  -73.22380    2.54550    2.17280    -999.25
 5750.00000    -999.25    -999.25    1.90760  420.16380    2.34130  -69.59440    2.20990    2.13610    -999.25
 5800.00000    -999.25    -999.25    1.75760  450.40530    2.13340  -68.93950    2.43340    2.11810    -999.25
 5850.00000    -999.25    -999.25    1.51310  520.46970    1.93850  -66.57360    2.10460    1.67010    -999.25
 5900.00000    -999.25    -999.25    1.70320  471.96520    2.17500  -65.03620    2.45770    1.92420    -999.25
 5950.00000    -999.25    -999.25    1.52220  509.13130    1.91470  -67.32580    2.10830    1.82450    -999.25
 6000.00000    -999.25    -999.25    1.40660  547.78120    1.74070  -64.28310    2.22490    1.76730    -999.25
 6050.00000    -999.25    -999.25    1.40650  513.40150    1.83370  -67.19730    2.26980    1.80230    -999.25
 6100.00000    -999.25    -999.25    1.50480  503.95560    2.00170  -64.84490    2.25300    1.78090    -999.25
 6150.00000    -999.25    -999.25    1.59050  496.62840    2.01400  -66.10760    2.24250    2.02870    -999.25
 6200.00000    -999.25    -999.25    1.42630  555.08830    1.80150  -69.63370    2.71590    1.84690    -999.25
 6250.00000    -999.25    -999.25    1.44690  513.68220    1.94650  -64.57470    1.94180    1.77720    -999.25
 6300.00000    -999.25    -999.25    1.85980  439.90800    2.38990  -69.59900    2.67370    2.38000    -999.25
 6350.00000    -999.25    -999.25    2.20750  374.64220    2.57760  -68.77320    2.37120    2.47020    -999.25
 6400.00000    -999.25    -999.25    2.18560  395.02000    2.53150  -69.53850    2.47260    2.39290    -999.25
 6450.00000    -999.25    -999.25    2.02260  403.81700    2.47660  -65.23430    2.58060    2.30070    -999.25
 6500.00000    -999.25    -999.25    1.57990  510.55090    1.95840  -67.01320    2.14780    2.05110    -999.25
 6550.00000    -999.25    -999.25    1.45340  509.52880    1.96240  -73.00890    2.30850    1.94390    -999.25
 6600.00000    -999.25    -999.25    1.69330  435.85380    2.29430  -70.76630    2.58890    2.30430    -999.25
 6650.00000    -999.25    -999.25    1.72820  433.94270    2.30400  -72.23680    2.33820    2.23960    -999.25
 6700.00000    -999.25    -999.25    0.83750  714.79110    1.39920  -64.08260    2.25070    1.50130    -999.25
 6750.00000    -999.25    -999.25    0.94040  653.22850    1.48980  -67.09830    2.06620    1.57300    -999.25
 6800.00000    -999.25    -999.25    0.95240  660.01570    1.44720  -63.53720    1.64290    1.42870    -999.25
 6850.00000    -999.25    -999.25    2.36620  351.20790    2.84710  -62.09030    1.83240    2.69740    -999.25
 6900.00000    -999.25    -999.25    3.24520  291.42540    3.50950  -58.96140    2.28490    3.16380    -999.25
 6950.00000    -999.25    -999.25    2.09580  437.21890    2.21420  -55.56950    3.22530    2.15700    -999.25
 7000.00000    -999.25    -999.25    1.44500  516.69210    1.90050  -59.38330    2.29370    1.76170    -999.25
 7050.00000    -999.25    -999.25    0.91370  684.21730    1.46120  -60.34440    1.69770    1.44990    -999.25
 7100.00000    -999.25    -999.25    0.98950  633.94910    1.57740  -59.21320    1.55290    1.78450    -999.25
 7150.00000    -999.25    -999.25    7.33020  157.66820    6.75660  -55.10930    3.91050    5.99580    -999.25
 7200.00000    -999.25    -999.25    7.21250  161.18080    6.34580  -58.96870    5.37880    6.04350    -999.25
 7250.00000    -999.25    -999.25    7.09090  164.80730    6.30450  -52.72060    5.50150    5.64590    -999.25
 7300.00000    -999.25    -999.25    6.31860  190.99020    5.27220  -51.85850    4.98770    4.87040    -999.25
 7350.00000    -999.25    -999.25    5.92890  211.50420    4.86490  -49.36970    4.23090    4.54720    -999.25
 7400.00000    -999.25    -999.25    6.70070  173.29460    5.71980  -49.29690    4.87800    5.06840    -999.25
 7450.00000    -999.25    -999.25    3.79850  287.44840    3.58600  -49.63650    3.54550    3.29490    -999.25
 7500.00000    -999.25    -999.25    2.62890  405.84620    2.39980  -51.95020    2.88610    2.59700    -999.25
 7550.00000    -999.25    -999.25    5.86730  218.64710    4.63710  -49.31080    4.47440    4.06300    -999.25
