~Version ---------------------------------------------------
VERS. 2.0 : CWLS log ASCII Standard -VERSION 2.0
WRAP. YES : Multiple lines per depth step
~Well ------------------------------------------------------
STRT.FT                          550.0 : START DEPTH
STOP.FT                         6150.0 : STOP DEPTH
STEP.FT                       50.00000 : STEP LENGTH
NULL.                          -999.25 : NULL VALUE
COMP.      UNITED PRODUCTION CO., INC. : COMPANY
WELL.                  GUY S. COMBS #3 : WELL
FLD .                          WILDCAT : FIELD
LOC .                                  : LOCATION
CNTY.                         ATASCOSA : COUNTY
STAT.                            TEXAS : STATE
CTRY.         UNITED STATES OF AMERICA : COUNTRY
SRVC. Schlumberger Well Surveying Corp : SERVICE COMPANY
DATE.                      08-Apr-1975 : LOGDATE
API .                   42013302760000 : API NUMBER
UWI .                   42013302760000 : UNIQUE WELL ID
SLAT.WGS84               28.9948086495 : SURFACE LATITUDE
SLON.WGS84              -98.4227720769 : SURFACE LONGITUDE
~Curve Information -----------------------------------------
DEPT    .FT    : DEPTH
CALDED  .IN    : CALIPER FROM DENSITY LOG (ADJ TO RES.)
CALWS   .IN    : CALIPER (CALDED)
CONDWS  .MMHO  : CONDUCTIVITY (1000/DRESWS)
CORRED  .G/C3  : DENSITY CORRECTION (ADJ TO RES.)
DCORWS  .G/C3  : DENSITY CORRECTION (CORRED)
DENWS   .G/C3  : BULK DENSITY  (RHOBED)
DPHILSED.V/V   : DENSITY POROSITY LIMESTONE  (ADJ TO RES.)
DPHISSED.V/V   : DENSITY POROSITY SANDSTONE  (ADJ TO RES.)
DPOWS   .V/V   : DENSITY POROSITY (M=2.71 F=1 FROM DENWS)
DRESWS  .OHMM  : DEEP RESISTIVITY (ILDED)
GRDED   .GAPI  : GAMMA RAY FROM DENSITY LOG (ADJ TO RES.)
GRWS    .GAPI  : GAMMA RAY (GRDED)
ILDED   .OHMM  : DEEP INDUCTION RESISTIVITY
ILMED   .OHMM  : MEDIUM INDUCTION RESISTIVITY
LL8ED   .OHMM  : LATEROLOG-8 RESISTIVITY
MRESWS  .OHMM  : MEDIUM RESISTIVITY (ILMED)
NPHILSED.V/V   : NEUTRON POROSITY LIMESTONE (ADJ TO RES.)
NPHISSED.V/V   : NEUTRON POROSITY SANDSTONE (ADJ TO RES.)
NPOWS   .V/V   : NEUTRON POROSITY LIMESTONE (NPHISSED CONVERTED TO LIMESTONE/NPHILSED)
RHOBED  .G/C3  : BULK DENSITY (ADJ TO RES.)
SPRED   .MV    : SPONTANEOUS POTENTIAL FROM RESISTIVITY
SPWS    .MV    : SPONTANEOUS POTENTIAL BASELINE 0 MV (SPRED)
SRESWS  .OHMM  : SHALLOW RESISTIVITY (LL8ED)
~Params ----------------------------------------------------
PD  .                     GL : PERMANENT DATUM
EPD .FT                  428 : ELEVATION PERMANENT DATUM
LMF .                     KB : LOG MEASURED FROM
DAPD.FT                   14 : FEET ABOVE PERMANENT DATUM
DMF .                     KB : DRILLING MEASURED FROM
EKB .FT                  442 : KELLY BUSHING
EDF .FT                  441 : DRILLING FLOOR
EGL .FT                  428 : GROUND LEVEL
DATE.             04/08/1975 : RUN DATE
RUN .                      1 : RUN NUMBER
DD  .FT                 6175 : DEPTH DRILLER
DL  .FT                 6168 : DEPTH LOGGER
BLI .FT                 6162 : BOTTOM LOG INTERVAL
TLI .FT                  537 : TOP LOG INTERVAL
CS  .IN                8.625 : CASING SIZE
CBD .FT                  536 : CASING BOTTOM DRILLER
CBL .FT                  537 : CASING BOTTOM LOGGER
BS  .IN                7.875 : BIT SIZE
BSD .FT                 6175 : BIT SIZE AT DEPTH
DFT .               SPER TAN : DRILLING FLUID TYPE
DFD .                   10.1 : DRILLING FLUID DENSITY
DFV .                     60 : DRILLING FLUID VISCOSITY
DFPH.                    9.5 : DRILLING FLUID PH
DFL .                    6.2 : DRILLING FLUID LOSS
MSS .               FLOWLINE : MUD SAMPLE SOURCE
RMS .OHMM               1.99 : RESISTIVITY MUD SAMPLE
MST .DEGF                 75 : MUD SAMPLE TEMPERATURE
RMF .OHMM               1.73 : RESISTIVITY MUD FILTRATE SAMPLE
MFST.DEGF                 75 : MUD FILTRATE SAMPLE TEMPERATURE
RMC .OHMM               1.78 : RESISTIVITY MUD CAKE
MCST.DEGF                 75 : MUD CAKE SAMPLE TEMPERATURE
MFSS.                      M : MUD FILTRATE SAMPLE SOURCE
MCSS.                      C : MUD CAKE SAMPLE SOURCE
RMB .OHMM               0.99 : RESISTIVITY MUD AT BHT
TCS .HRS                   3 : TIME CIRCULATED STOPPED
LUN .                   7676 : LOGGING UNIT NUMBER
LUL .                  PLEAS : LOGGING UNIT LOCATION
ENGI.                 ROGERS : RECORDING ENGINEER
WITN.               WILLIAMS : WITNESSED BY
CLNT.                A2DTECH : CLIENT CODE
ORIG.            2" 5" PRINT : ORIGIN OF DATA
UWI .         42013302760000 : UNIQUE WELL ID
DICO. A2D Technologies, Inc. : DIGITIZING COMPANY
~Other -----------------------------------------------------
~ASCII -----------------------------------------------------
# ...
 3650.00000    9.15240    9.15240  323.86570    0.08930    0.08930    2.36120    -999.25    0.17330    0.20400    3.08770   90.19520   90.19520    3.08770    3.15030    3.73040    3.15030    -999.25    0.40880    0.43620    2.36120  -24.27510   -2.66190    3.73040
 3700.00000    8.68460    8.68460  425.17010    0.10160    0.10160    2.34980    -999.25    0.16640    0.21060    2.35200   90.89950   90.89950    2.35200    2.42480    2.88480    2.42480    -999.25    0.46090    0.47590    2.34980  -24.39740   -2.83980    2.88480
 3750.00000    9.81230    9.81230  375.27680    0.04150    0.04150    2.34350    -999.25    0.19150    0.21430    2.66470   88.83390   88.83390    2.66470    2.55090    3.21850    2.55090    -999.25    0.40210    0.43150    2.34350  -25.32750   -3.82560    3.21850
 3800.00000   10.47430   10.47430  390.94570    0.08980    0.08980    2.45660    -999.25    0.12580    0.14820    2.55790   85.25110   85.25110    2.55790    2.63180    3.41860    2.63180    -999.25    0.37780    0.41390    2.45660  -23.25500   -1.80870    3.41860
 3850.00000    9.88690    9.88690  456.10030    0.04110    0.04110    2.38810    -999.25    0.16120    0.18820    2.19250   93.41840   93.41840    2.19250    2.25370    2.94210    2.25370    -999.25    0.39980    0.42980    2.38810  -23.82630   -2.43560    2.94210
 3900.00000   10.33070   10.33070  711.13640    0.05770    0.05770    2.36480    -999.25    0.16330    0.20190    1.40620   94.55480   94.55480    1.40620    1.43720    2.07370    1.43720    -999.25    0.48070    0.49570    2.36480  -23.25540   -1.92040    2.07370
 3950.00000    9.67210    9.67210  737.35440    0.09240    0.09240    2.39250    -999.25    0.15380    0.18570    1.35620   88.28000   88.28000    1.35620    1.41180    2.01200    1.41180    -999.25    0.49300    0.50800    2.39250  -25.82700   -4.54760    2.01200
 4000.00000    9.45820    9.45820  773.63450    0.06120    0.06120    2.31060    -999.25    0.21240    0.23360    1.29260  105.36190  105.36190    1.29260    1.34230    1.81340    1.34230    -999.25    0.48860    0.50360    2.31060  -24.03000   -2.80630    1.81340
 4050.00000    9.72700    9.72700  539.69450    0.07340    0.07340    2.38220    -999.25    0.17030    0.19170    1.85290   81.37880   81.37880    1.85290    1.92850    2.42910    1.92850    -999.25    0.35270    0.39540    2.38220  -23.21940   -2.05130    2.42910
 4100.00000    8.85150    8.85150  597.08620    0.12240    0.12240    2.26380    -999.25    0.23010    0.26090    1.67480   78.92030   78.92030    1.67480    1.72430    2.26660    1.72430    -999.25    0.43460    0.45440    2.26380  -25.76230   -4.64990    2.26660
 4150.00000    9.40400    9.40400  531.01100    0.08030    0.08030    2.34490    -999.25    0.19090    0.21350    1.88320   77.16840   77.16840    1.88320    1.95230    2.59270    1.95230    -999.25    0.40580    0.43410    2.34490  -28.98110   -7.92430    2.59270
 4200.00000    9.58920    9.58920  499.05180    0.10380    0.10380    2.42470    -999.25    0.13650    0.16680    2.00380   63.06320   63.06320    2.00380    2.12510    2.90400    2.12510    -999.25    0.36470    0.40430    2.42470  -27.05340   -6.05230    2.90400
 4250.00000   10.08550   10.08550  464.44660    0.19150    0.19150    2.15560    -999.25    0.28530    0.32420    2.15310   66.75360   66.75360    2.15310    2.23340    2.60630    2.23340    -999.25    0.38050    0.41590    2.15560  -30.61950   -9.67400    2.60630
 4300.00000    9.78090    9.78090  573.23020    0.08920    0.08920    2.41320    -999.25    0.15250    0.17360    1.74450   79.14730   79.14730    1.74450    1.80720    2.40600    1.80720    -999.25    0.40390    0.43270    2.41320  -28.46150   -7.57170    2.40600
 4350.00000    9.49230    9.49230  381.21380    0.07540    0.07540    2.40690    -999.25    0.15280    0.17730    2.62320   71.02880   71.02880    2.62320    2.67590    3.30430    2.67590    -999.25    0.32250    0.37240    2.40690  -26.03590   -5.20170    3.30430
 4400.00000    9.37900    9.37900  694.87870    0.05630    0.05630    2.33930    -999.25    0.19300    0.21680    1.43910   81.54790   81.54790    1.43910    1.46990    2.12250    1.46990    -999.25    0.43620    0.45550    2.33930  -24.57240   -3.79390    2.12250
 4450.00000    9.70550    9.70550  630.63630    0.15190    0.15190    2.23640    -999.25    0.24810    0.27700    1.58570   78.28410   78.28410    1.58570    1.62170    2.21460    1.62170    -999.25    0.41320    0.43940    2.23640  -29.12780   -8.40490    2.21460
 4500.00000    9.40550    9.40550  667.42310    0.13440    0.13440    2.32620    -999.25    0.19380    0.22440    1.49830   80.76910   80.76910    1.49830    1.52980    2.14820    1.52980    -999.25    0.38950    0.42240    2.32620  -24.77760   -4.11040    2.14820
 4550.00000   10.08010   10.08010  479.86950    0.10060    0.10060    2.34520    -999.25    0.18980    0.21330    2.08390   82.46730   82.46730    2.08390    2.13200    2.80940    2.13200    -999.25    0.35500    0.39710    2.34520  -25.70970   -5.09810    2.80940
 4600.00000   11.02550   11.02550  572.96740    0.08030    0.08030    2.29680    -999.25    0.22520    0.24160    1.74530   83.36630   83.36630    1.74530    1.79550    2.22110    1.79550    -999.25    0.41300    0.43930    2.29680  -26.64190   -6.08600    2.22110
 4650.00000    9.97480    9.97480  582.95440    0.17540    0.17540    2.26900    -999.25    0.22920    0.25790    1.71540   77.96660   77.96660    1.71540    1.76830    2.34410    1.76830    -999.25    0.42260    0.44600    2.26900  -30.58090  -10.08060    2.34410
 4700.00000    9.55710    9.55710  519.93970    0.16170    0.16170    2.36660    -999.25    0.18120    0.20080    1.92330   77.20960   77.20960    1.92330    2.01370    2.59190    2.01370    -999.25    0.37650    0.41300    2.36660  -31.04730  -10.60270    2.59190
 4750.00000    8.42700    8.42700  416.45840    0.11460    0.11460    2.46460    -999.25    0.11170    0.14350    2.40120   63.29740   63.29740    2.40120    2.49260    3.49940    2.49260    -999.25    0.36040    0.40110    2.46460  -23.54600   -3.15700    3.49940
 4800.00000   10.88220   10.88220  584.65860    0.14310    0.14310    2.32330    -999.25    0.19440    0.22610    1.71040   76.44020   76.44020    1.71040    1.74480    2.42340    1.74480    -999.25    0.42430    0.44720    2.32330  -25.20110   -4.86780    2.42340
 4850.00000   10.32430   10.32430  656.12490    0.14570    0.14570    2.25750    -999.25    0.23180    0.26460    1.52410   84.09210   84.09210    1.52410    1.57800    2.02480    1.57800    -999.25    0.39500    0.42640    2.25750  -27.01330   -6.73560    2.02480
 4900.00000    8.99000    8.99000  439.65710    0.17520    0.17520    2.45040    -999.25    0.11070    0.15180    2.27450   86.12570   86.12570    2.27450    2.33160    2.96230    2.33160    -999.25    0.34800    0.39180    2.45040  -23.29100   -3.06900    2.96230
 4950.00000   11.17940   11.17940  578.73720    0.11420    0.11420    2.34750    -999.25    0.18460    0.21200    1.72790   90.49570   90.49570    1.72790    1.77890    2.25630    1.77890    -999.25    0.31550    0.36700    2.34750  -23.57670   -3.41030    2.25630
 5000.00000   10.83670   10.83670  512.50510    0.20160    0.20160    2.29190    -999.25    0.20810    0.24450    1.95120   79.96460   79.96460    1.95120    2.00640    2.59870    2.00640    -999.25    0.34170    0.38710    2.29190  -24.97780   -4.86710    2.59870
 5050.00000   11.58710   11.58710  508.49180    0.16470    0.16470    2.16750    -999.25    0.28890    0.31730    1.96660  109.63190  109.63190    1.96660    1.75830    1.87700    1.75830    -999.25    0.39880    0.42910    2.16750  -20.64230   -0.58720    1.87700
 5100.00000   11.96940   11.96940 1136.62190    0.09010    0.09010    2.08440    -999.25    0.34470    0.36580    0.87980   89.76270   89.76270    0.87980    0.90310    1.35210    0.90310    -999.25    0.47270    0.48770    2.08440  -19.89010    0.11240    1.35210
 5150.00000   13.13200   13.13200  850.55710    0.10900    0.10900    2.23860    -999.25    0.25420    0.27570    1.17570   92.97080   92.97080    1.17570    1.21550    1.72030    1.21550    -999.25    0.41240    0.43880    2.23860  -23.22540   -2.97280    1.72030
