~Version ---------------------------------------------------
VERS. 2.0 : CWLS log ASCII Standard -VERSION 2.0
WRAP.  NO : ONE LINE PER DEPTH STEP
~Well ------------------------------------------------------
STRT.FT                            300.0 : START DEPTH
STOP.FT                          22000.0 : STOP DEPTH
STEP.FT                         50.00000 : STEP LENGTH
NULL.                            -999.25 : NULL VALUE
COMP. PAN AMERICAN PETROLEUM CORPORATION : COMPANY
WELL.                  A. M. FOERSTER #1 : WELL
FLD .                            WILDCAT : FIELD
LOC .                                    : LOCATION
CNTY.                           LA SALLE : COUNTY
STAT.                              TEXAS : STATE
CTRY.           UNITED STATES OF AMERICA : COUNTRY
SRVC.                       Schlumberger : SERVICE COMPANY
DATE.                        20-Aug-1964 : LOGDATE
API .                     42283002040000 : API NUMBER
UWI .                     42283002040000 : UNIQUE WELL ID
SLAT.WGS84                 28.3371650608 : SURFACE LATITUDE
SLON.WGS84                -98.9649233845 : SURFACE LONGITUDE
~Curve Information -----------------------------------------
DEPT  .FT    : DEPTH
CONDWS.MMHO  : CONDUCTIVITY [CILDED] FROM IEL
ILDED .OHMM  : INDUCTION LOG DEEP RESISTIVITY FROM IEL
ASNED .OHMM  : SHORT NORMAL RESISTIVITY 16 INCH FROM IEL
CILDED.MMHO  : CONDUCTIVITY FROM IEL
DRESWS.OHMM  : DEEP RESISTIVITY [ILDED] FROM IEL [IF ILDED < 1 THEN 1000/CILDED]
DTWS  .US/F  : DELTA TIME FROM SONIC LOG
NEUTWS.CU    : NEUTRON FROM GAMMA RAY NEUTRON LOG
GRNED .GAPI  : GAMMA RAY FROM NEUTRON LOG
NEUTED.NAPI  : NEUTRON  FROM GAMMA RAY NEUTRON LOG
SPED  .MV    : SPONTANEOUS POTENTIAL [MECHANICAL SHIFTS REMOVED]
SPWS  .MV    : SPONTANEOUS POTENTIAL [BASELINE 0 MV]
CALSED.IN    : CALIPER FROM SONIC LOG
DTED  .US/F  : DELTA TIME FROM SONIC LOG
SRESWS.OHMM  : SHALLOW RESISTIVITY [ASNED] FROM IEL
GRWS  .GAPI  : GAMMA RAY [GRNED] FROM GAMMA RAY NEUTRON LOG
CALWS .IN    : CALIPER [CALSED] FROM SONIC LOG
SPSED .MV    : SPONTANEOUS POTENTIAL FROM SONIC LOG [MECHANICAL SHIFTS REMOVED]
~Params ----------------------------------------------------
EKB .F                 473.5 : KELLY BUSHING
EGL .F                   445 : ELEVATION GROUND LEVEL
EDF .F                   471 : ELEVATION DERRICK FLOOR
EPD .F                   445 : ELEVATION PERMANENT DATUM
TD  .F               21995.0 : TOTAL DEPTH
DATE.            20-AUG-1964 : DATE LOGGED
CLNT.                A2DTECH : CLIENT CODE
SL  .   1320' FSL & 660' FWL : SURFACE LOCATION
PD  .                     GL : PERMANENT DATUM
LMF .                     KB : LOG MEASURED FROM
DMF .                     KB : DRILLING MEASURED FROM
DAPD.F                  28.5 : FEET ABOVE PERMANENT DATUM
DD  .F                 21995 : DEPTH DRILLER
DL  .F                 21992 : DEPTH LOGGER
BLI .F                 21991 : BOTTOM LOG INTERVAL
TLI .F                 20005 : TOP LOG INTERVAL
CS1 .IN                9.625 : CASING SIZE
CBD1.        9.625" @ 15993' : CASING DRILLER 1
CBL1.F                 15993 : CASING LOGGER 1
BS1 .IN                  8.5 : BIT SIZE
BSD1.F                 21995 : DEPTH DRILLED WITH BIT1
DFT .              XP-20-O.E : TYPE FLUID IN HOLE
DFD .                   18.4 : DENSITY
DFV .                     54 : VISCOSITY
DFPH.                    8.9 : PH
DFL .                      4 : FLUID LOSS
MSS .                MUD/PIT : SOURCE OF SAMPLE
RMS .OHMM               0.15 : RM
RMF .OHMM              0.089 : RMF
RMC .OHMM               0.32 : RMC
MFSS.                   MEAS : SOURCE RMF.
MCSS.                   MEAS : SOURCE RMC.
RMB .OHMM              0.046 : RM. AT BHT
BHT .F                   404 : BHT.
TCS .HRS                  10 : TIME CIRC. STOPPED
LUN .                   4526 : LOGGING UNIT NUMBER
LUL .                    KEN : LOGGING UNIT LOCATION
ENGI.                  HARSH : RECORDED BY
WITN.          FREEMAN/WALSH : WITNESSED BY
ORIG.          1" & 5" PRINT : ORIGIN OF DATA
UWI .         42283002040000 : UNIQUE WELL ID
DICO. A2D TECHNOLOGIES, INC. : DIGITIZING COMPANY
~Other -----------------------------------------------------
~ASCII -----------------------------------------------------
# ...
 12550.00000   37.40900   42.23710   36.32100   37.40900   42.23710   49.69200    -999.25    -999.25    -999.25  -51.35700  -15.86020   14.94400   49.69200   36.32100    -999.25   14.94400  -66.98600
 12600.00000   20.55800   49.25600   41.04000   20.55800   49.25600   50.40700    -999.25    -999.25    -999.25  -52.14400  -17.01130   14.90900   50.40700   41.04000    -999.25   14.90900  -65.49100
 12650.00000   21.29400   47.09820   41.12200   21.29400   47.09820   52.43500    -999.25    -999.25    -999.25  -61.27900  -26.51040   14.88900   52.43500   41.12200    -999.25   14.88900  -47.38000
 12700.00000   21.21400   45.58000   30.79900   21.21400   45.58000   50.00100    -999.25    -999.25    -999.25  -57.05000  -22.64550   14.82800   50.00100   30.79900    -999.25   14.82800  -75.31100
 12750.00000   57.62500   17.01500   27.92900   57.62500   17.01500   51.01200    -999.25    -999.25    -999.25  -45.83200  -11.79160   14.83200   51.01200   27.92900    -999.25   14.83200  -54.58900
 12800.00000   22.12000   43.25400   34.59600   22.12000   43.25400   50.60200    -999.25    -999.25    -999.25  -43.84400  -10.16770   14.85100   50.60200   34.59600    -999.25   14.85100  -61.79600
 12850.00000   46.89500   20.79600   25.58700   46.89500   20.79600   54.94600    -999.25    -999.25    -999.25  -44.20400  -10.89170   14.85100   54.94600   25.58700    -999.25   14.85100  -55.54200
 12900.00000   24.57400   38.90200   29.60800   24.57400   38.90200   50.62500    -999.25    -999.25    -999.25  -60.87200  -27.92380   14.87000   50.62500   29.60800    -999.25   14.87000  -34.37900
 12950.00000   20.73000   44.56400   36.15400   20.73000   44.56400   50.26600    -999.25    -999.25    -999.25  -48.62400  -16.03990   14.86300   50.26600   36.15400    -999.25   14.86300  -54.52600
 13000.00000  180.74100    6.06600   12.39900  180.74100    6.06600   71.10300    -999.25    -999.25    -999.25  -31.11900    1.10100   14.41300   71.10300   12.39900    -999.25   14.41300  -49.00200
 13050.00000  133.26500    7.76600    7.97400  133.26500    7.76600   68.42800    -999.25    -999.25    -999.25  -30.50500    1.35090   13.86000   68.42800    7.97400    -999.25   13.86000  -24.15900
 13100.00000   67.57500   14.65400   14.51500   67.57500   14.65400   64.70900    -999.25    -999.25    -999.25  -30.46500    1.02680   13.62300   64.70900   14.51500    -999.25   13.62300  -11.01200
 13150.00000  126.67700    8.35900    9.17500  126.67700    8.35900   80.92200    -999.25    -999.25    -999.25  -31.79700   -0.66930   13.73600   80.92200    9.17500    -999.25   13.73600   -6.68300
 13200.00000   47.59500   20.49000   18.40500   47.59500   20.49000   66.63200    -999.25    -999.25    -999.25  -31.51600   -0.75230   12.63700   66.63200   18.40500    -999.25   12.63700    5.11700
 13250.00000  146.74100    6.85900    9.82200  146.74100    6.85900   77.61300    -999.25    -999.25    -999.25  -30.14200    0.25760   12.93600   77.61300    9.82200    -999.25   12.93600  -15.17100
 13300.00000  137.85200    7.46000    8.81200  137.85200    7.46000   83.59100    -999.25    -999.25    -999.25  -29.53200    0.50350   12.97400   83.59100    8.81200    -999.25   12.97400   -6.41300
 13350.00000   76.90300   13.04200   15.06400   76.90300   13.04200   73.50100    -999.25    -999.25    -999.25  -29.91300   -0.24160   12.74600   73.50100   15.06400    -999.25   12.74600    2.86400
 13400.00000   67.58200   14.46600   14.76800   67.58200   14.46600   77.83400    -999.25    -999.25    -999.25  -30.94400   -1.63670   12.59700   77.83400   14.76800    -999.25   12.59700    1.90700
 13450.00000   48.58600   21.78000   16.64100   48.58600   21.78000   69.85100    -999.25    -999.25    -999.25  -28.89200    0.05130   12.55600   69.85100   16.64100    -999.25   12.55600   12.68900
 13500.00000  141.96200    7.51100    7.92500  141.96200    7.51100   75.66600    -999.25    -999.25    -999.25  -29.41600   -0.74930   13.19400   75.66600    7.92500    -999.25   13.19400    -999.25
 13550.00000   71.94700   14.67600    9.12100   71.94700   14.67600   80.30000    -999.25    -999.25    -999.25  -29.92100   -1.25430   13.01600   80.30000    9.12100    -999.25   13.01600    -999.25
 13600.00000   20.45700   49.18400   44.62400   20.45700   49.18400   50.16900    -999.25    -999.25    -999.25  -36.71800   -5.39400   12.88800   50.16900   44.62400    -999.25   12.88800   -3.43300
 13650.00000   14.49600   70.78400   35.05800   14.49600   70.78400   49.90700    -999.25    -999.25    -999.25  -41.44300   -5.83300   13.02400   49.90700   35.05800    -999.25   13.02400  -29.19500
 13700.00000   10.40600   97.29300   43.76200   10.40600   97.29300   49.31900    -999.25    -999.25    -999.25  -50.33400  -10.43800   13.11400   49.31900   43.76200    -999.25   13.11400  -48.71100
 13750.00000   35.45100   28.60300   22.97000   35.45100   28.60300   53.01400    -999.25    -999.25    -999.25  -73.84700  -29.66500   13.50700   53.01400   22.97000    -999.25   13.50700  -75.69700
 13800.00000   16.61500   71.97000   20.51300   16.61500   71.97000   48.99400    -999.25    -999.25    -999.25  -75.52400  -27.05600   13.23900   48.99400   20.51300    -999.25   13.23900  -81.90900
 13850.00000    6.95300  155.90900   31.30400    6.95300  155.90900   53.25500    -999.25    -999.25    -999.25  -70.96700  -18.21310   14.01300   53.25500   31.30400    -999.25   14.01300  -90.84600
 13900.00000   19.61600   52.23900   37.72400   19.61600   52.23900   51.18600    -999.25    -999.25    -999.25  -65.10000   -8.06010   13.57800   51.18600   37.72400    -999.25   13.57800  -71.72700
 13950.00000    9.44200   99.66700   45.57100    9.44200   99.66700   48.55900    -999.25    -999.25    -999.25  -65.42800   -5.29530   12.95600   48.55900   45.57100    -999.25   12.95600  -87.54900
 14000.00000   17.46500   60.80500   32.90800   17.46500   60.80500   50.14600    -999.25    -999.25    -999.25  -85.42600  -24.23230   13.34000   50.14600   32.90800    -999.25   13.34000  -87.07500
 14050.00000   14.29400   68.28800   28.59000   14.29400   68.28800   54.38400    -999.25    -999.25    -999.25  -88.33300  -26.07840   13.92400   54.38400   28.59000    -999.25   13.92400 -108.84800
 14100.00000    2.79900  168.41500   31.87700    2.79900  168.41500   49.15500    -999.25    -999.25    -999.25  -88.41000  -25.09440   12.86600   49.15500   31.87700    -999.25   12.86600  -99.10200
 14150.00000    5.37200  104.27000   31.92900    5.37200  104.27000   49.12600    -999.25    -999.25    -999.25  -95.12400  -30.74740   13.51000   49.12600   31.92900    -999.25   13.51000  -88.67100
 14200.00000   13.96400   78.78800   31.96300   13.96400   78.78800   52.32300    -999.25    -999.25    -999.25  -98.30500  -32.86740   13.32800   52.32300   31.96300    -999.25   13.32800  -92.97000
 14250.00000   48.89800   19.67900   20.96500   48.89800   19.67900   54.36600    -999.25    -999.25    -999.25  -99.01700  -32.51840   12.98900   54.36600   20.96500    -999.25   12.98900  -95.15200
 14300.00000   18.71000   50.89200   20.09000   18.71000   50.89200   49.60600    -999.25    -999.25    -999.25  -99.62400  -32.06450   13.12400   49.60600   20.09000    -999.25   13.12400  -81.91900
 14350.00000    8.09500  112.88800   47.24300    8.09500  112.88800   48.14200    -999.25    -999.25    -999.25  -91.25200  -22.63150   12.95800   48.14200   47.24300    -999.25   12.95800  -89.78300
 14400.00000   19.43600   48.90800   23.16900   19.43600   48.90800   48.06400    -999.25    -999.25    -999.25 -106.02000  -36.33850   12.90100   48.06400   23.16900    -999.25   12.90100  -94.28400
 14450.00000   14.17300   65.40100   35.65300   14.17300   65.40100   47.91600    -999.25    -999.25    -999.25 -103.34400  -32.60150   12.99100   47.91600   35.65300    -999.25   12.99100  -86.75600
 14500.00000   42.77100   26.35500   20.20100   42.77100   26.35500   58.16100    -999.25    -999.25    -999.25  -93.60900  -21.80550   13.48000   58.16100   20.20100    -999.25   13.48000  -82.17900
