~Version ---------------------------------------------------
VERS. 2.0 : CWLS log ASCII Standard -VERSION 2.0
WRAP. YES : MULTIPLE LINES PER DEPTH STEP
~Well ------------------------------------------------------
STRT.FT                   4000.0 : START DEPTH
STOP.FT                   9350.0 : STOP DEPTH
STEP.FT                 50.00000 : STEP LENGTH
NULL.                    -999.25 : NULL VALUE
COMP. CHAMPLIN PETROLEUM COMPANY : COMPANY
WELL.            KNESEK LOUIS #1 : WELL
FLD .                   GIDDINGS : FIELD
LOC .                            : LOCATION
CNTY.                   BURLESON : COUNTY
STAT.                      TEXAS : STATE
CTRY.   UNITED STATES OF AMERICA : COUNTRY
SRVC.               Schlumberger : SERVICE COMPANY
DATE.                05-Nov-1980 : LOGDATE
API .             42051309430000 : API NUMBER
UWI .             42051309430000 : UNIQUE WELL ID
SLAT.WGS84         30.3835391031 : SURFACE LATITUDE
SLON.WGS84        -96.6414807303 : SURFACE LONGITUDE
~Curve Information -----------------------------------------
DEPT    .FT    : DEPTH FEET
CALWS   .IN    : CALIPER [DCALED+8.75]
CONDWS  .MMHO  : CONDUCTIVITY [1000/DRESWS]
DCALRED .IN    : DIFFERENTIAL CALIPER FROM RESISTIVITY LOG
DCORWS  .G/C3  : DENSITY CORRECTION [DRHOED]
DENWS   .G/C3  : BULK DENSITY [CALCULATED FROM SPL DPHISSED <7504F> DPHILSED]
DPHILSED.V/V   : DENSITY POROSITY [M=2.71 F=1.0] FROM DENSITY LOG
DPHISSED.V/V   : DENSITY POROSITY [M=2.65 F=1.0] FROM DENSITY LOG
DPOWS   .V/V   : DENSITY POROSITY [M=2.71 F=1.0] [CALCULATED FROM DENWS]
DRESWS  .OHMM  : DEEP RESISTIVITY [ILDED]
DRHOED  .G/C3  : DENSITY CORRECTION FROM DENSITY LOG
GRRED   .GAPI  : GAMMA RAY FROM RESISTIVITY LOG
GRWS    .GAPI  : GAMMA RAY [GRRED, CSG ABOVE 3971F]
ILDED   .OHMM  : INDUCTION LOG DEEP RESISTIVITY
ILMED   .OHMM  : INDUCTION LOG MEDIUM RESISTIVITY
MRESWS  .OHMM  : MEDIUM RESISTIVITY [ILMED]
NPHILSED.V/V   : NEUTRON POROSITY LIMESTONE FROM DENSITY LOG
NPHISSED.V/V   : NEUTRON POROSITY SANDSTONE FROM DENSITY LOG
NPOWS   .V/V   : NEUTRON POROSITY LIMESTONE [CONVERTED NPHISSED TO LIMESTONE SPL WITH NPHILSED @7504F, CSG ABOVE 3971F]
SFLUED  .OHMM  : SPHERICALLY FOCUSED LOG RESISTIVITY
SPRED   .MV    : SPONTANEOUS POTENTIAL FROM RESISTIVITY LOG
SPWS    .MV    : SPONTANEOUS POTENTIAL [BASELINE 0 MV] [SPRED]
SRESWS  .OHMM  : SHALLOW RESISTIVITY [SFLUED]
~Params ----------------------------------------------------
PD  .                     GL : PERMANENT DATUM
EPD .FT                  332 : ELEVATION PERMANENT DATUM
LMF .                     KB : LOG MEASURED FROM
DAPD.FT                   14 : FEET ABOVE PERMANENT DATUM
DMF .                     KB : DRILLING MEASURED FROM
EKB .FT                  346 : KELLY BUSHING
EDF .FT                  345 : DRILLING FLOOR
EGL .FT                  332 : GROUND LEVEL
DATE.               11/05/80 : RUN DATE
RUN .                      1 : RUN NUMBER
DD  .FT                 9351 : DEPTH DRILLER
DL  .FT                 9370 : DEPTH LOGGER
BLI .FT                 9364 : BOTTOM LOG INTERVAL
TLI .FT                 3971 : TOP LOG INTERVAL
CS  .IN                9.625 : CASING SIZE
CBD .FT                 3981 : CASING BOTTOM DRILLER
CBL .FT                 3971 : CASING BOTTOM LOGGER
BS  .IN                 8.75 : BIT SIZE
BSD .FT                 9351 : BIT SIZE AT DEPTH
DFT .                  BENEX : DRILLING FLUID TYPE
DFD .                    9.3 : DRILLING FLUID DENSITY
DFV .                     60 : DRILLING FLUID VISCOSITY
DFPH.                    8.5 : DRILLING FLUID PH
DFL .                    8.8 : DRILLING FLUID LOSS
MSS .               CIRC PIT : MUD SAMPLE SOURCE
RMS .OHMM               1.01 : RESISTIVITY MUD SAMPLE
MST .DEGF                116 : MUD SAMPLE TEMPERATURE
RMF .OHMM               1.72 : RESISTIVITY MUD FILTRATE SAMPLE
MFST.DEGF                 65 : MUD FILTRATE SAMPLE TEMPERATURE
RMC .OHMM                1.5 : RESISTIVITY MUD CAKE
MCST.DEGF                116 : MUD CAKE SAMPLE TEMPERATURE
MFSS.                      M : MUD FILTRATE SAMPLE SOURCE
MCSS.                      C : MUD CAKE SAMPLE SOURCE
RMB .OHMM               0.55 : RESISTIVITY MUD AT BHT
TCS .HRS                 100 : TIME CIRCULATED STOPPED
TLAB.HRS                 700 : TIME LOGGER AT BOTTOM
LUN .                   8176 : LOGGING UNIT NUMBER
LUL .                BRENHAM : LOGGING UNIT LOCATION
ENGI.           WRIGHT BRUCK : RECORDING ENGINEER
WITN.                 SCHELL : WITNESSED BY
CLNT.                A2DTECH : CLIENT CODE
ORIG.            2" 5" PRINT : ORIGIN OF DATA
UWI .         42051309430000 : UNIQUE WELL ID
DICO. A2D Technologies, Inc. : DIGITIZING COMPANY
~Other -----------------------------------------------------
~ASCII -----------------------------------------------------
# ...
 7200.00000   10.28580  522.35690    1.53580    0.09710    2.49390    -999.25    0.09460    0.12640    1.91440    0.09710  125.67840  125.67840    1.91440    1.87720    1.87720    -999.25    0.29420    0.25020    2.22170  -22.98910   -2.61580    2.22170
 7250.00000    9.96000  528.56920    1.21000    -999.25    2.53700    -999.25    0.06850    0.10120    1.89190    -999.25   90.23550   90.23550    1.89190    1.99730    1.99730    -999.25    0.26920    0.22520    2.08160  -23.22000   -2.92430    2.08160
 7300.00000   10.08280  518.59150    1.33280    -999.25    2.53850    -999.25    0.06760    0.10030    1.92830    -999.25   85.75850   85.75850    1.92830    1.99830    1.99830    -999.25    0.25300    0.20910    2.23950  -24.69970   -4.48160    2.23950
 7350.00000   10.48610  594.35360    1.73610    -999.25    2.51980    -999.25    0.07890    0.11120    1.68250    -999.25   87.76990   87.76990    1.68250    1.73500    1.73500    -999.25    0.30190    0.25790    1.91110  -26.34580   -6.20530    1.91110
 7400.00000   10.39610  540.39450    1.64610    -999.25    2.47920    -999.25    0.10350    0.13500    1.85050    -999.25   99.87500   99.87500    1.85050    1.91220    1.91220    -999.25    0.27670    0.23270    2.06600  -26.48390   -6.42100    2.06600
 7450.00000   10.80900  633.59310    2.05900    0.10050    2.56820    -999.25    0.04960    0.08290    1.57830    0.10050  100.34910  100.34910    1.57830    1.66900    1.66900    -999.25    0.25510    0.21120    1.99750  -25.71720   -5.73190    1.99750
 7500.00000   10.79550  693.81810    2.04550    -999.25    2.46040    -999.25    0.11490    0.14600    1.44130    -999.25   96.98640   96.98640    1.44130    1.51290    1.51290    -999.25    0.24850    0.20460    1.70320  -24.83910   -4.93140    1.70320
 7550.00000   10.54040  584.31690    1.79040    0.08890    2.56520    0.08470    -999.25    0.08470    1.71140    0.08890   86.51550   86.51550    1.71140    1.79020    1.79020    0.22260    -999.25    0.22260    1.94550  -25.49280   -5.66270    1.94550
 7600.00000    9.57330  275.42140    0.82330    0.02540    2.61680    0.05450    -999.25    0.05450    3.63080    0.02540   55.30790   55.30790    3.63080    3.77460    3.77460    0.11920    -999.25    0.11920    4.33880  -26.92810   -7.17560    4.33880
 7650.00000    9.31890  246.87700    0.56890    0.00570    2.60810    0.05960    -999.25    0.05960    4.05060    0.00570   59.44190   59.44190    4.05060    3.95050    3.95050    0.11400    -999.25    0.11400    4.75740  -25.77310   -6.09820    4.75740
 7700.00000    9.26700  153.82490    0.51700    0.01320    2.59560    0.06690    -999.25    0.06690    6.50090    0.01320   50.30550   50.30550    6.50090    5.84310    5.84310    0.08270    -999.25    0.08270    6.02750  -31.28440  -11.68710    6.02750
 7750.00000    9.46840  390.86930    0.71840    0.09690    2.56160    0.08680    -999.25    0.08680    2.55840    0.09690   78.38040   78.38040    2.55840    2.65660    2.65660    0.19260    -999.25    0.19260    2.84410  -22.99040   -3.47070    2.84410
 7800.00000    9.61010  412.57530    0.86010    0.09670    2.57900    0.07660    -999.25    0.07660    2.42380    0.09670   98.78590   98.78590    2.42380    2.67490    2.67490    0.18930    -999.25    0.18930    2.91990  -22.44770   -3.00550    2.91990
 7850.00000    9.58430  379.30510    0.83430    0.10110    2.56020    0.08760    -999.25    0.08760    2.63640    0.10110  100.13680  100.13680    2.63640    2.75770    2.75770    0.18420    -999.25    0.18420    2.89160  -20.65850   -1.29390    2.89160
 7900.00000    9.69080  416.07720    0.94080    0.10140    2.62550    0.04940    -999.25    0.04940    2.40340    0.10140   92.87720   92.87720    2.40340    2.49850    2.49850    0.17790    -999.25    0.17790    2.87400  -20.48690   -1.19990    2.87400
 7950.00000    9.36860  416.37170    0.61860    0.09850    2.59650    0.06640    -999.25    0.06640    2.40170    0.09850   95.07740   95.07740    2.40170    2.52890    2.52890    0.18700    -999.25    0.18700    3.00160  -19.63530   -0.42590    3.00160
 8000.00000    9.43600  375.46000    0.68600    0.03120    2.60790    0.05970    -999.25    0.05970    2.66340    0.03120   86.67000   86.67000    2.66340    2.76400    2.76400    0.17160    -999.25    0.17160    3.48530  -21.82980   -2.98700    3.48530
 8050.00000    9.40440  217.07980    0.65440    0.02360    2.63070    0.04640    -999.25    0.04640    4.60660    0.02360   61.89440   61.89440    4.60660    4.82370    4.82370    0.12980    -999.25    0.12980    5.86230  -22.52980   -4.07210    5.86230
 8100.00000   11.02890  507.07370    2.27890    -999.25    2.60300    0.06260    -999.25    0.06260    1.97210    -999.25  103.54770  103.54770    1.97210    2.08750    2.08750    0.24580    -999.25    0.24580    2.37420  -20.91790   -2.84520    2.37420
 8150.00000   11.03950  543.50780    2.28950    -999.25    2.55100    0.09300    -999.25    0.09300    1.83990    -999.25   98.25600   98.25600    1.83990    1.91780    1.91780    0.24860    -999.25    0.24860    2.23300  -20.27040   -2.58270    2.23300
 8200.00000   11.05150  492.92650    2.30150    -999.25    2.59490    0.06730    -999.25    0.06730    2.02870    -999.25   89.99580   89.99580    2.02870    2.12380    2.12380    0.24090    -999.25    0.24090    2.51150  -19.43310   -2.13050    2.51150
 8250.00000   11.14060  484.37880    2.39060    -999.25    2.64380    0.03870    -999.25    0.03870    2.06450    -999.25   99.62110   99.62110    2.06450    2.14900    2.14900    0.22060    -999.25    0.22060    2.60850  -18.55900   -1.64140    2.60850
 8300.00000   11.39210  508.02680    2.64210    -999.25    2.57640    0.07810    -999.25    0.07810    1.96840    -999.25   98.43910   98.43910    1.96840    2.04900    2.04900    0.23150    -999.25    0.23150    2.47050  -18.11090   -1.57830    2.47050
 8350.00000   11.47120  509.50220    2.72120    -999.25    2.56620    0.08410    -999.25    0.08410    1.96270    -999.25  101.28090  101.28090    1.96270    2.04270    2.04270    0.23570    -999.25    0.23570    2.43010  -17.98250   -1.83500    2.43010
 8400.00000   10.76090  511.58750    2.01090    -999.25    2.59560    0.06690    -999.25    0.06690    1.95470    -999.25   99.98680   99.98680    1.95470    2.03540    2.03540    0.24500    -999.25    0.24500    2.45340  -17.14920   -1.38670    2.45340
 8450.00000   10.76230  479.20260    2.01230    -999.25    2.59150    0.06930    -999.25    0.06930    2.08680    -999.25  100.92340  100.92340    2.08680    2.17190    2.17190    0.21050    -999.25    0.21050    2.60030  -16.91180   -1.69390    2.60030
 8500.00000   11.41980  504.00690    2.66980    -999.25    2.62160    0.05170    -999.25    0.05170    1.98410    -999.25  101.73360  101.73360    1.98410    2.06500    2.06500    0.23140    -999.25    0.23140    2.38790  -17.12400   -2.50120    2.38790
 8550.00000    9.45100  226.04490    0.70100    0.00910    2.61650    0.05470    -999.25    0.05470    4.42390    0.00910   42.08690   42.08690    4.42390    5.35040    5.35040    0.06700    -999.25    0.06700   14.06900  -18.92110   -4.89330   14.06900
 8600.00000    9.62890  106.69170    0.87890    0.02090    2.64720    0.03670    -999.25    0.03670    9.37280    0.02090   38.08020   38.08020    9.37280   11.78430   11.78430    0.04370    -999.25    0.04370   20.89000  -20.62310   -7.19040   20.89000
 8650.00000    9.35330  124.16810    0.60330    0.02840    2.65730    0.03080    -999.25    0.03080    8.05360    0.02840   42.81670   42.81670    8.05360    9.87300    9.87300    0.07840    -999.25    0.07840    8.11090  -21.93340   -9.09570    8.11090
 8700.00000    9.27310   64.08240    0.52310    0.01390    2.62350    0.05060    -999.25    0.05060   15.60490    0.01390   47.74860   47.74860   15.60490   13.37160   13.37160    0.06120    -999.25    0.06120   16.39180  -25.95230  -13.70970   16.39180
 8750.00000    9.26110   67.56760    0.51110    0.02450    2.61680    0.05450    -999.25    0.05450   14.80000    0.02450   56.42440   56.42440   14.80000   11.61400   11.61400    0.06770    -999.25    0.06770   13.96930  -22.55020  -10.90260   13.96930
