~Version ---------------------------------------------------
VERS. 2.0 : CWLS log ASCII Standard -VERSION 2.0
WRAP. YES : MULTIPLE LINES PER DEPTH STEP
~Well ------------------------------------------------------
STRT.FT                   3500.0 : START DEPTH
STOP.FT                  16150.0 : STOP DEPTH
STEP.FT                 50.00000 : STEP LENGTH
NULL.                    -999.25 : NULL VALUE
COMP. CHEYENNE PETROLEUM COMPANY : COMPANY
WELL.              RUBY YOUNG #1 : WELL
FLD .                    WILDCAT : FIELD
LOC .                            : LOCATION
CNTY.                     KARNES : COUNTY
STAT.                      TEXAS : STATE
CTRY.   UNITED STATES OF AMERICA : COUNTRY
SRVC.               Schlumberger : SERVICE COMPANY
DATE.                06-Jan-1997 : LOGDATE
API .             42255313650000 : API NUMBER
UWI .             42255313650000 : UNIQUE WELL ID
SLAT.WGS84         28.8201979392 : SURFACE LATITUDE
SLON.WGS84        -97.8404688792 : SURFACE LONGITUDE
~Curve Information -----------------------------------------
DEPT    .FT    : DEPTH FEET
ASFLED  .OHMM  : AMPLIFIED SPHERICALLY FOCUSED LOG RESISTIVITY
CALWS   .IN    : CALIPER [DCALRED+9.875]<15054>[DCALRED+6.5]
CONDWS  .MMHO  : CONDUCTIVITY [1000/DRESWS]
DCALRED .IN    : DIFFERENTIAL CALIPER FROM RESISTIVITY LOG
DCORWS  .G/C3  : DENSITY CORRECTION [DRHOED]
DENWS   .G/C3  : BULK DENSITY [M=2.71 F=1.0] [CALCULATED FROM DPOWS]
DPHILSED.V/V   : DENSITY POROSITY LIMESTONE[M=2.71 F=1.0] FROM COMPOSITE RES. LOG
DPOWS   .V/V   : DENSITY POROSITY [DPHILSED]
DRESWS  .OHMM  : DEEP RESISTIVITY [IDPHED]
DRHOED  .G/C3  : DENSITY CORRECTION FROM COMPOSITE RES. LOG
DTLFED  .US/F  : DELTA TIME LONG SPACING FAR DETECTOR COMPOSITE RES. LOG
DTLNED  .US/F  : DELTA TIME LONG SPACING NEAR DETECTOR COMPOSITE RES. LOG
DTWS    .US/F  : DELTA TIME [DTLFED]
GRRED   .GAPI  : GAMMA RAY FROM RESISTIVITY LOG
GRWS    .GAPI  : GAMMA RAY [GRRED]
IDPHED  .OHMM  : INDUCTION DEEP PHASE RESISTIVITY
IMPHED  .OHMM  : INDUCTION MEDIUM PHASE RESISTIVITY
MRESWS  .OHMM  : MEDIUM RESISTIVITY [IMPHED]
NPHILSED.V/V   : NEUTRON POROSITY LIMESTONE FROM COMPOSITE RES. LOG
NPOWS   .V/V   : NEUTRON POROSITY LIMESTONE [NPHILSED]
SFLUED  .OHMM  : SPHERICALLY FOCUSED LOG RESISTIVITY
SPRED   .MV    : SPONTANEOUS POTENTIAL FROM RESISTIVITY LOG
SPWS    .MV    : SPONTANEOUS POTENTIAL [BASELINE 0 MV] [SPRED]
SRESWS  .OHMM  : SHALLOW RESISTIVITY [ASFLED], SPLICED WITH [SFLUED] AT 12400'
TENRED  .LBF   : TENSION FROM RESISTIVITY LOG
~Params ----------------------------------------------------
PD  .                     GL : PERMANENT DATUM
EPD .FT                258.6 : ELEVATION PERMANENT DATUM
LMF .                     KB : LOG MEASURED FROM
DAPD.FT                   25 : FEET ABOVE PERMANENT DATUM
DMF .                     KB : DRILLING MEASURED FROM
EKB .FT                284.5 : KELLY BUSHING
EDF .FT                283.6 : DRILLING FLOOR
EGL .FT                258.6 : GROUND LEVEL
DATE.               01/06/97 : RUN DATE
RUN .                      2 : RUN NUMBER
DD  .FT                16145 : DEPTH DRILLER
DL  .FT                16144 : DEPTH LOGGER
BLI .FT                16142 : BOTTOM LOG INTERVAL
TLI .FT                15080 : TOP LOG INTERVAL
CS  .IN                7.625 : CASING SIZE
CBD .FT                15084 : CASING BOTTOM DRILLER
CBL .FT                15080 : CASING BOTTOM LOGGER
BS  .IN                  6.5 : BIT SIZE
BSD .FT                16145 : BIT SIZE AT DEPTH
DFT .              LIG DESCO : DRILLING FLUID TYPE
DFD .                   15.9 : DRILLING FLUID DENSITY
DFV .                     47 : DRILLING FLUID VISCOSITY
DFPH.                   10.3 : DRILLING FLUID PH
DFL .                    5.2 : DRILLING FLUID LOSS
MSS .                MUD PIT : MUD SAMPLE SOURCE
RMS .OHMM                0.6 : RESISTIVITY MUD SAMPLE
MST .DEGF                 75 : MUD SAMPLE TEMPERATURE
RMF .OHMM                0.5 : RESISTIVITY MUD FILTRATE SAMPLE
MFST.DEGF                 75 : MUD FILTRATE SAMPLE TEMPERATURE
RMC .OHMM               0.92 : RESISTIVITY MUD CAKE
MCST.DEGF                 75 : MUD CAKE SAMPLE TEMPERATURE
MFSS.               MEASURED : MUD FILTRATE SAMPLE SOURCE
MCSS.             CALCULATED : MUD CAKE SAMPLE SOURCE
RMB .OHMM               0.13 : RESISTIVITY MUD AT BHT
TCS .HRS                   0 : TIME CIRCULATED STOPPED
TLAB.HRS                1530 : TIME LOGGER AT BOTTOM
LUN .                   2020 : LOGGING UNIT NUMBER
LUL .               VICTORIA : LOGGING UNIT LOCATION
ENGI.                  NAHRI : RECORDING ENGINEER
WITN.    ZAUNBRECHER BRANDON : WITNESSED BY
CLNT.                A2DTECH : CLIENT CODE
ORIG.               5" PRINT : ORIGIN OF DATA
UWI .         42255313650000 : UNIQUE WELL ID
DICO. A2D Technologies, Inc. : DIGITIZING COMPANY
~Other -----------------------------------------------------
MUD WEIGHT USED 9.6 TO 18.8 WHILE DRILLING
~ASCII -----------------------------------------------------
# ...
 6300.00000    3.72430    -999.25  731.09890    -999.25    -999.25    -999.25    -999.25    -999.25    1.36780    -999.25   90.22060   90.24320   90.22060   47.88130   47.88130    1.36780    2.48160    2.48160    -999.25    -999.25    3.96350    -999.25    -999.25    3.72430 2811.41600
 6350.00000    1.17870    -999.25 1444.36790    -999.25    -999.25    -999.25    -999.25    -999.25    0.69230    -999.25   93.55290   93.96580   93.55290   36.15430   36.15430    0.69230    0.89110    0.89110    -999.25    -999.25    -999.25    -999.25    -999.25    1.17870 2814.06200
 6400.00000    0.57960    -999.25 2254.91630    -999.25    -999.25    -999.25    -999.25    -999.25    0.44350    -999.25   94.37150   94.59280   94.37150   35.47390   35.47390    0.44350    0.49420    0.49420    -999.25    -999.25    -999.25    -999.25    -999.25    0.57960 2837.73800
 6450.00000    1.39530    -999.25 1281.75320    -999.25    -999.25    -999.25    -999.25    -999.25    0.78020    -999.25   92.88390   92.72340   92.88390   36.88950   36.88950    0.78020    0.90800    0.90800    -999.25    -999.25    2.03930    -999.25    -999.25    1.39530 2856.29050
 6500.00000    3.73770    -999.25  722.06290    -999.25    -999.25    -999.25    -999.25    -999.25    1.38490    -999.25   89.15530   89.41120   89.15530   47.85300   47.85300    1.38490    2.51670    2.51670    -999.25    -999.25    3.92780    -999.25    -999.25    3.73770 2930.61430
 6550.00000    3.46990    -999.25  574.02600    -999.25    -999.25    -999.25    -999.25    -999.25    1.74210    -999.25   92.46070   91.77240   92.46070   68.46210   68.46210    1.74210    2.87310    2.87310    -999.25    -999.25    3.65170    -999.25    -999.25    3.46990 2951.35720
 6600.00000    3.98690    -999.25  728.94960    -999.25    -999.25    -999.25    -999.25    -999.25    1.37180    -999.25   88.56000   88.27410   88.56000   49.14420   49.14420    1.37180    2.58520    2.58520    -999.25    -999.25    4.13860    -999.25    -999.25    3.98690 2898.99760
 6650.00000    2.69930    -999.25 1021.29870    -999.25    -999.25    -999.25    -999.25    -999.25    0.97910    -999.25   92.53200   93.61570   92.53200   41.90880   41.90880    0.97910    1.66300    1.66300    -999.25    -999.25    2.79360    -999.25    -999.25    2.69930 2915.48240
 6700.00000    1.54810    -999.25  623.34390    -999.25    -999.25    -999.25    -999.25    -999.25    1.60430    -999.25   99.75140  101.72850   99.75140   75.00550   75.00550    1.60430    1.82630    1.82630    -999.25    -999.25    -999.25    -999.25    -999.25    1.54810 2943.66140
 6750.00000    2.09650    -999.25  484.78770    -999.25    -999.25    -999.25    -999.25    -999.25    2.06280    -999.25   94.63420   95.08310   94.63420   72.21040   72.21040    2.06280    2.19300    2.19300    -999.25    -999.25    1.98970    -999.25    -999.25    2.09650 2968.19290
 6800.00000    3.99490    -999.25  702.13510    -999.25    -999.25    -999.25    -999.25    -999.25    1.42420    -999.25   89.59480   90.21490   89.59480   50.60350   50.60350    1.42420    2.20130    2.20130    -999.25    -999.25    4.16910    -999.25    -999.25    3.99490 3038.77170
 6850.00000    1.84610    -999.25  567.97610    -999.25    -999.25    -999.25    -999.25    -999.25    1.76060    -999.25   97.30770   97.36740   97.30770   75.01670   75.01670    1.76060    1.84690    1.84690    -999.25    -999.25    -999.25    -999.25    -999.25    1.84610 2979.44800
 6900.00000    4.12180    -999.25  544.03680    -999.25    -999.25    -999.25    -999.25    -999.25    1.83810    -999.25   89.70080   90.53580   89.70080   47.71490   47.71490    1.83810    2.88430    2.88430    -999.25    -999.25    4.01660    -999.25    -999.25    4.12180 3048.08400
 6950.00000    1.65580    -999.25  623.72010    -999.25    -999.25    -999.25    -999.25    -999.25    1.60330    -999.25   95.70910   93.09150   95.70910   72.26580   72.26580    1.60330    1.63440    1.63440    -999.25    -999.25    -999.25    -999.25    -999.25    1.65580 3071.60300
 7000.00000    1.03740    -999.25 1043.45510    -999.25    -999.25    -999.25    -999.25    -999.25    0.95840    -999.25  108.13570  107.25580  108.13570   70.29240   70.29240    0.95840    0.82590    0.82590    -999.25    -999.25    -999.25    -999.25    -999.25    1.03740 3066.12890
 7050.00000    2.76390    -999.25  372.42770    -999.25    -999.25    -999.25    -999.25    -999.25    2.68510    -999.25   92.39910   93.30130   92.39910   76.00860   76.00860    2.68510    2.52080    2.52080    -999.25    -999.25    2.60850    -999.25    -999.25    2.76390 3043.97630
 7100.00000    6.43520    -999.25  301.61310    -999.25    -999.25    -999.25    -999.25    -999.25    3.31550    -999.25   78.57230   79.64130   78.57230   36.80220   36.80220    3.31550    4.68880    4.68880    -999.25    -999.25    7.84350    -999.25    -999.25    6.43520 3053.86110
 7150.00000    3.81260    -999.25  334.17680    -999.25    -999.25    -999.25    -999.25    -999.25    2.99240    -999.25   87.99770   89.96800   87.99770   64.30140   64.30140    2.99240    3.42680    3.42680    -999.25    -999.25    5.18910    -999.25    -999.25    3.81260 3106.39140
 7200.00000    3.97290    -999.25  522.56120    -999.25    -999.25    -999.25    -999.25    -999.25    1.91370    -999.25   90.34860   89.73120   90.34860   50.42130   50.42130    1.91370    2.86860    2.86860    -999.25    -999.25    4.14460    -999.25    -999.25    3.97290 3141.87110
 7250.00000    2.53780    -999.25  403.08440    -999.25    -999.25    -999.25    -999.25    -999.25    2.48090    -999.25   92.68940   93.02880   92.68940   66.01280   66.01280    2.48090    2.31190    2.31190    -999.25    -999.25    2.30160    -999.25    -999.25    2.53780 3134.97240
 7300.00000    2.08920    -999.25  497.67580    -999.25    -999.25    -999.25    -999.25    -999.25    2.00930    -999.25   94.34950   95.44980   94.34950   64.90190   64.90190    2.00930    1.94180    1.94180    -999.25    -999.25    2.06410    -999.25    -999.25    2.08920 3121.09960
 7350.00000    1.93610    -999.25  482.35600    -999.25    -999.25    -999.25    -999.25    -999.25    2.07320    -999.25   94.33310   96.95430   94.33310   73.33060   73.33060    2.07320    1.98890    1.98890    -999.25    -999.25    -999.25    -999.25    -999.25    1.93610 3169.65940
 7400.00000    2.29730    -999.25  458.04170    -999.25    -999.25    -999.25    -999.25    -999.25    2.18320    -999.25   91.06820   92.00500   91.06820   58.06830   58.06830    2.18320    2.09830    2.09830    -999.25    -999.25    2.41130    -999.25    -999.25    2.29730 3143.17240
 7450.00000    2.48250    -999.25  413.03780    -999.25    -999.25    -999.25    -999.25    -999.25    2.42110    -999.25   91.17950   90.34230   91.17950   60.92390   60.92390    2.42110    2.31520    2.31520    -999.25    -999.25    2.64390    -999.25    -999.25    2.48250 3125.98510
 7500.00000    2.86730    -999.25  461.51560    -999.25    -999.25    -999.25    -999.25    -999.25    2.16680    -999.25   86.73600   85.30150   86.73600   60.63890   60.63890    2.16680    2.73510    2.73510    -999.25    -999.25    2.18680    -999.25    -999.25    2.86730 3179.92240
 7550.00000    2.09340    -999.25  495.44490    -999.25    -999.25    -999.25    -999.25    -999.25    2.01840    -999.25   96.08890   95.33010   96.08890   64.82360   64.82360    2.01840    1.92970    1.92970    -999.25    -999.25    2.08050    -999.25    -999.25    2.09340 3209.88620
 7600.00000    2.26980    -999.25  486.01180    -999.25    -999.25    -999.25    -999.25    -999.25    2.05760    -999.25   90.17550   90.09080   90.17550   64.18710   64.18710    2.05760    2.08910    2.08910    -999.25    -999.25    2.46880    -999.25    -999.25    2.26980 3196.76030
 7650.00000    2.32480    -999.25  439.62850    -999.25    -999.25    -999.25    -999.25    -999.25    2.27460    -999.25   93.32550   92.50640   93.32550   65.05010   65.05010    2.27460    2.11040    2.11040    -999.25    -999.25    2.34900    -999.25    -999.25    2.32480 3197.64400
