~Version ---------------------------------------------------
VERS. 2.0 : CWLS log ASCII Standard -VERSION 2.0
WRAP. YES : MULTIPLE LINES PER DEPTH STEP
~Well ------------------------------------------------------
STRT.FT                    700.0 : START DEPTH
STOP.FT                   6350.0 : STOP DEPTH
STEP.FT                 50.00000 : STEP LENGTH
NULL.                    -999.25 : NULL VALUE
COMP. TEXLARK EXPLORATION CO INC : COMPANY
WELL.            V. STAVINOHA #1 : WELL
FLD .                  CINDY ANN : FIELD
LOC .                            : LOCATION
CNTY.                     WILSON : COUNTY
STAT.                      TEXAS : STATE
CTRY.   UNITED STATES OF AMERICA : COUNTRY
SRVC.                   Gearhart : SERVICE COMPANY
DATE.                31-Mar-1982 : LOGDATE
API .             42493310750000 : API NUMBER
UWI .             42493310750000 : UNIQUE WELL ID
SLAT.WGS84         29.1162057424 : SURFACE LATITUDE
SLON.WGS84        -98.0533635571 : SURFACE LONGITUDE
~Curve Information -----------------------------------------
DEPT   .FT    : DEPTH FEET
CALWS  .IN    : CALIPER [CALXRED]
CALXDED.IN    : CALIPER X FROM DENSITY LOG
CALXRED.IN    : CALIPER X FROM RESISTIVITY LOG
CALYDED.IN    : CALIPER Y FROM DENSITY LOG
CDLSSED.V/V   : COMPENSATED DENSITY POROSITY SANDSTONE FROM DENSITY LOG
CNSSSED.V/V   : COMPENSATED NEUTRON POROSITY SANDSTONE FROM DENSITY LOG
CONDWS .MMHO  : CONDUCTIVITY [1000/DRESWS]
DCORWS .G/C3  : DENSITY CORRECTION [DRHOED]
DENWS  .G/C3  : BULK DENSITY [M=2.65 F=1.0] [RHOBED]
DPOWS  .V/V   : DENSITY POROSITY [M=2.65 F=1.0] [CALCULATED FROM DENWS]
DRESWS .OHMM  : DEEP RESISTIVITY [RILDED]
DRHOED .G/C3  : DENSITY CORRECTION FROM DENSITY LOG
DTED   .US/F  : DELTA TIME FROM SONIC LOG
DTWS   .US/F  : DELTA TIME [DTED]
GRDED  .GAPI  : GAMMA RAY FROM DENSITY LOG
GRNED  .GAPI  : GAMMA RAY FROM NEUTRON LOG [ADJ TO GRRED]
GRRED  .GAPI  : GAMMA RAY FROM RESISTIVITY LOG
GRWS   .GAPI  : GAMMA RAY [SPL GRRED <6056F> GRNED, CSG ABOVE 732F ALSO CASED HOLE DATA FROM 6056-BOTTOM AND BULK SHIFTED +20GAPI]
MRESWS .OHMM  : MEDIUM RESISTIVITY [RILMED]
NEUTED .NAPI  : NEUTRON FROM NEUTRON LOG [ADJ TO GRRED]
NEUTWS .NAPI  : NEUTRON [NEUTED]
NPOWS  .V/V   : NEUTRON POROSITY SANDSTONE [CNSSSED]
RHOBED .G/C3  : BULK DENSITY FROM DENSITY LOG
RILDED .OHMM  : INDUCTION LOG DEEP RESISTIVITY
RILMED .OHMM  : INDUCTION LOG MEDIUM RESISTIVITY
RLLED  .OHMM  : LATEROLOG RESISTIVITY
SPRED  .MV    : SPONTANEOUS POTENTIAL FROM RESISTIVITY LOG
SPWS   .MV    : SPONTANEOUS POTENTIAL [BASELINE 0 MV] [SPRED]
SRESWS .OHMM  : SHALLOW RESISTIVITY [RLLED]
TENDED .LBF   : TENSION FROM DENSITY LOG
TENRED .LBF   : TENSION FROM RESISTIVITY LOG
~Params ----------------------------------------------------
PD  .                     GL : PERMANENT DATUM
EPD .FT                416.4 : ELEVATION PERMANENT DATUM
LMF .                    TKB : LOG MEASURED FROM
DAPD.FT                 13.9 : FEET ABOVE PERMANENT DATUM
DMF .                    TKB : DRILLING MEASURED FROM
EKB .FT                430.3 : KELLY BUSHING
EDF .FT                429.3 : DRILLING FLOOR
EGL .FT                416.4 : GROUND LEVEL
DATE.               03/31/82 : RUN DATE
RUN .                      1 : RUN NUMBER
DD  .FT                 6068 : DEPTH DRILLER
DL  .FT                 6105 : DEPTH LOGGER
BLI .FT                 6104 : BOTTOM LOG INTERVAL
TLI .FT                  675 : TOP LOG INTERVAL
CS  .IN                8.625 : CASING SIZE
CBD .FT                  732 : CASING BOTTOM DRILLER
CBL .FT                  732 : CASING BOTTOM LOGGER
BS  .IN                7.875 : BIT SIZE
BSD .FT                 6068 : BIT SIZE AT DEPTH
DFT .         LIGNOSULFONATE : DRILLING FLUID TYPE
DFD .                    9.8 : DRILLING FLUID DENSITY
DFV .                     75 : DRILLING FLUID VISCOSITY
DFPH.                   10.5 : DRILLING FLUID PH
DFL .                    8.0 : DRILLING FLUID LOSS
MSS .               FLOWLINE : MUD SAMPLE SOURCE
RMS .OHMM                2.3 : RESISTIVITY MUD SAMPLE
MST .DEGF                 75 : MUD SAMPLE TEMPERATURE
RMF .OHMM                2.1 : RESISTIVITY MUD FILTRATE SAMPLE
MFST.DEGF                 75 : MUD FILTRATE SAMPLE TEMPERATURE
RMC .OHMM                2.4 : RESISTIVITY MUD CAKE
MCST.DEGF                 75 : MUD CAKE SAMPLE TEMPERATURE
MFSS.                      M : MUD FILTRATE SAMPLE SOURCE
MCSS.                      C : MUD CAKE SAMPLE SOURCE
RMB .OHMM               1.17 : RESISTIVITY MUD AT BHT
TCS .HRS                1400 : TIME CIRCULATED STOPPED
TLAB.HRS                  30 : TIME LOGGER AT BOTTOM
LUN .                   7506 : LOGGING UNIT NUMBER
LUL .                     CC : LOGGING UNIT LOCATION
ENGI.                  DEPUR : RECORDING ENGINEER
CLNT.                A2DTECH : CLIENT CODE
ORIG.               5" PRINT : ORIGIN OF DATA
UWI .         42493310750000 : UNIQUE WELL ID
DICO. A2D Technologies, Inc. : DIGITIZING COMPANY
~Other -----------------------------------------------------
~ASCII -----------------------------------------------------
  700.00000    -999.25    -999.25    -999.25    -999.25    -999.25    -999.25    -999.25    -999.25    -999.25    -999.25    -999.25    -999.25    -999.25    -999.25    -999.25    -999.25   39.41810   39.41810    -999.25    -999.25    -999.25    -999.25    -999.25    -999.25    -999.25    -999.25    -999.25    -999.25    -999.25    -999.25    -999.25
  750.00000   12.96640    -999.25   12.96640    -999.25    -999.25    -999.25  364.52450    -999.25    -999.25    -999.25    2.74330    -999.25  146.22050  146.22050    -999.25    -999.25   52.96850   52.96850    2.93500    -999.25    -999.25    -999.25    -999.25    2.74330    2.93500    3.36200  -62.19080   -2.38460    3.36200    -999.25  916.44100
  800.00000   13.55680    -999.25   13.55680    -999.25    -999.25    -999.25  265.90790    -999.25    -999.25    -999.25    3.76070    -999.25  134.57270  134.57270    -999.25    -999.25   43.33860   43.33860    3.55370    -999.25    -999.25    -999.25    -999.25    3.76070    3.55370    3.49330  -89.22280  -29.47350    3.49330    -999.25  952.30470
  850.00000   16.68620    -999.25   16.68620    -999.25    -999.25    -999.25  351.32100    -999.25    -999.25    -999.25    2.84640    -999.25  159.43460  159.43460    -999.25    -999.25   55.13790   55.13790    2.98570    -999.25    -999.25    -999.25    -999.25    2.84640    2.98570    2.66540  -70.27590  -10.58360    2.66540    -999.25  970.20010
  900.00000    9.44130    -999.25    9.44130    -999.25    -999.25    -999.25  245.41080    -999.25    -999.25    -999.25    4.07480    -999.25  126.97750  126.97750    -999.25    -999.25   77.24780   77.24780    5.10170    -999.25    -999.25    -999.25    -999.25    4.07480    5.10170    5.99210  -86.54730  -26.91190    5.99210    -999.25  957.29920
  950.00000   10.49350    -999.25   10.49350    -999.25    -999.25    -999.25  323.78180    -999.25    -999.25    -999.25    3.08850    -999.25  128.48310  128.48310    -999.25    -999.25   64.31690   64.31690    3.40560    -999.25    -999.25    -999.25    -999.25    3.08850    3.40560    3.73800  -70.54210  -10.96360    3.73800    -999.25  947.41460
 1000.00000   11.94160    -999.25   11.94160    -999.25    -999.25    -999.25  477.03100    -999.25    -999.25    -999.25    2.09630    -999.25  141.44910  141.44910    -999.25    -999.25   61.28440   61.28440    2.36570    -999.25    -999.25    -999.25    -999.25    2.09630    2.36570    2.71750  -61.06160   -2.53930    2.71750    -999.25  932.72040
 1050.00000   13.79050    -999.25   13.79050    -999.25    -999.25    -999.25  465.05140    -999.25    -999.25    -999.25    2.15030    -999.25  149.37540  149.37540    -999.25    -999.25   65.67210   65.67210    2.26050    -999.25    -999.25    -999.25    -999.25    2.15030    2.26050    2.33560  -57.58670   -0.73300    2.33560    -999.25  953.30930
 1100.00000   14.02610    -999.25   14.02610    -999.25    -999.25    -999.25  356.98990    -999.25    -999.25    -999.25    2.80120    -999.25  149.27010  149.27010    -999.25    -999.25   63.74710   63.74710    2.95470    -999.25    -999.25    -999.25    -999.25    2.80120    2.95470    3.18450  -61.73960   -6.55460    3.18450    -999.25  952.81060
 1150.00000   12.85530    -999.25   12.85530    -999.25    -999.25    -999.25   58.48810    -999.25    -999.25    -999.25   17.09750    -999.25  125.63960  125.63960    -999.25    -999.25   48.62180   48.62180   15.55280    -999.25    -999.25    -999.25    -999.25   17.09750   15.55280   12.45660  -63.92050  -10.40410   12.45660    -999.25  947.70270
 1200.00000   12.72450   13.51820   12.72450    6.96490    0.31480    0.33180   81.20180    0.11090    2.12400    0.31880   12.31500    0.11090  124.75440  124.75440   57.30650    -999.25   58.25310   58.25310   10.77370    -999.25    -999.25    0.33180    2.12400   12.31500   10.77370   10.52570  -61.15290   -9.30520   10.52570  971.63900  957.87790
 1250.00000   10.91200   10.91060   10.91200    7.68120    0.35010    0.31970   56.35230    0.09340    2.06850    0.35240   17.74550    0.09340  128.46490  128.46490   47.30640    -999.25   46.90740   46.90740   17.05160    -999.25    -999.25    0.31970    2.06850   17.74550   17.05160   12.89350  -57.35640   -7.17730   12.89350  965.36250  907.11890
 1300.00000   11.01680   11.19630   11.01680    7.82380    0.32590    0.34110   47.81550    0.09750    2.11740    0.32280   20.91370    0.09750  122.36490  122.36490   31.09860    -999.25   30.90040   30.90040   19.13950    -999.25    -999.25    0.34110    2.11740   20.91370   19.13950   15.11680  -52.47670   -3.96630   15.11680  967.48160  955.01510
 1350.00000   10.93210   11.22270   10.93210    8.29150    0.24020    0.34820   89.74730    0.14270    2.25370    0.24020   11.14240    0.14270  119.13430  119.13430   56.76450    -999.25   56.66550   56.66550   10.80830    -999.25    -999.25    0.34820    2.25370   11.14240   10.80830   10.60490  -54.96790   -8.12610   10.60490  935.62740  964.27310
 1400.00000   10.47320   10.69580   10.47320    7.91260    0.31170    0.32410   32.68720    0.12110    2.13570    0.31170   30.59300    0.12110  116.62570  116.62570   42.59930    -999.25   42.49910   42.49910   25.75180    -999.25    -999.25    0.32410    2.13570   30.59300   25.75180   17.88730  -53.49160   -8.31850   17.88730  983.72450  933.52980
 1450.00000   10.65570   10.74380   10.65570    7.95910    0.01990    0.06480    6.04110    0.02900    2.61830    0.01920  165.53360    0.02900   63.35640   63.35640   32.06940    -999.25   32.89660   32.89660  150.87240    -999.25    -999.25    0.06480    2.61830  165.53360  150.87240  226.04870  -52.75270   -9.24820  226.04870  976.71210  957.22640
 1500.00000   12.91340   10.91430   12.91340    -999.25    0.31920    -999.25   34.95760    0.11970    2.12340    0.31920   28.60610    0.11970  123.98250  123.98250   28.25570    -999.25   28.18250   28.18250   29.40590    -999.25    -999.25    -999.25    2.12340   28.60610   29.40590   44.86410  -42.75610   -0.92030   44.86410  968.60000  980.88120
 1550.00000   11.77060    -999.25   11.77060    -999.25    -999.25    -999.25   42.30230    -999.25    -999.25    -999.25   23.63940    -999.25  111.86470  111.86470    -999.25    -999.25   27.47600   27.47600   27.66150    -999.25    -999.25    -999.25    -999.25   23.63940   27.66150   40.24510  -47.96640   -7.79920   40.24510    -999.25  972.85750
 1600.00000    9.72660    -999.25    9.72660    -999.25    -999.25    -999.25   48.63270    -999.25    -999.25    -999.25   20.56230    -999.25  118.07590  118.07590    -999.25    -999.25   23.40670   23.40670   22.16200    -999.25    -999.25    -999.25    -999.25   20.56230   22.16200   31.73130  -37.97250    0.58830   31.73130    -999.25 1009.28850
 1650.00000    9.03060    -999.25    9.03060    -999.25    -999.25    -999.25  181.30390    -999.25    -999.25    -999.25    5.51560    -999.25  120.60390  120.60390    -999.25    -999.25   63.11490   63.11490    5.91790    -999.25    -999.25    -999.25    -999.25    5.51560    5.91790    8.83610  -42.15120   -4.01410    8.83610    -999.25  958.45590
 1700.00000    8.34920    -999.25    8.34920    -999.25    -999.25    -999.25   29.88990    -999.25    -999.25    -999.25   33.45610    -999.25  117.85780  117.85780    -999.25    -999.25   63.78730   63.78730   29.24920    -999.25    -999.25    -999.25    -999.25   33.45610   29.24920   22.87970  -48.85590  -11.14260   22.87970    -999.25  875.62790
 1750.00000    8.41840    -999.25    8.41840    -999.25    -999.25    -999.25   21.68930    -999.25    -999.25    -999.25   46.10570    -999.25  111.83380  111.83380    -999.25    -999.25   29.24670   29.24670   36.63960    -999.25    -999.25    -999.25    -999.25   46.10570   36.63960   27.97840  -42.60370   -5.31410   27.97840    -999.25  929.95920
 1800.00000    8.16660    -999.25    8.16660    -999.25    -999.25    -999.25   28.22430    -999.25    -999.25    -999.25   35.43050    -999.25  122.38180  122.38180    -999.25    -999.25   43.94690   43.94690   30.64790    -999.25    -999.25    -999.25    -999.25   35.43050   30.64790   25.21040  -43.08430   -6.21840   25.21040    -999.25  923.26630
