~Version ---------------------------------------------------
VERS.      2.0 : CWLS log ASCII Standard -VERSION 2.0
WRAP.      YES : Multiple lines per depth step
CREA. 10/06/20 : LAS Creation Date
~Well ------------------------------------------------------
STRT.FT                 3150.0 : START DEPTH
STOP.FT                18400.0 : STOP DEPTH
STEP.FT               50.00000 : STEP LENGTH
NULL.                  -999.25 : NULL VALUE
COMP. AMOCO PRODUCTION COMPANY : COMPANY
WELL.       MARTIN GAS UNIT #1 : WELL
FLD .                  WILDCAT : FIELD
LOC .                          : LOCATION
CNTY.                     LEON : COUNTY
STAT.                    TEXAS : STATE
CTRY. UNITED STATES OF AMERICA : COUNTRY
SRVC.             Schlumberger : SERVICE COMPANY
DATE.              06-Oct-1998 : LOGDATE
API .           42289312900000 : API NUMBER
UWI .           42289312900000 : UNIQUE WELL ID
SLAT.WGS84       31.2448401024 : SURFACE LATITUDE
SLON.WGS84      -96.2384028977 : SURFACE LONGITUDE
~Curve Information -----------------------------------------
DEPT    .FT    : DEPTH FEET
AT20ED  .OHMM  : 20 INCH ARRAY RESISTIVITY TWO FOOT RESOLUTION FROM AIT LOG
AT30ED  .OHMM  : 30 INCH ARRAY RESISTIVITY TWO FOOT RESOLUTION FROM AIT LOG
AT60ED  .OHMM  : 60 INCH ARRAY RESISTIVITY TWO FOOT RESOLUTION FROM AIT LOG
AT90ED  .OHMM  : 90 INCH ARRAY RESISTIVITY TWO FOOT RESOLUTION FROM AIT LOG
BITSED  .IN    : BIT SIZE FROM RUN HEADERS
CALDED  .IN    : CALIPER FROM DENSITY LOG [DSH. TO GRRED]
CALWS   .IN    : CALIPER [TOP CALDED 14108' (DCALDED+BITSED) TD]
CONDWS  .MMHO  : DEEP CONDUCTIVITY [1000/DRESWS]
DCALDED .IN    : DIFFERENTIAL CALIPER FROM DENSITY LOG [DSH. TO GRRED]
DCORWS  .G/C3  : DENSITY CORRECTION [TOP DRHOED 16650' DRHED TD]
DENWS   .G/C3  : BULK DENSITY [CALC. FROM DPOLSWS]
DPHILSED.V/V   : DENSITY POROSITY (LS) [M=2.71 F=1.00] [DSH. TO GRRED]
DPOLSED .V/V   : DENSITY POROSITY (LS) [M=2.71 F=1.00] [DSH. TO GRRED]
DPOLSWS .V/V   : DENSITY POROSITY (LS) [M=2.71 F=1.00] [TOP DPHILSED 16650' DPOLSED TD]
DRESWS  .OHMM  : DEEP RESISTIVITY [TOP AT90ED 14100' ILDED 16650' IDPHED TD]
DRHED   .G/C3  : DENSITY CORRECTION FROM DENSITY LOG [DSH. TO GRRED]
DRHOED  .G/C3  : DENSITY CORRECTION FROM DENSITY LOG [DSH. TO GRRED]
DTCOED  .US/F  : DELTA TIME COMPRESSIONAL FROM SONIC LOG
DTLFED  .US/F  : DELTA TIME LONG SPACING FAR DETECTOR FROM SONIC LOG
DTLNED  .US/F  : DELTA TIME LONG SPACING NEAR DETECTOR FROM SONIC LOG
DTSMED  .US/F  : DELTA TIME SHEAR WAVE FROM SONIC LOG
DTSWS   .US/F  : DELTA TIME SHEAR [DTSMED]
DTWS    .US/F  : DELTA TIME COMPRESSIONAL [TOP DTCOED 16650' DTLNED TD]
GRDED   .GAPI  : GAMMA RAY FROM DENSITY LOG [DSH. TO GRRED]
GRRED   .GAPI  : GAMMA RAY FROM RESISTIVITY LOG
GRWS    .GAPI  : GAMMA RAY [GRRED][RESCALED GRWS IN CSG )14030-14106' & 16606-16645') FROM 0/90-0/150]
IDPHED  .OHMM  : DEEP INDUCTION PHASE RESISTIVITY
ILDED   .OHMM  : DEEP INDUCTION RESISTIVITY
ILMED   .OHMM  : MEDIUM INDUCTION RESISTIVITY
IMPHED  .OHMM  : MEDIUM INDUCTION PHASE RESISTIVITY
MRESWS  .OHMM  : MEDIUM RESISTIVITY [TOP AT30ED 14100' ILMED 16650' IMPHED TD]
NPHILSED.V/V   : NEUTRON POROSITY (LS) [DSH. TO GRRED]
NPOLSWS .V/V   : NEUTRON POROSITY (LS) [NPHILSED]
PEFED   .B/E   : PHOTOELECTRIC FACTOR FROM DENSITY LOG [DSH. TO GRRED]
PEFWS   .B/E   : PHOTOELECTRIC FACTOR [PEFED]
SFLUED  .OHMM  : SPHERICALLY FOCUSED UNAVERAGED RESISTIVITY
SPWS    .MV    : SPONTANEOUS POTENTIAL [BASELINE 0 MV] [SPRED]
SPRED   .MV    : SPONTANEOUS POTENTIAL FROM RESISTIVITY LOG
SRESWS  .OHMM  : SHALLOW RESISTIVITY [TOP AT20ED 14100' SFLUED TD]
TENDED  .LBF   : TENSION FROM DENSITY LOG [DSH. TO GRRED]
TENRED  .LBF   : TENSION FROM RESISTIVITY LOG
~Params ----------------------------------------------------
PD  .                     GL : PERMANENT DATUM
EPD .FT                389.3 : ELEVATION PERMANENT DATUM
LMF .                     KB : LOG MEASURED FROM
DAPD.FT                 33.7 : MEASUREMENT ABOVE PERMANENT DATUM
DMF .                     KB : DRILLING MEASURED FROM
EKB .FT                  423 : KELLY BUSHING
EDF .FT                  422 : DRILLING FLOOR
EGL .FT                389.3 : GROUND LEVEL
DATE.               10/06/98 : RUN DATE
RUN .                      3 : RUN NUMBER
DD  .FT                18400 : DEPTH DRILLER
DL  .FT                18391 : DEPTH LOGGER
BLI .FT                18381 : BOTTOM LOG INTERVAL
TLI .FT                16646 : TOP LOG INTERVAL
CS  .IN                7.625 : CASING SIZE
CBD .FT                16650 : CASING BOTTOM DRILLER
CBL .FT                16646 : CASING BOTTOM LOGGER
BS  .IN                 6.25 : BIT SIZE
BSD .FT                18400 : BIT SIZE AT DEPTH
DFT .             VERSADRILL : DRILLING FLUID TYPE
DFD .                   17.9 : DRILLING FLUID DENSITY
DFV .                     45 : DRILLING FLUID VISCOSITY
MSS .                MUD PIT : MUD SAMPLE SOURCE
MFSS.                   CALC : MUD FILTRATE SAMPLE SOURCE
MCSS.                   CALC : MUD CAKE SAMPLE SOURCE
TCS .HRS                 830 : TIME CIRCULATED STOPPED
TLAB.HRS                2357 : TIME LOGGER AT BOTTOM
LUN .                   2142 : LOGGING UNIT NUMBER
LUL .                  TYLER : LOGGING UNIT LOCATION
ENGI.                SKRBICH : RECORDING ENGINEER
WITN.       WALKER WYSZYNSKI : WITNESSED BY
CLNT.                A2DTECH : CLIENT CODE
ORIG.         1" 2" 5" PRINT : ORIGIN OF DATA
UWI .         42289312900000 : UNIQUE WELL ID
DICO. A2D Technologies, Inc. : DIGITIZING COMPANY
~Other -----------------------------------------------------
1) RESISTIVITY INVALID 14360-14404', 15400-15475 NULLED (REPEAT LOG N/A). PATCHED FROM REPEAT LOG 15950-15980' & 16590-16645'.
2) GRRED PATCHED FROM REPEAT LOG 15400-15500 & 16550-16606'.
3) SONIC NOT LOGGED 14100-16650' AND ERRATIC ON SOME AREAS ABOVE 6300' WITH SOME GAPS AND SPIKES HENCE PATCHED SOME SMALL AREAS.
4) LDL/CNL STICKING TOOL ENTIRE RUN2 - NULLED PEF INVALID @ 15410-15625' & 15730-15410', PATCHED DENSITY@16025-16040', PATCHED NEUTRON@14295-14320' & PATCHED GRDED@VARIOUS DEPTHS BASED ON GRRED. ANY DOUBTS, PLEASE REFER TO ORIGINAL CURVES IN STANDARD LAS. STICKING TOOL MAY SLIGHTLY AFFECT LOG QUALITY ON OTHER AREAS, PLEASE USE WITH CAUTIONS.
~ASCII -----------------------------------------------------
# ...
 13950.00000  215.96450   27.56370   52.80650   72.97720   10.62500   10.20530   10.20530   13.70290    -999.25    0.01210    2.52840    0.10620    -999.25    0.10620   72.97720    -999.25    0.01210   63.89670    -999.25    -999.25   88.31590   88.31590   63.89670   17.53220   17.17500   17.17500    -999.25    -999.25    -999.25    -999.25   27.56370   -0.00550   -0.00550    2.59430    2.59430    -999.25  -37.78370  -36.39820  215.96450 5178.71780 5577.10060
 14000.00000   11.25650   10.56230   10.28050    8.91110   10.62500   10.21690   10.21690  112.21960    -999.25    0.05530    2.68330    0.01560    -999.25    0.01560    8.91110    -999.25    0.05530   64.73030    -999.25    -999.25  106.28810  106.28810   64.73030   84.56970   79.39580   79.39580    -999.25    -999.25    -999.25    -999.25   10.56230    0.04650    0.04650    3.56850    3.56850    -999.25   -5.54010   -5.24310   11.25650 5174.30180 5506.85990
 14050.00000   29.58520   27.18440   47.90240   49.62580   10.62500   10.19030   10.19030   20.15080    -999.25    0.04220    2.62350    0.05060    -999.25    0.05060   49.62580    -999.25    0.04220   59.95380    -999.25    -999.25   91.24980   91.24980   59.95380   18.56330   16.69330   27.82220    -999.25    -999.25    -999.25    -999.25   27.18440   -0.00330   -0.00330    3.53080    3.53080    -999.25  -23.88930  -24.68080   29.58520 4987.50100 5604.28910
 14100.00000    -999.25    -999.25    -999.25    -999.25   10.62500   10.03730   10.03730    -999.25    -999.25    0.00510    2.70130    0.00510    -999.25    0.00510    -999.25    -999.25    0.00510    -999.25    -999.25    -999.25    -999.25    -999.25    -999.25   43.74740   40.53220   67.55370    -999.25    -999.25    -999.25    -999.25    -999.25    0.09620    0.09620    4.50630    4.50630    -999.25   -9.53430  -11.41430    -999.25 5348.63130 5582.32860
 14150.00000    -999.25    -999.25    -999.25    -999.25    8.50000    -999.25    8.51160  146.73940    0.01160    0.00000    2.68230    0.01620    -999.25    0.01620    6.81480    -999.25    0.00000    -999.25    -999.25    -999.25    -999.25    -999.25    -999.25  121.13730  103.70820  103.70820    -999.25    6.81480    6.66430    -999.25    6.66430    0.12340    0.12340    4.41410    4.41410   11.06080   -2.94880   -6.20480   11.06080 4483.46580 4194.15040
 14200.00000    -999.25    -999.25    -999.25    -999.25    8.50000    -999.25    9.28050  266.08480    0.78050    0.00340    2.62060    0.05230    -999.25    0.05230    3.75820    -999.25    0.00340    -999.25    -999.25    -999.25    -999.25    -999.25    -999.25  112.74400  126.53910  126.53910    -999.25    3.75820    3.30300    -999.25    3.30300    0.18860    0.18860   10.00000   10.00000    4.13620   -9.88470   -9.77450    4.13620 4827.56790 4259.95900
 14250.00000    -999.25    -999.25    -999.25    -999.25    8.50000    -999.25    8.46730  105.49410   -0.03270   -0.00180    2.60470    0.06160    -999.25    0.06160    9.47920    -999.25   -0.00180    -999.25    -999.25    -999.25    -999.25    -999.25    -999.25   43.88000   44.49290   44.49290    -999.25    9.47920    8.50520    -999.25    8.50520    0.03260    0.03260    3.94330    3.94330   27.82530   -5.55040   -0.61690   27.82530 4554.11570 4262.82910
 14300.00000    -999.25    -999.25    -999.25    -999.25    8.50000    -999.25    8.35460   75.52190   -0.14540    0.00730    2.70370    0.00370    -999.25    0.00370   13.24120    -999.25    0.00730    -999.25    -999.25    -999.25    -999.25    -999.25    -999.25   43.52650   42.33080   42.33080    -999.25   13.24120   14.32500    -999.25   14.32500    0.05300    0.05300    3.67470    3.67470   37.82300   -7.01210    2.74470   37.82300 4550.32960 4317.01270
 14350.00000    -999.25    -999.25    -999.25    -999.25    8.50000    -999.25    8.85530  307.72070    0.35530    0.00130    2.64860    0.03590    -999.25    0.03590    3.24970    -999.25    0.00130    -999.25    -999.25    -999.25    -999.25    -999.25    -999.25   88.98430   89.01160   89.01160    -999.25    3.24970    3.18450    -999.25    3.18450    0.18250    0.18250   10.00000   10.00000    4.08730   -7.94710    6.63300    4.08730 4483.88480 4315.38480
 14400.00000    -999.25    -999.25    -999.25    -999.25    8.50000    -999.25    8.46260    -999.25   -0.03740   -0.00340    2.58810    0.07130    -999.25    0.07130    -999.25    -999.25   -0.00340    -999.25    -999.25    -999.25    -999.25    -999.25    -999.25   20.79760   20.39800   20.39800    -999.25    -999.25    -999.25    -999.25    -999.25    0.00030    0.00030    2.99790    2.99790    -999.25   -7.66980   11.73360    -999.25 4781.12990 4316.54390
 14450.00000    -999.25    -999.25    -999.25    -999.25    8.50000    -999.25    8.49700  175.32170   -0.00300    0.00750    2.67100    0.02280    -999.25    0.02280    5.70380    -999.25    0.00750    -999.25    -999.25    -999.25    -999.25    -999.25    -999.25  111.15880  111.96760  111.96760    -999.25    5.70380    5.17620    -999.25    5.17620    0.14910    0.14910    7.19070    7.19070    5.44950   -4.93360   19.29310    5.44950 4594.45170 4344.21880
 14500.00000    -999.25    -999.25    -999.25    -999.25    8.50000    -999.25    8.54760  201.58040    0.04760   -0.00110    2.70420    0.00340    -999.25    0.00340    4.96080    -999.25   -0.00110    -999.25    -999.25    -999.25    -999.25    -999.25    -999.25  105.28660   99.88260   99.88260    -999.25    4.96080    4.68510    -999.25    4.68510    0.14930    0.14930    4.94040    4.94040    9.10140   -7.29460   22.75660    9.10140 4823.87700 4396.65330
 14550.00000    -999.25    -999.25    -999.25    -999.25    8.50000    -999.25    8.39270  104.63430   -0.10730    0.01010    2.62720    0.04840    -999.25    0.04840    9.55710    -999.25    0.01010    -999.25    -999.25    -999.25    -999.25    -999.25    -999.25   39.09160   22.52560   22.52560    -999.25    9.55710    8.03800    -999.25    8.03800    0.01950    0.01950    3.04970    3.04970   14.48690   -7.89500   31.74710   14.48690 4679.89450 3980.09380
 14600.00000    -999.25    -999.25    -999.25    -999.25    8.50000    -999.25    8.50090   42.07250    0.00090    0.00610    2.86420   -0.09020    -999.25   -0.09020   23.76850    -999.25    0.00610    -999.25    -999.25    -999.25    -999.25    -999.25    -999.25   40.75470   35.20090   35.20090    -999.25   23.76850   18.15440    -999.25   18.15440    0.01340    0.01340    4.97620    4.97620  214.94190   -4.03720   49.51040  214.94190 4674.43650 3165.28740
 14650.00000    -999.25    -999.25    -999.25    -999.25    8.50000    -999.25    8.48580   73.74630   -0.01420    0.01100    2.77430   -0.03760    -999.25   -0.03760   13.56000    -999.25    0.01100    -999.25    -999.25    -999.25    -999.25    -999.25    -999.25   42.80950   50.49770   50.49770    -999.25   13.56000   10.78940    -999.25   10.78940    0.00750    0.00750    4.65710    4.65710  104.72620   -8.88790   58.69870  104.72620 4806.98140 3161.03780
 14700.00000    -999.25    -999.25    -999.25    -999.25    8.50000    -999.25    8.52080  237.32680    0.02080    0.00190    2.65770    0.03060    -999.25    0.03060    4.21360    -999.25    0.00190    -999.25    -999.25    -999.25    -999.25    -999.25    -999.25  119.12290  113.18440  113.18440    -999.25    4.21360    4.11330    -999.25    4.11330    0.14960    0.14960    5.16420    5.16420    5.54030   -5.21940   76.40620    5.54030 4856.78030 3497.24100
 14750.00000    -999.25    -999.25    -999.25    -999.25    8.50000    -999.25    8.49650   47.21370   -0.00350   -0.00930    2.59390    0.06790    -999.25    0.06790   21.18030    -999.25   -0.00930    -999.25    -999.25    -999.25    -999.25    -999.25    -999.25   25.06640   26.57460   26.57460    -999.25   21.18030   15.80230    -999.25   15.80230    0.01060    0.01060    2.78960    2.78960   55.15200   -8.07800   80.99490   55.15200 4914.86080 4427.69580
 14800.00000    -999.25    -999.25    -999.25    -999.25    8.50000    -999.25    8.47270   92.49410   -0.02730    0.01010    2.60860    0.05930    -999.25    0.05930   10.81150    -999.25    0.01010    -999.25    -999.25    -999.25    -999.25    -999.25    -999.25   68.47280   64.85130   64.85130    -999.25   10.81150    9.45740    -999.25    9.45740    0.05810    0.05810    3.30080    3.30080   10.76570   -5.10240   86.55960   10.76570 4771.06300 4407.14650
