~Version ---------------------------------------------------
VERS. 2.0 : CWLS log ASCII Standard -VERSION 2.0
WRAP.  NO : ONE LINE PER DEPTH STEP
~Well ------------------------------------------------------
STRT.F                   300.0 : START DEPTH
STOP.F                 24000.0 : STOP DEPTH
STEP.F                50.00000 : STEP LENGTH
NULL.                  -999.25 : NULL VALUE
COMP.       PLACID OIL COMPANY : COMPANY
WELL.                PEELER #1 : WELL
FLD .                  WILDCAT : FIELD
LOC .                          : LOCATION
CNTY.                MC MULLEN : COUNTY
STAT.                    TEXAS : STATE
CTRY. UNITED STATES OF AMERICA : COUNTRY
SRVC.             Schlumberger : SERVICE COMPANY
DATE.              01-Jan-1984 : LOGDATE
API .           42311317850000 : API NUMBER
UWI .           42311317850000 : UNIQUE WELL ID
SLAT.WGS84       28.5959255047 : SURFACE LATITUDE
SLON.WGS84      -98.4401225914 : SURFACE LONGITUDE
~Curve Information -----------------------------------------
DEPT   .F                 : 
DPHI_LS.DEC  45 890 10 00 : DENSITY POROSITY LIMESTONE
CALD   .IN   45 280 60 00 : CALIPER FROM DENSITY LOG
RHOB   .G/C3 45 350 01 00 : BULK DENSITY
NPHI_LS.DEC  42 890 01 00 : NEUTRON POROSITY LIMESTONE
DT     .US/F 60 500 00 00 : DELTA-T (INTERVAL TRANSIT TIME)
GRR    .GAPI 07 310 01 00 : GAMMA RAY FROM RESISTIVITY LOG
NPHI_SS.DEC  42 890 03 00 : NEUTRON POROSITY SANDSTONE
ILM    .OHMM 07 120 44 00 : INDUCTION MEDIUM RESISTIVITY
SFLU   .OHMM 07 220 01 00 : SHALLOW FOCUSED RESISTIVITY (UNAVERAGED)
SPR    .MV   07 010 01 00 : SPONTANEOUS POTENTIAL FROM RESISTIVITY LOG
ILD    .OHMM 07 120 46 00 : INDUCTION DEEP RESISTIVITY
DCALR  .IN   07 280 01 00 : DIFFERENTIAL CALIPER FROM RESISTIVITY LOG
DPHI_SS.DEC  45 890 12 00 : DENSITY POROSITY SANDSTONE
DRHO   .G/C3 45 356 01 00 : BULK DENSITY CORRECTION
~Params ----------------------------------------------------
PD  .                     GL : PERMANENT DATUM
EPD .F                   336 : ELEVATION PERMANENT DATUM
LMF .                     KB : LOG MEASURED FROM
DMF .                     KB : DRILLING MEASURED FROM
EKB .F                   368 : KELLING BUSHING
EDF .F                   367 : DRILLING FLOOR
EGL .F                   336 : GROUND LEVEL
DATE.               1-1-1984 : RUN DATE
RUN .                      7 : RUN NUMBER
DD  .F                 24031 : DEPTH DRILLER
DL  .F                 24037 : DEPTH LOGGER
BLI .F                 24030 : BOTTOM LOG INTERVAL
TLI .F                 21000 : TOP LOG INTERVAL
CS  .IN                8.625 : CASING SIZE
CBD .F                 19500 : CASING BOTTOM DRILLER
CBL .F                 19500 : CASING BOTTOM LOGGER
BS  .IN                  7.5 : BIT SIZE
BSD .F                 24031 : BIT SIZE AT DEPTH
DFT .               INVERMUL : DRILLING FLUID TYPE
DFV .                     83 : DRILLING FLUID VISCOSITY
TCS .HRS                 800 : TIME CURCULATED STOPPED
TLAB.HRS                 200 : TIME LOGGER AT BOTTOM
LUL .               EDINBURG : LOGGING UNIT LOCATION
ENGI.              NEWMISTER : RECORDING ENGINEER
WITN.                   LONG : WITNESSED BY
CLNT.                A2DTECH : CLIENT CODE
ORIG.            1",5" PRINT : ORIGIN OF DATA
UWI .         42311317850000 : UNIQUE WELL ID
DICO. A2D Technologies, Inc. : DIGITIZING COMPANY
~Other -----------------------------------------------------
~ASCII -----------------------------------------------------
# ...
 12500.00000   -0.03130   14.60700    2.76300   -0.00600   48.53280   15.31880    -999.25    -999.25  112.24810 -133.31230   61.56580    -999.25    -999.25    0.05000
 12550.00000   -0.00170   14.17100    2.70600    0.00000   50.04870   13.64700    -999.25    -999.25   43.41140 -129.78010   39.49000    -999.25    -999.25    0.01700
 12600.00000   -0.01030   15.60200    2.72600   -0.01100   50.21040   17.41840    -999.25    -999.25  158.85900 -113.85090  180.53850    -999.25    -999.25    0.00000
 12650.00000   -0.00330   15.20700    2.72200   -0.00900   50.30120   14.30820    -999.25    -999.25  116.17570  -95.48910 1919.45140    -999.25    -999.25    0.00500
 12700.00000   -0.03370   14.74700    2.76700   -0.00500   49.82670   12.57130    -999.25    -999.25  158.49100  -88.61870 1915.57240    -999.25    -999.25    0.02500
 12750.00000   -0.00570   15.18200    2.72000   -0.00500   49.42020   13.54330    -999.25    -999.25  162.01580  -90.59750 1957.97080    -999.25    -999.25    0.05200
 12800.00000   -0.02000   14.01200    2.74300   -0.00300   50.83440   14.71910    -999.25    -999.25  115.83710  -81.55280 1963.41940    -999.25    -999.25    0.06600
 12850.00000    0.01110   13.49500    2.69300   -0.00100   49.89280   11.89750    -999.25    -999.25  154.32130  -74.25470 1999.99960    -999.25    -999.25    0.00300
 12900.00000   -0.00420   13.77900    2.72100   -0.00300   49.60480   14.54190    -999.25    -999.25   89.50990  -73.99590  547.14070    -999.25    -999.25    0.02800
 12950.00000   -0.00010   13.59600    2.70600    0.00100   49.61880   26.40000    -999.25    -999.25  112.98040  -63.22980  282.07110    -999.25    -999.25    0.01300
 13000.00000    0.00410   13.44600    2.69900    0.00000   51.38930   26.14990    -999.25    -999.25  763.99020  -52.68940 1965.02080    -999.25    -999.25    0.01400
 13050.00000    0.36920   19.55400    2.10300    0.38900   81.19650   44.84540    -999.25    -999.25    5.20900  -16.44860    6.25970    -999.25    -999.25   -0.02000
 13100.00000    0.44450   20.06400    1.97100    0.43700   92.69450   32.94600    -999.25    -999.25    4.96110  -16.60440    4.17310    -999.25    -999.25   -0.03900
 13150.00000    0.22270   16.62000    2.36700    0.22000   66.53550   32.77760    -999.25    -999.25    6.69750  -15.82550    7.10940    -999.25    -999.25    0.00400
 13200.00000    0.05000   14.91400    2.62700    0.07300   67.64130   43.87600    -999.25    -999.25   11.16280  -16.76010    9.81990    -999.25    -999.25    0.07900
 13250.00000    0.05840   14.00000    2.61800    0.11300   66.29640   29.52270    -999.25    -999.25   25.56590  -21.90030   18.72490    -999.25    -999.25    0.01400
 13300.00000    0.05950   12.78600    2.60600    0.07400   66.08610   29.13420    -999.25    -999.25  109.76810  -29.37690  109.41470    -999.25    -999.25    0.01600
 13350.00000    0.07410   13.09700    2.58400    0.13700   74.59120   48.60030    -999.25    -999.25   43.98350  -27.50780   28.08630    -999.25    -999.25    0.00200
 13400.00000    0.00320   13.11800    2.70200    0.02200   56.25660   42.46110    -999.25    -999.25   17.83480  -23.14640   10.50890    -999.25    -999.25    0.01200
 13450.00000    0.06080   13.65300    2.59800    0.06200   63.46120   36.28820    -999.25    -999.25    8.52710  -22.28970    6.40430    -999.25    -999.25    0.10300
 13500.00000    0.07760   13.25600    2.57300    0.10700   58.60560   46.60720    -999.25    -999.25   22.82170  -23.14640   24.53710    -999.25    -999.25    0.09600
 13550.00000   -0.00330   12.69400    2.72000    0.06000   62.25020   18.92650    -999.25    -999.25   40.90520  -27.27410   32.56170    -999.25    -999.25    0.01500
 13600.00000   -0.02160   12.73800    2.74100   -0.00100   49.95980   17.15510    -999.25    -999.25  408.25520  -56.24090  417.69300    -999.25    -999.25    0.02400
 13650.00000   -0.00480   12.88300    2.72500   -0.00300   49.53450   18.31220    -999.25    -999.25  609.30250  -53.98750  582.87040    -999.25    -999.25    0.02100
 13700.00000    0.00060   13.05400    2.70900   -0.00300   50.48570   10.41960    -999.25    -999.25  104.80620  -72.28970   34.72220    -999.25    -999.25    0.01000
 13750.00000   -0.01910   14.82100    2.74000    0.01100   52.19450   13.99700    -999.25    -999.25  344.18600  -74.70400 1970.83080    -999.25    -999.25    0.01800
 13800.00000    0.02880   14.37100    2.66100    0.03300   52.20440   15.24110    -999.25    -999.25  199.88750  -78.82120 1981.45290    -999.25    -999.25    0.09500
 13850.00000    0.00110   12.64600    2.70400    0.00100   49.72070   18.66250    -999.25    -999.25 1556.58440  -58.81610 1700.73080    -999.25    -999.25    0.01000
 13900.00000   -0.01320   12.55600    2.73300    0.00200   48.67680   19.59560    -999.25    -999.25  151.44040  -87.00920  192.28400    -999.25    -999.25    0.03200
 13950.00000   -0.01020   12.13200    2.73400    0.06300   51.87140   25.50550    -999.25    -999.25   28.97120  -85.42580   23.71230    -999.25    -999.25    0.04900
 14000.00000   -0.00280   14.37900    2.71300    0.00400   52.54910   16.94070    -999.25    -999.25   21.00820  -85.31610   15.79210    -999.25    -999.25    0.03200
 14050.00000   -0.01370   12.79600    2.73800    0.01100   50.27880   25.38930    -999.25    -999.25  136.99870  -72.56240   85.49380    -999.25    -999.25    0.03400
 14100.00000   -0.03390   14.53200    2.76100   -0.00200   51.26760   12.88110    -999.25    -999.25   66.07890  -85.84110   69.13580    -999.25    -999.25    0.06300
 14150.00000   -0.01720   14.30800    2.74400   -0.00400   51.00190   17.37950    -999.25    -999.25  808.68050  -82.45330 1616.25510    -999.25    -999.25    0.06800
 14200.00000    0.00460   13.11900    2.71800   -0.00200   54.55640   19.44010    -999.25    -999.25   23.85800  -88.25540    4.93830    -999.25    -999.25    0.06800
 14250.00000   -0.03330   13.16200    2.77200   -0.00100   51.07490   20.12700    -999.25    -999.25  148.39640  -72.86820  165.17550    -999.25    -999.25    0.01700
 14300.00000   -0.00180   13.02200    2.72000    0.00100   49.64640   20.76210    -999.25    -999.25   88.34930  -90.95570  886.11110    -999.25    -999.25    0.01500
 14350.00000   -0.00090   12.42200    2.71500    0.00000   49.93800    -999.25    -999.25    -999.25  175.61230  -77.36430  190.26420    -999.25    -999.25   -0.00400
 14400.00000   -0.06800   12.28800    2.81500    0.00700   49.70560    -999.25    -999.25    -999.25  143.02920  -73.33330  138.44350    -999.25    -999.25    0.04800
 14450.00000   -0.02450   12.43000    2.75600    0.01000   49.59920    -999.25    -999.25    -999.25  148.10060  -68.57880  105.82210    -999.25    -999.25    0.02400
 14500.00000   -0.01520   12.97800    2.73800    0.00000   49.64660   21.92850    -999.25    -999.25  217.48290  -94.26360   87.70560    -999.25    -999.25    0.07800
 14550.00000   -0.02160   12.75700    2.73500   -0.00300   49.11600   16.84870    -999.25    -999.25   47.81590  -86.58910  948.76500    -999.25    -999.25    0.09900
 14600.00000   -0.00580   12.80300    2.73000    0.05300   51.78270   24.57230    -999.25    -999.25   41.97530  -82.17050 1302.72190    -999.25    -999.25    0.10100
 14650.00000   -0.01470   12.76300    2.73400   -0.00400   49.77660   26.15400    -999.25    -999.25  236.88260  -84.14730 1982.12330    -999.25    -999.25    0.01400
 14700.00000   -0.03490   12.65100    2.76000    0.00000   49.89410   31.36340    -999.25    -999.25  213.27160  -64.98740  138.57960    -999.25    -999.25    0.01200
 14750.00000   -0.00580   12.87500    2.72800    0.00100   49.46620   23.50870    -999.25    -999.25  127.31330  -70.42640 1661.57410    -999.25    -999.25    0.03100
 14800.00000    0.03270   12.54600    2.64700    0.01800   53.79950   16.76090    -999.25    -999.25  253.53280  -78.55310   17.45370    -999.25    -999.25   -0.00100
 14850.00000   -0.01520   12.67100    2.73400   -0.00600   49.68200   20.46400    -999.25    -999.25  236.92500  -75.56080 1998.86560    -999.25    -999.25    0.01700
