~Version ---------------------------------------------------
VERS. 2.0 : CWLS log ASCII Standard -VERSION 2.0
WRAP.  NO : ONE LINE PER DEPTH STEP
~Well ------------------------------------------------------
STRT.F                     300.0 : START DEPTH
STOP.F                   16600.0 : STOP DEPTH
STEP.F                  50.00000 : STEP LENGTH
NULL.                    -999.25 : NULL VALUE
COMP. CHAMPLIN PETROLEUM COMPANY : COMPANY
WELL.                   MIXON #1 : WELL
FLD .                    WILDCAT : FIELD
LOC .                            : LOCATION
CNTY.                    DE WITT : COUNTY
STAT.                      TEXAS : STATE
CTRY.   UNITED STATES OF AMERICA : COUNTRY
SRVC.               Schlumberger : SERVICE COMPANY
DATE.                04-Jan-1980 : LOGDATE
API .             42123310090000 : API NUMBER
UWI .             42123310090000 : UNIQUE WELL ID
SLAT.WGS84         28.9499646475 : SURFACE LATITUDE
SLON.WGS84        -97.6437950223 : SURFACE LONGITUDE
~Curve Information -----------------------------------------
DEPT.F                 : 
CALD.IN   45 280 60 00 : CALIPER FROM DENSITY LOG
CORR.G/C3 45 356 01 00 : CORRELATION LOG
RHOB.G/C3 45 350 01 00 : BULK DENSITY
GRD .GAPI 45 310 01 00 : GAMMA RAY FROM DENSITY LOG
NPHI.DEC  42 890 01 00 : NEUTRON POROSITY
DPHI.DEC  45 890 10 00 : DENSITY POROSITY
DT  .US/F 60 520 00 00 : DELTA-T (INTERVAL TRANSIT TIME)
SPR .MV   07 010 01 00 : SPONTANEOUS POTENTIAL FROM RESISTIVITY
ILD .OHMM 07 120 46 00 : INDUCTION DEEP RESISTIVITY
ILM .OHMM 07 120 44 00 : INDUCTION MEDIUM RESISTIVITY
SFL .OHMM 07 220 01 00 : SPHERICALLY FOCUSSED LOG
GRR .GAPI 07 310 01 00 : GAMMA RAY FROM RESISTIVITY
CALR.IN   07 280 01 00 : CALIPER FROM RESISTIVITY LOG
~Params ----------------------------------------------------
EKB .FT                  450 : KELLY BUSHING
EDF .FT                  449 : DRILLING FLOOR
EGL .FT                  423 : GROUND LEVEL
DATE.               01-04-80 : RUN DATE
DD  .FT                 1646 : DEPTH DRILLER
DL  .FT                 1609 : DEPTH LOGGER
BLI .FT                 1602 : BOTTOM LOG INTERVAL
BSD .FT                 1646 : BIT SIZE AT DEPTH
CLNT.                A2DTECH : CLIENT CODE
ORIG.            2" 5" PRINT : ORIGIN OF DATA
UWI .         42123310090000 : UNIQUE WELL ID
DICO. A2D Technologies, Inc. : DIGITIZING COMPANY
~Other -----------------------------------------------------
~ASCII -----------------------------------------------------
# ...
 8100.00000    -999.25    -999.25    -999.25    -999.25    -999.25    -999.25   79.36780 -104.16670    2.89870    4.49670    9.08250   53.57710   12.42200
 8150.00000    -999.25    -999.25    -999.25    -999.25    -999.25    -999.25   81.89840  -38.70790    2.95450    2.86390    3.26540   77.34970   15.76580
 8200.00000    -999.25    -999.25    -999.25    -999.25    -999.25    -999.25   73.22780  -79.52250    2.29150    2.81470    3.73590   50.74510   13.55190
 8250.00000    -999.25    -999.25    -999.25    -999.25    -999.25    -999.25   93.28930  -38.72320    2.19550    2.12060    1.99330   76.90010   16.10450
 8300.00000    -999.25    -999.25    -999.25    -999.25    -999.25    -999.25   85.54980  -39.88090    3.01590    2.97470    2.83400   74.48620   15.97200
 8350.00000    -999.25    -999.25    -999.25    -999.25    -999.25    -999.25  101.80740  -38.43990    2.05620    1.74810    1.95250   68.40530   16.08950
 8400.00000    -999.25    -999.25    -999.25    -999.25    -999.25    -999.25   94.17420  -37.20240    1.95220    1.68880    1.87950   67.73790   15.98510
 8450.00000    -999.25    -999.25    -999.25    -999.25    -999.25    -999.25   84.99010  -48.13750    2.78600    2.71030    2.45210   69.60150   16.07460
 8500.00000    -999.25    -999.25    -999.25    -999.25    -999.25    -999.25   81.67420  -47.02380    3.27660    3.20930    3.35900   77.34720   16.13220
 8550.00000    -999.25    -999.25    -999.25    -999.25    -999.25    -999.25   78.46050  -47.46270    3.97540    3.89390    4.36860   72.65280   16.05480
 8600.00000    -999.25    -999.25    -999.25    -999.25    -999.25    -999.25   86.24950  -40.30370    2.69570    2.66350    2.74900   77.91250   15.39630
 8650.00000    -999.25    -999.25    -999.25    -999.25    -999.25    -999.25   81.82500  -55.82090    2.59120    2.81500    3.60030   79.59370   14.31260
 8700.00000    -999.25    -999.25    -999.25    -999.25    -999.25    -999.25   80.92010 -140.29850    2.13560    3.43920    9.88000   49.69740   12.30850
 8750.00000    -999.25    -999.25    -999.25    -999.25    -999.25    -999.25   86.12190  -38.50790    2.53780    2.39360    2.88560   73.88060   15.52320
 8800.00000    -999.25    -999.25    -999.25    -999.25    -999.25    -999.25   80.91920  -77.80300    2.91130    3.58430    4.42970   75.67160   12.91470
 8850.00000    -999.25    -999.25    -999.25    -999.25    -999.25    -999.25   74.88690 -112.92940    3.98470    6.31430   11.67310   69.52390   11.91000
 8900.00000    -999.25    -999.25    -999.25    -999.25    -999.25    -999.25   83.18250  -77.95850    2.50310    3.18700    3.61030   69.13200   13.19410
 8950.00000    -999.25    -999.25    -999.25    -999.25    -999.25    -999.25   89.59170  -40.64520    1.87310    2.02790    2.19570   85.39490   15.19400
 9000.00000    -999.25    -999.25    -999.25    -999.25    -999.25    -999.25   79.17100  -42.85710    2.93260    2.99530    3.14620   82.09750   13.62660
 9050.00000    -999.25    -999.25    -999.25    -999.25    -999.25    -999.25   93.71080  -46.31510    1.82210    1.61470    1.92560   61.92520   15.98510
 9100.00000    -999.25    -999.25    -999.25    -999.25    -999.25    -999.25   88.34490  -80.11960    2.35240    3.07920    2.93360   65.94640   12.28370
 9150.00000    -999.25    -999.25    -999.25    -999.25    -999.25    -999.25   65.68630  -88.33870    4.33380    6.71870   18.66660   46.94480   12.19410
 9200.00000    -999.25    -999.25    -999.25    -999.25    -999.25    -999.25   79.92350  -68.16140    3.32220    4.08670    4.72370   67.28400   12.35830
 9250.00000    -999.25    -999.25    -999.25    -999.25    -999.25    -999.25   97.96510  -48.87890    2.33620    2.27260    2.02080   86.40190   14.25390
 9300.00000    -999.25    -999.25    -999.25    -999.25    -999.25    -999.25   77.90350 -121.49470    3.31860    5.55010    8.79400   38.45380   11.89390
 9350.00000    -999.25    -999.25    -999.25    -999.25    -999.25    -999.25   76.62140 -119.57860    3.34520    5.29090   14.01680   36.32730   11.79090
 9400.00000    -999.25    -999.25    -999.25    -999.25    -999.25    -999.25   80.01410  -36.81370    2.64530    2.64550    3.34500   80.02600   14.32840
 9450.00000    -999.25    -999.25    -999.25    -999.25    -999.25    -999.25   74.73460 -112.55400    3.94830    6.24890   15.28110   39.45790   11.71980
 9500.00000    -999.25    -999.25    -999.25    -999.25    -999.25    -999.25   98.70620  -70.85200    3.27660    3.12210    9.24920   61.82670   12.76130
 9550.00000    -999.25    -999.25    -999.25    -999.25    -999.25    -999.25   87.48070  -38.69280    2.49460    2.17290    2.48630   60.58120   16.16400
 9600.00000    -999.25    -999.25    -999.25    -999.25    -999.25    -999.25  105.20560  -38.63140    1.50670    1.35530    1.60360   73.09630   16.10260
 9650.00000    -999.25    -999.25    -999.25    -999.25    -999.25    -999.25  105.05180  -39.22870    1.27680    1.16730    1.40650   68.62890   16.17910
 9700.00000    -999.25    -999.25    -999.25    -999.25    -999.25    -999.25   91.41370  -40.12270    2.02080    1.95220    2.39950   63.81130   16.19390
 9750.00000    -999.25    -999.25    -999.25    -999.25    -999.25    -999.25   79.18850  -44.31560    3.18750    3.02660    3.19880   58.90770   15.91040
 9800.00000    -999.25    -999.25    -999.25    -999.25    -999.25    -999.25  100.55220  -39.30870    1.39820    1.26350    1.49720   56.83900   16.10440
 9850.00000    -999.25    -999.25    -999.25    -999.25    -999.25    -999.25   86.29320  -38.97230    1.83470    1.71240    2.04190   69.98520   16.07460
 9900.00000    -999.25    -999.25    -999.25    -999.25    -999.25    -999.25   89.24950  -40.94690    1.38190    1.35390    1.65410   65.75230   16.01700
 9950.00000    -999.25    -999.25    -999.25    -999.25    -999.25    -999.25   98.26550  -41.60620    1.29460    1.22080    1.42120   64.63600   16.04360
 10000.00000    -999.25    -999.25    -999.25    -999.25    -999.25    -999.25   89.59230  -50.06560    1.73600    1.70040    1.83460   63.29870   16.14910
 10050.00000    -999.25    -999.25    -999.25    -999.25    -999.25    -999.25   77.60090  -45.67970    3.23980    3.12230    3.46300   64.86080   16.09730
 10100.00000    -999.25    -999.25    -999.25    -999.25    -999.25    -999.25   96.46560  -40.11890    1.34790    1.27350    1.43810   65.75360   16.06380
 10150.00000    -999.25    -999.25    -999.25    -999.25    -999.25    -999.25   91.50290  -40.15850    1.72760    1.73110    2.14220   61.28950   16.05950
 10200.00000    -999.25    -999.25    -999.25    -999.25    -999.25    -999.25   90.42590  -40.71510    1.55090    1.51920    1.57140   62.97240   15.92560
 10250.00000    -999.25    -999.25    -999.25    -999.25    -999.25    -999.25   89.84790  -40.41600    2.18210    2.23230    2.47500   71.76620   15.80610
 10300.00000    -999.25    -999.25    -999.25    -999.25    -999.25    -999.25   92.67800  -41.30760    2.08220    2.06980    2.04890   67.97920   16.05590
 10350.00000    -999.25    -999.25    -999.25    -999.25    -999.25    -999.25   91.84780  -41.30760    1.61620    1.61610    1.71930   74.44280   16.02970
 10400.00000    -999.25    -999.25    -999.25    -999.25    -999.25    -999.25   90.54890  -41.53470    1.82980    1.78300    2.04170   77.62620   16.00000
 10450.00000    -999.25    -999.25    -999.25    -999.25    -999.25    -999.25   96.16610  -40.11890    1.85430    1.87870    2.03810   79.11300   16.07440
 10500.00000    -999.25    -999.25    -999.25    -999.25    -999.25    -999.25   80.24720  -43.81470    2.63790    2.65090    2.62270   67.61690   16.07450
 10550.00000    -999.25    -999.25    -999.25    -999.25    -999.25    -999.25   81.48550  -42.19930    2.67740    2.61490    2.79270   73.54770   16.05660
 10600.00000    -999.25    -999.25    -999.25    -999.25    -999.25    -999.25   89.94200  -40.64510    1.69820    1.70750    1.89290   69.75230   15.73360
 10650.00000    -999.25    -999.25    -999.25    -999.25    -999.25    -999.25   84.78360  -42.21730    2.41090    2.40780    2.58900   74.88430   15.90180
