~Version ---------------------------------------------------
VERS. 2.0 : CWLS log ASCII Standard -VERSION 2.0
WRAP.  NO : ONE LINE PER DEPTH STEP
~Well ------------------------------------------------------
STRT.FT                   3650.0 : START DEPTH
STOP.FT                   7700.0 : STOP DEPTH
STEP.FT                 50.00000 : STEP LENGTH
NULL.                    -999.25 : NULL VALUE
COMP. CHAMPLIN EXPLORATION, INC. : COMPANY
WELL.     GOSCH GUADIANO UNIT #1 : WELL
FLD .                   GIDDINGS : FIELD
LOC .                            : LOCATION
CNTY.                    FAYETTE : COUNTY
STAT.                      TEXAS : STATE
CTRY.   UNITED STATES OF AMERICA : COUNTRY
SRVC.               Schlumberger : SERVICE COMPANY
DATE.                01-Jan-1981 : LOGDATE
API .             42149308450000 : API NUMBER
UWI .             42149308450000 : UNIQUE WELL ID
SLAT.WGS84         29.7785387288 : SURFACE LATITUDE
SLON.WGS84        -97.2200367266 : SURFACE LONGITUDE
~Curve Information -----------------------------------------
DEPT  .FT    : DEPTH FEET
GRRED .GAPI  : GAMMA RAY FROM RESISTIVITY LOG
SPRED .MV    : SPONTANEOUS POTENTIAL FROM RESISTIVITY LOG
SFLUED.OHMM  : SPHERICALLY FOCUSED LOG RESISTIVITY
ILDED .OHMM  : INDUCTION LOG DEEP RESISTIVITY
ILMED .OHMM  : INDUCTION LOG MEDIUM RESISTIVITY
DCALED.IN    : DIFFERENTIAL CALIPER FROM DENSITY LOG
CALRED.IN    : CALIPER FROM RESISTIVITY LOG
DRHOED.G/C3  : DENSITY CORRECTION FROM DENSITY LOG
NPHIED.V/V   : NEUTRON POROSITY LIMESTONE FROM DENSITY LOG
SPWS  .MV    : SPONTANEOUS POTENTIAL [BASELINE 0 MV] [SPRED]
DPHIED.V/V   : DENSITY POROSITY  FROM DENSITY LOG
RHOBED.G/C3  : BULK DENSITY FROM DENSITY LOG
GRWS  .GAPI  : GAMMA RAY [GRRED]
CALWS .IN    : CALIPER [CALRED]
DCORWS.G/C3  : DENSITY CORRECTION [DRHOED]
DRESWS.OHMM  : DEEP RESISTIVITY [ILDED]
MRESWS.OHMM  : MEDIUM RESISTIVITY [ILMED]
SRESWS.OHMM  : SHALLOW RESISTIVITY [SFLUED]
CONDWS.MMHO  : CONDUCTIVITY [1000/DRESWS]
DENWS .G/C3  : BULK DENSITY [M=2.71 F=1.0] [RHOBED]
DPOWS .V/V   : DENSITY POROSITY [M=2.71 F=1] [CALCULATED FROM DENWS]
NPOWS .V/V   : NEUTRON POROSITY LIME [CONV NPHIED]
~Params ----------------------------------------------------
PD  .                     GL : PERMANENT DATUM
EPD .FT                  375 : ELEVATION PERMANENT DATUM
LMF .                     KB : LOG MEASURED FROM
DAPD.FT                   17 : FEET ABOVE PERMANENT DATUM
DMF .                     KB : DRILLING MEASURED FROM
EKB .FT                  392 : KELLY BUSHING
EDF .FT                  391 : DRILLING FLOOR
EGL .FT                  375 : GROUND LEVEL
DATE.               01/01/81 : RUN DATE
RUN .                      1 : RUN NUMBER
DD  .FT                 7776 : DEPTH DRILLER
DL  .FT                 7712 : DEPTH LOGGER
BLI .FT                 7706 : BOTTOM LOG INTERVAL
TLI .FT                 3648 : TOP LOG INTERVAL
CS  .IN                8.625 : CASING SIZE
CBD .FT                 3650 : CASING BOTTOM DRILLER
CBL .FT                 3648 : CASING BOTTOM LOGGER
BS  .IN                7.875 : BIT SIZE
BSD .FT                 7776 : BIT SIZE AT DEPTH
DFT .            GEL CAUSTIC : DRILLING FLUID TYPE
DFD .                      9 : DRILLING FLUID DENSITY
DFV .                     45 : DRILLING FLUID VISCOSITY
DFPH.                    8.5 : DRILLING FLUID PH
DFL .                    5.6 : DRILLING FLUID LOSS
MSS .               CIRC PIT : MUD SAMPLE SOURCE
RMS .OHMM               1.66 : RESISTIVITY MUD SAMPLE
MST .DEGF                 90 : MUD SAMPLE TEMPERATURE
RMF .OHMM               4.54 : RESISTIVITY MUD FILTRATE SAMPLE
MFST.DEGF                 50 : MUD FILTRATE SAMPLE TEMPERATURE
RMC .OHMM                2.5 : RESISTIVITY MUD CAKE
MCST.DEGF                 90 : MUD CAKE SAMPLE TEMPERATURE
MFSS.                      M : MUD FILTRATE SAMPLE SOURCE
MCSS.                      C : MUD CAKE SAMPLE SOURCE
TCS .HRS                1900 : TIME CIRCULATED STOPPED
TLAB.HRS                 200 : TIME LOGGER AT BOTTOM
LUN .                   8176 : LOGGING UNIT NUMBER
LUL .                BRENHAM : LOGGING UNIT LOCATION
ENGI.                 WRIGHT : RECORDING ENGINEER
WITN.                BRENHAM : WITNESSED BY
CLNT.                A2DTECH : CLIENT CODE
ORIG.            2" 5" PRINT : ORIGIN OF DATA
UWI .         42149308450000 : UNIQUE WELL ID
DICO. A2D Technologies, Inc. : DIGITIZING COMPANY
~Other -----------------------------------------------------
ALL LOGS RUN IN COMBO.
MTRX CHANGE 5400-5600' (SS); 6800-7700' (LS).
~ASCII -----------------------------------------------------
 3650.00000    -999.25    -999.25    -999.25    -999.25    -999.25    0.92540    8.80040    -999.25    -999.25    -999.25    -999.25    -999.25    -999.25    8.80040    -999.25    -999.25    -999.25    -999.25    -999.25    -999.25    -999.25    -999.25
 3700.00000   63.50850  -39.61720    4.75300    2.83620    3.12840    2.42680   10.30180    -999.25    -999.25  -16.32890    -999.25    -999.25   63.50850   10.30180    -999.25    2.83620    3.12840    4.75300  352.58440    -999.25    -999.25    -999.25
 3750.00000   41.73130  -64.96930    4.26510    2.34950    2.64210    3.14860   11.02360    -999.25    -999.25  -42.33090    -999.25    -999.25   41.73130   11.02360    -999.25    2.34950    2.64210    4.26510  425.62250    -999.25    -999.25    -999.25
 3800.00000   52.21790  -42.94050    6.51700    2.66480    3.27730    1.14820    9.02320    -999.25    -999.25  -21.90410    -999.25    -999.25   52.21790    9.02320    -999.25    2.66480    3.27730    6.51700  375.26270    -999.25    -999.25    -999.25
 3850.00000   55.47860  -45.47550    9.87790    3.19730    3.86790    1.37220    9.24720    -999.25    -999.25  -28.39830    -999.25    -999.25   55.47860    9.24720    -999.25    3.19730    3.86790    9.87790  312.76390    -999.25    -999.25    -999.25
 3900.00000   81.49510  -18.89840    2.22380    2.93590    2.68080    2.45130   10.32630    -999.25    -999.25   -0.41590    -999.25    -999.25   81.49510   10.32630    -999.25    2.93590    2.68080    2.22380  340.61110    -999.25    -999.25    -999.25
 3950.00000   72.33530  -25.88110    8.01680    3.44890    3.69880    2.14290   10.01790    -999.25    -999.25  -11.13200    -999.25    -999.25   72.33530   10.01790    -999.25    3.44890    3.69880    8.01680  289.94750    -999.25    -999.25    -999.25
 4000.00000   62.75590  -57.02640   15.57310    4.92520    6.79670    0.15730    8.03230    -999.25    -999.25  -41.01200    -999.25    -999.25   62.75590    8.03230    -999.25    4.92520    6.79670   15.57310  203.03740    -999.25    -999.25    -999.25
 4050.00000   61.17770  -47.57380    7.78170    3.19160    3.41250    0.69210    8.56710    -999.25    -999.25  -31.55940    -999.25    -999.25   61.17770    8.56710    -999.25    3.19160    3.41250    7.78170  313.32240    -999.25    -999.25    -999.25
 4100.00000   82.96180  -16.65850    3.82360    2.94820    3.06410    2.30880   10.18380    -999.25    -999.25   -5.71990    -999.25    -999.25   82.96180   10.18380    -999.25    2.94820    3.06410    3.82360  339.19000    -999.25    -999.25    -999.25
 4150.00000   70.85040  -40.19170    7.51260    4.28700    4.97840    0.49120    8.36620    -999.25    -999.25  -27.69720    -999.25    -999.25   70.85040    8.36620    -999.25    4.28700    4.97840    7.51260  233.26340    -999.25    -999.25    -999.25
 4200.00000   74.30230  -31.68250    7.85920    3.99270    4.60640    0.00910    7.88410    -999.25    -999.25  -18.57330    -999.25    -999.25   74.30230    7.88410    -999.25    3.99270    4.60640    7.85920  250.45710    -999.25    -999.25    -999.25
 4250.00000   51.31530  -44.58320    8.35750    4.29970    4.90300    0.02250    7.89750    -999.25    -999.25  -33.10610    -999.25    -999.25   51.31530    7.89750    -999.25    4.29970    4.90300    8.35750  232.57440    -999.25    -999.25    -999.25
 4300.00000   82.30070  -31.75440    6.48640    4.31420    4.72300    0.61910    8.49410    -999.25    -999.25  -21.21450    -999.25    -999.25   82.30070    8.49410    -999.25    4.31420    4.72300    6.48640  231.79270    -999.25    -999.25    -999.25
 4350.00000   61.25050  -44.97530    8.23860    3.92710    4.78280    0.02670    7.90170    -999.25    -999.25  -35.07470    -999.25    -999.25   61.25050    7.90170    -999.25    3.92710    4.78280    8.23860  254.64080    -999.25    -999.25    -999.25
 4400.00000   83.65920  -33.88750    5.24200    3.21510    3.92150    0.52100    8.39600    -999.25    -999.25  -24.62610    -999.25    -999.25   83.65920    8.39600    -999.25    3.21510    3.92150    5.24200  311.03230    -999.25    -999.25    -999.25
 4450.00000   85.57800  -63.02940    8.44370    2.17160    2.86250    0.22190    8.09690    -999.25    -999.25  -54.53250    -999.25    -999.25   85.57800    8.09690    -999.25    2.17160    2.86250    8.44370  460.48990    -999.25    -999.25    -999.25
 4500.00000   85.09670  -16.08040    4.02250    3.12070    3.30790    0.87140    8.74640    -999.25    -999.25   -8.60210    -999.25    -999.25   85.09670    8.74640    -999.25    3.12070    3.30790    4.02250  320.44090    -999.25    -999.25    -999.25
 4550.00000   55.66930  -75.56290    9.05300    1.65260    2.09350    0.01290    7.88790    -999.25    -999.25  -68.44140    -999.25    -999.25   55.66930    7.88790    -999.25    1.65260    2.09350    9.05300  605.10710    -999.25    -999.25    -999.25
 4600.00000   92.37780  -34.36300    6.50140    2.89120    3.63700    0.25320    8.12820    -999.25    -999.25  -27.54070    -999.25    -999.25   92.37780    8.12820    -999.25    2.89120    3.63700    6.50140  345.87710    -999.25    -999.25    -999.25
 4650.00000   96.03290   -8.39660    2.70580    2.27230    2.34510    2.24000   10.11500    -999.25    -999.25   -1.37220    -999.25    -999.25   96.03290   10.11500    -999.25    2.27230    2.34510    2.70580  440.08270    -999.25    -999.25    -999.25
 4700.00000   82.93500   -9.65730    3.22350    2.91570    2.95230    1.44740    9.32240    -999.25    -999.25   -1.17230    -999.25    -999.25   82.93500    9.32240    -999.25    2.91570    2.95230    3.22350  342.97080    -999.25    -999.25    -999.25
 4750.00000   85.36350  -13.85790    3.94880    2.81530    3.03330    0.52870    8.40370    -999.25    -999.25   -5.84430    -999.25    -999.25   85.36350    8.40370    -999.25    2.81530    3.03330    3.94880  355.20190    -999.25    -999.25    -999.25
 4800.00000   87.72570   -8.48750    2.71400    2.63070    2.67640    2.86630   10.74130    -999.25    -999.25   -0.81190    -999.25    -999.25   87.72570   10.74130    -999.25    2.63070    2.67640    2.71400  380.12700    -999.25    -999.25    -999.25
 4850.00000   90.28050   -8.51780    2.56150    2.43320    2.51080    3.86780   11.74280    -999.25    -999.25   -1.40550    -999.25    -999.25   90.28050   11.74280    -999.25    2.43320    2.51080    2.56150  410.98140    -999.25    -999.25    -999.25
 4900.00000   90.98110   -6.92330    2.62380    2.38290    2.43110    4.22170   12.09670    -999.25    -999.25   -0.37420    -999.25    -999.25   90.98110   12.09670    -999.25    2.38290    2.43110    2.62380  419.65670    -999.25    -999.25    -999.25
 4950.00000   90.52320   -6.50820    2.55140    2.27670    2.32820    1.18160    9.05660    -999.25    -999.25   -0.52240    -999.25    -999.25   90.52320    9.05660    -999.25    2.27670    2.32820    2.55140  439.23220    -999.25    -999.25    -999.25
 5000.00000   99.72530   -6.44830    1.78440    1.58250    1.61430    2.49640   10.37140    -999.25    -999.25   -1.02570    -999.25    -999.25   99.72530   10.37140    -999.25    1.58250    1.61430    1.78440  631.91160    -999.25    -999.25    -999.25
 5050.00000   94.38910   -8.14360    1.80870    1.60310    1.63510    2.28720   10.16220    -999.25    -999.25   -1.35410    -999.25    -999.25   94.38910   10.16220    -999.25    1.60310    1.63510    1.80870  623.79140    -999.25    -999.25    -999.25
 5100.00000   93.46520   -7.81950    1.77190    1.56730    1.59850    2.10650    9.98150    -999.25    -999.25   -1.85730    -999.25    -999.25   93.46520    9.98150    -999.25    1.56730    1.59850    1.77190  638.04000    -999.25    -999.25    -999.25
 5150.00000   82.40610  -10.39520    2.07290    1.51360    1.55060    1.98110    9.85610    -999.25    -999.25   -3.69410    -999.25    -999.25   82.40610    9.85610    -999.25    1.51360    1.55060    2.07290  660.67650    -999.25    -999.25    -999.25
 5200.00000  103.38500   -6.83290    1.73950    1.52960    1.56000    2.11580    9.99080    -999.25    -999.25   -0.27450    -999.25    -999.25  103.38500    9.99080    -999.25    1.52960    1.56000    1.73950  653.76570    -999.25    -999.25    -999.25
