~Version ---------------------------------------------------
VERS. 2.0 : CWLS log ASCII Standard -VERSION 2.0
WRAP. YES : MULTIPLE LINES PER DEPTH STEP
~Well ------------------------------------------------------
STRT.FT                  550.0 : START DEPTH
STOP.FT                 4850.0 : STOP DEPTH
STEP.FT               50.00000 : STEP LENGTH
NULL.                  -999.25 : NULL VALUE
COMP.      KAISER OIL USA LTD. : COMPANY
WELL.     CONNELLY JOHN B. #1A : WELL
FLD .                       WC : FIELD
LOC .                          : LOCATION
CNTY.                   WILSON : COUNTY
STAT.                    TEXAS : STATE
CTRY. UNITED STATES OF AMERICA : COUNTRY
SRVC.             Schlumberger : SERVICE COMPANY
DATE.              01-May-1982 : LOGDATE
API .           42493311060000 : API NUMBER
UWI .           42493311060000 : UNIQUE WELL ID
SLAT.WGS84       29.1269044783 : SURFACE LATITUDE
SLON.WGS84      -98.3133795575 : SURFACE LONGITUDE
~Curve Information -----------------------------------------
DEPT    .FT    : DEPTH FEET
CALWS   .IN    : CALIPER [DCALRED+8.875]
CONDWS  .MMHO  : CONDUCTIVITY [1000/DRESWS]
DCALRED .IN    : DIFFERENTIAL CALIPER FROM RESISTIVITY LOG
DCORWS  .G/C3  : DENSITY CORRECTION [DRHOED]
DENWS   .G/C3  : BULK DENSITY [CALCULATED FROM DPOWS][M=2.65 F=1.0]<4150>[M=2.71 F=1.0]
DPHILSED.V/V   : DENSITY POROSITY [M=2.71 F=1.0] FROM IDN LOG
DPHISSED.V/V   : DENSITY POROSITY [M=2.65 F=1.0] FROM IDN LOG
DPOWS   .V/V   : DENSITY POROSITY [M=2.65 F=1.0][DPHISSED]<4150>[M=2.71 F=1.0] [DPHILSED]
DRESWS  .OHMM  : DEEP RESISTIVITY [ILDED]
DRHOED  .G/C3  : DENSITY CORRECTION FROM IDN LOG
GRRED   .GAPI  : GAMMA RAY FROM RESISTIVITY LOG
GRWS    .GAPI  : GAMMA RAY [GRRED]
ILDED   .OHMM  : INDUCTION LOG DEEP RESISTIVITY
ILMED   .OHMM  : INDUCTION LOG MEDIUM RESISTIVITY
MRESWS  .OHMM  : MEDIUM RESISTIVITY [ILMED]
NPHILSED.V/V   : NEUTRON POROSITY LIMESTONE FROM IDN LOG
NPHISSED.V/V   : NEUTRON POROSITY SANDSTONE FROM IDN LOG
NPOWS   .V/V   : NEUTRON POROSITY SANDSTONE [NPHISSED]<4150>[NPHILSED]
SFLUED  .OHMM  : SPHERICALLY FOCUSED LOG RESISTIVITY
SPRED   .MV    : SPONTANEOUS POTENTIAL FROM RESISTIVITY LOG
SPWS    .MV    : SPONTANEOUS POTENTIAL [BASELINE 0 MV] [SPRED]
SRESWS  .OHMM  : SHALLOW RESISTIVITY [SFLUED]
TENRED  .LBF   : TENSION FROM RESISTIVITY LOG
~Params ----------------------------------------------------
PD  .                     GL : PERMANENT DATUM
EPD .FT                  551 : ELEVATION PERMANENT DATUM
LMF .                     KB : LOG MEASURED FROM
DAPD.FT                   10 : FEET ABOVE PERMANENT DATUM
DMF .                     KB : DRILLING MEASURED FROM
EKB .FT                  561 : KELLY BUSHING
EDF .FT                  560 : DRILLING FLOOR
EGL .FT                  551 : GROUND LEVEL
DATE.               05/01/82 : RUN DATE
RUN .                      1 : RUN NUMBER
DD  .FT                 4859 : DEPTH DRILLER
DL  .FT                 4856 : DEPTH LOGGER
BLI .FT                 4850 : BOTTOM LOG INTERVAL
TLI .FT                  510 : TOP LOG INTERVAL
CS  .IN                8.875 : CASING SIZE
CBD .FT                  500 : CASING BOTTOM DRILLER
CBL .FT                  510 : CASING BOTTOM LOGGER
BS  .IN                7.375 : BIT SIZE
BSD .FT                 4859 : BIT SIZE AT DEPTH
DFT .               LIG SULF : DRILLING FLUID TYPE
DFD .                    9.6 : DRILLING FLUID DENSITY
DFV .                     45 : DRILLING FLUID VISCOSITY
DFPH.                    8.6 : DRILLING FLUID PH
DFL .                    5.4 : DRILLING FLUID LOSS
MSS .                    PIT : MUD SAMPLE SOURCE
RMS .OHMM               1.01 : RESISTIVITY MUD SAMPLE
MST .DEGF                 75 : MUD SAMPLE TEMPERATURE
RMF .OHMM               0.96 : RESISTIVITY MUD FILTRATE SAMPLE
MFST.DEGF                 75 : MUD FILTRATE SAMPLE TEMPERATURE
RMC .OHMM                  2 : RESISTIVITY MUD CAKE
MCST.DEGF                 75 : MUD CAKE SAMPLE TEMPERATURE
MFSS.                    CAL : MUD FILTRATE SAMPLE SOURCE
MCSS.                    CAL : MUD CAKE SAMPLE SOURCE
RMB .OHMM              0.583 : RESISTIVITY MUD AT BHT
TCS .HRS                 100 : TIME CIRCULATED STOPPED
TLAB.HRS                 500 : TIME LOGGER AT BOTTOM
LUN .                   8258 : LOGGING UNIT NUMBER
LUL .             PLEASANTON : LOGGING UNIT LOCATION
ENGI.        HILTON COMSTOCK : RECORDING ENGINEER
WITN.                 PAVONA : WITNESSED BY
CLNT.                A2DTECH : CLIENT CODE
ORIG.               5" PRINT : ORIGIN OF DATA
UWI .         42493311060000 : UNIQUE WELL ID
DICO. A2D Technologies, Inc. : DIGITIZING COMPANY
~Other -----------------------------------------------------
~ASCII -----------------------------------------------------
  550.00000   10.73350   58.85260    1.85850    0.02610    2.10670    -999.25    0.32930    0.32930   16.99160    0.02610   64.02180   64.02180   16.99160   14.85030   14.85030    -999.25    0.46960    0.46960   11.48340 -158.45510   -9.82940   11.48340 2990.99020
  600.00000   10.64680   39.49980    1.77180    0.01310    2.05140    -999.25    0.36280    0.36280   25.31660    0.01310   58.77420   58.77420   25.31660   21.96670   21.96670    -999.25    0.39680    0.39680   20.53010 -151.78460   -9.20580   20.53010 3001.37550
  650.00000   10.26930    8.44830    1.39430    0.00590    2.05040    -999.25    0.36340    0.36340  118.36660    0.00590   25.86590   25.86590  118.36660   50.86790   50.86790    -999.25    0.38330    0.38330   56.98310 -137.58750   -3.49770   56.98310 3030.64400
  700.00000    9.79090    6.14870    0.91590    0.01780    2.02750    -999.25    0.37730    0.37730  162.63480    0.01780   40.17090   40.17090  162.63480   62.04780   62.04780    -999.25    0.42750    0.42750   62.53480 -122.95680    1.01590   62.53480 3019.48270
  750.00000    9.64370   13.57780    0.76870    0.01220    2.03140    -999.25    0.37490    0.37490   73.64950    0.01220   34.77890   34.77890   73.64950   57.78860   57.78860    -999.25    0.29710    0.29710   66.30210 -117.90030   -4.04460   66.30210  958.72360
  800.00000    9.96970    8.35870    1.09470    0.08280    2.07040    -999.25    0.35130    0.35130  119.63590    0.08280   26.23840   26.23840  119.63590   55.59010   55.59010    -999.25    0.35730    0.35730   53.71180 -118.28850  -14.54990   53.71180  928.12010
  850.00000    9.94610    6.55690    1.07110    0.03030    2.04540    -999.25    0.36640    0.36640  152.51030    0.03030   28.08750   28.08750  152.51030   49.20300   49.20300    -999.25    0.37710    0.37710   53.53700 -101.06280   -4.14830   53.53700  959.62500
  900.00000    8.96690   11.22090    0.09190    0.01010    2.02350    -999.25    0.37970    0.37970   89.11930    0.01010   38.07030   38.07030   89.11930   46.89530   46.89530    -999.25    0.44120    0.44120   44.94050  -95.67830   -3.96590   44.94050 1010.15700
  950.00000    9.03660    6.66540    0.16160    0.00430    2.08900    -999.25    0.34000    0.34000  150.02910    0.00430   26.28860   26.28860  150.02910   51.40040   51.40040    -999.25    0.32900    0.32900   60.06640  -91.14270   -4.63250   60.06640 1009.65040
 1000.00000    8.80980   10.06020   -0.06520    0.02870    2.06180    -999.25    0.35650    0.35650   99.40130    0.02870   50.45760   50.45760   99.40130   65.85750   65.85750    -999.25    0.43240    0.43240   59.63190  -84.85310   -3.54510   59.63190  998.55030
 1050.00000    8.81660   38.48890   -0.05840    0.00760    2.14720    -999.25    0.30470    0.30470   25.98150    0.00760   94.75730   94.75730   25.98150   20.89700   20.89700    -999.25    0.45680    0.45680   18.37710  -87.44830  -11.34250   18.37710 1010.53000
 1100.00000    8.69850   19.91040   -0.17650    0.01670    2.07550    -999.25    0.34820    0.34820   50.22500    0.01670   60.60150   60.60150   50.22500   40.06070   40.06070    -999.25    0.43150    0.43150   35.42930  -79.03530   -7.69830   35.42930 1040.87700
 1150.00000    8.97070   13.37050    0.09570    0.02620    2.01360    -999.25    0.38570    0.38570   74.79150    0.02620   49.25720   49.25720   74.79150   48.91600   48.91600    -999.25    0.44020    0.44020   38.78420  -79.51480  -10.97210   38.78420 1042.72580
 1200.00000    8.88820   13.73680    0.01320    0.02160    2.01380    -999.25    0.38560    0.38560   72.79730    0.02160   47.32250   47.32250   72.79730   48.03090   48.03090    -999.25    0.43290    0.43290   40.62150  -75.42110   -9.67270   40.62150 1019.91800
 1250.00000    8.92860   40.43950    0.05360    0.02980    2.01870    -999.25    0.38260    0.38260   24.72830    0.02980   61.92160   61.92160   24.72830   23.57260   23.57260    -999.25    0.46480    0.46480   21.62230  -67.33310   -6.94740   21.62230 1088.82640
 1300.00000    8.65550   31.63890   -0.21950    0.02900    2.08090    -999.25    0.34490    0.34490   31.60670    0.02900   67.19070   67.19070   31.60670   26.69980   26.69980    -999.25    0.42190    0.42190   23.19510  -72.47370  -10.30410   23.19510 1103.61790
 1350.00000    9.41210  131.29050    0.53710    0.07210    2.17100    -999.25    0.29030    0.29030    7.61670    0.07210   87.18860   87.18860    7.61670    6.79890    6.79890    -999.25    0.46470    0.46470    5.89170  -66.48610   -4.54570    5.89170 1104.69820
 1400.00000    8.82210   41.57800   -0.05290    0.00700    1.99530    -999.25    0.39680    0.39680   24.05120    0.00700   64.27150   64.27150   24.05120   23.01940   23.01940    -999.25    0.46310    0.46310   18.75950  -66.98080   -5.26960   18.75950 1121.17140
 1450.00000    8.83740  103.63120   -0.03760    0.02330    2.06490    -999.25    0.35460    0.35460    9.64960    0.02330   73.22080   73.22080    9.64960    9.20230    9.20230    -999.25    0.47860    0.47860   15.39650  -68.25890   -6.77700   15.39650 1160.45830
 1500.00000    8.88580  107.17420    0.01080    0.01630    2.08170    -999.25    0.34440    0.34440    9.33060    0.01630   70.53910   70.53910    9.33060    8.85050    8.85050    -999.25    0.46070    0.46070    9.65520  -67.49180   -6.23910    9.65520 1202.23270
 1550.00000    9.28320  206.38130    0.40820    0.04380    2.16240    -999.25    0.29550    0.29550    4.84540    0.04380   87.48010   87.48010    4.84540    4.72250    4.72250    -999.25    0.49910    0.49910    4.84580  -64.24550   -4.10720    4.84580 1195.93850
 1600.00000    9.74650  281.77750    0.87150    0.09610    2.18140    -999.25    0.28400    0.28400    3.54890    0.09610   93.49330   93.49330    3.54890    3.28860    3.28860    -999.25    0.50420    0.50420    3.64730  -61.81470   -3.05530    3.64730 1221.62430
 1650.00000    8.57210   50.50860   -0.30290    0.01800    2.04050    -999.25    0.36940    0.36940   19.79860    0.01800   61.69870   61.69870   19.79860   18.95570   18.95570    -999.25    0.44050    0.44050   18.18100  -67.15070   -9.77020   18.18100 1209.32980
 1700.00000    8.63730   62.92870   -0.23770    0.01630    2.02170    -999.25    0.38080    0.38080   15.89100    0.01630   63.89950   63.89950   15.89100   15.50920   15.50920    -999.25    0.45170    0.45170   16.57030  -65.10950   -9.10780   16.57030 1224.19510
 1750.00000    8.81050   59.31830   -0.06450    0.01280    2.04070    -999.25    0.36930    0.36930   16.85820    0.01280   62.61840   62.61840   16.85820   16.41000   16.41000    -999.25    0.40030    0.40030   15.38650  -67.77040  -13.14760   15.38650 1224.11130
 1800.00000    8.71210   57.35720   -0.16290    0.02430    2.05630    -999.25    0.35980    0.35980   17.43460    0.02430   57.05000   57.05000   17.43460   17.88270   17.88270    -999.25    0.42130    0.42130   16.24770  -65.47440  -12.23050   16.24770 1264.82640
 1850.00000   10.52120  360.08790    1.64620    0.05310    2.21700    -999.25    0.26240    0.26240    2.77710    0.05310  111.41410  111.41410    2.77710    2.72690    2.72690    -999.25    0.50480    0.50480    2.55350  -54.95060   -3.08560    2.55350 1276.92650
 1900.00000    9.14860  256.82510    0.27360    0.02400    2.12280    -999.25    0.31950    0.31950    3.89370    0.02400   94.81400   94.81400    3.89370    3.97590    3.97590    -999.25    0.46670    0.46670    4.15300  -60.39380   -9.90760    4.15300 1306.15280
 1950.00000    9.24620  199.96800    0.37120    0.01480    2.21060    -999.25    0.26630    0.26630    5.00080    0.01480   99.81000   99.81000    5.00080    5.14890    5.14890    -999.25    0.44020    0.44020    4.51340  -52.18560   -3.07830    4.51340 1301.24510
 2000.00000    9.37590  312.00270    0.50090    0.05470    2.21560    -999.25    0.26330    0.26330    3.20510    0.05470  103.80270  103.80270    3.20510    3.29670    3.29670    -999.25    0.51230    0.51230    2.81590  -49.94410   -2.21570    2.81590 1341.12380
 2050.00000    8.51030   84.77450   -0.36470    0.01340    2.03850    -999.25    0.37060    0.37060   11.79600    0.01340   68.23120   68.23120   11.79600   12.42040   12.42040    -999.25    0.44210    0.44210   11.01220  -61.01040  -14.66090   11.01220 1370.44240
