~Version ---------------------------------------------------
VERS. 2.0 : CWLS log ASCII Standard -VERSION 2.0
WRAP.  NO : ONE LINE PER DEPTH STEP
~Well ------------------------------------------------------
STRT.F                     3550.0 : START DEPTH
STOP.F                     9800.0 : STOP DEPTH
STEP.F                   50.00000 : STEP LENGTH
NULL.                     -999.25 : NULL VALUE
COMP. MITCHELL ENERGY CORPORATION : COMPANY
WELL.              KROLL LLOYD #1 : WELL
FLD .             MADISONVILLE, W : FIELD
LOC .                             : LOCATION
CNTY.                     MADISON : COUNTY
STAT.                       TEXAS : STATE
CTRY.    UNITED STATES OF AMERICA : COUNTRY
SRVC.                             : SERVICE COMPANY
DATE.                             : LOGDATE
API .              42313305590000 : API NUMBER
UWI .              42313305590000 : UNIQUE WELL ID
SLAT.WGS84          30.8725507632 : SURFACE LATITUDE
SLON.WGS84         -96.0290528463 : SURFACE LONGITUDE
~Curve Information -----------------------------------------
DEPT.F                  : 
GRN .GAPI  35 310 01 00 : GAMMA RAY FROM GRN LOG
NEUT.NAPI  35 330 00 00 : NEUTRON
GRR .GAPI  07 310 01 00 : GAMMA RAY FROM RESISTIVITY LOG
RILD.OHMM  07 120 46 00 : RAW DEEP INDUCTION RESISTIVITY
RILM.OHMM  07 120 44 00 : RAW MEDIUM INDUCTION RESISTIVITY
RILS.OHMM  07 120 00 00 : RAW SHALLOW INDUCTION RESISTIVITY
SPR .MV    07 010 01 00 : SPONTANEOUS POTENTIAL FROM RESISTIVITY LOG
CALX.IN    07 280 13 00 : CALIPER FROM X AXIS OF X-Y CALIPER(S)
DT  .US/F  60 500 00 00 : DELTA-T (INTERVAL TRANSIT TIME)
ROP .FT/HR 91 810 00 00 : RATE OF PENETRATION
TGAS.UNITS 91 830 01 00 : TOTAL GAS FROM HOTWIRE
~Params ----------------------------------------------------
PD  .                     GL : PERMANENT DATUM
EPD .FT                  297 : ELEVATION PERMANENT DATUM
LMF .                     KB : LOG MEASURED FROM
DAPD.FT                13.54 : FEET ABOVE PERMANENT DATUM
DMF .                     KB : DRILLING MEASURED FROM
EKB .FT               310.54 : KELLY BUSHING
EDF .FT               309.54 : DRILLING FLOOR
EGL .FT                  297 : GROUND LEVEL
DATE.               03/11/85 : RUN DATE
RUN .                      1 : RUN NUMBER
DD  .FT                 9800 : DEPTH DRILLER
DL  .FT                 9217 : DEPTH LOGGER
BLI .FT                 9216 : BOTTOM LOG INTERVAL
TLI .FT                 3550 : TOP LOG INTERVAL
CS  .IN                8.625 : CASING SIZE
CBD .FT                 3550 : CASING BOTTOM DRILLER
CBL .FT                 3550 : CASING BOTTOM LOGGER
BS  .IN                7.875 : BIT SIZE
BSD .FT                 9800 : BIT SIZE AT DEPTH
DFT .         LIGNOSULFONATE : DRILLING FLUID TYPE
DFD .                    9.5 : DRILLING FLUID DENSITY
DFV .                     76 : DRILLING FLUID VISCOSITY
DFPH.                   10.3 : DRILLING FLUID PH
DFL .                    6.4 : DRILLING FLUID LOSS
MSS .                 MUDPIT : MUD SAMPLE SOURCE
RMS .OHMM                1.8 : RESISTIVITY MUD SAMPLE
MST .DEGF                 75 : MUD SAMPLE TEMPERATURE
RMF .OHMM                1.3 : RESISTIVITY MUD FILTRATE SAMPLE
MFST.DEGF                 75 : MUD FILTRATE SAMPLE TEMPERATURE
RMC .OHMM                2.2 : RESISTIVITY MUD CAKE
MCST.DEGF                 75 : MUD CAKE SAMPLE TEMPERATURE
MFSS.                      M : MUD FILTRATE SAMPLE SOURCE
MCSS.                      M : MUD CAKE SAMPLE SOURCE
RMB .OHMM                0.6 : RESISTIVITY MUD AT BHT
TCS .HRS                1830 : TIME CIRCULATED STOPPED
TLAB.HRS                 417 : TIME LOGGER AT BOTTOM
LUN .                   7577 : LOGGING UNIT NUMBER
LUL .                  BRYAN : LOGGING UNIT LOCATION
ENGI.               WELLMANN : RECORDING ENGINEER
WITN.                 KURTIN : WITNESSED BY
CLNT.                A2DTECH : CLIENT CODE
ORIG.            1" 5" PRINT : ORIGIN OF DATA
UWI .         42313305590000 : UNIQUE WELL ID
DICO. A2D Technologies, Inc. : DIGITIZING COMPANY
~Other -----------------------------------------------------
~ASCII -----------------------------------------------------
 3550.00000    -999.25    -999.25   64.13220    5.35560  223.09720    0.54970  -19.38290    8.63170  123.18830    -999.25    -999.25
 3600.00000    -999.25    -999.25   84.28790    5.58580    6.34400    6.73760  -37.80810   10.29380  103.34410    -999.25    -999.25
 3650.00000    -999.25    -999.25   50.23820    7.35230    8.40840    9.14680  -42.98430   12.28400  110.91270    -999.25    -999.25
 3700.00000    -999.25    -999.25   63.78500    8.31460    8.82370    9.86250  -41.26230   10.34890  103.96410    -999.25    -999.25
 3750.00000    -999.25    -999.25   59.27580    7.64040    8.80000    9.54330  -40.25230   10.28520  103.39630    -999.25    -999.25
 3800.00000    -999.25    -999.25   60.37240    7.92900    7.48330    5.90920  -40.13320   11.75950  106.02760    -999.25    -999.25
 3850.00000    -999.25    -999.25   63.77500    7.65980    6.72910    6.19650  -37.46990   10.68860  101.89380    -999.25    -999.25
 3900.00000    -999.25    -999.25   73.61150    3.84720    3.44710    4.02670  -18.12340   13.30700  129.70350    -999.25    -999.25
 3950.00000    -999.25    -999.25   61.47540    5.62750    7.87950    8.60250  -44.38610   10.04880  103.60000    -999.25    -999.25
 4000.00000    -999.25    -999.25   56.25680    5.18960    7.31180    8.61910  -44.60930    9.10450  101.99540    -999.25    -999.25
 4050.00000    -999.25    -999.25   83.20300    5.36680    6.32300    6.74180  -35.61340   10.01100   99.85910    -999.25    -999.25
 4100.00000    -999.25    -999.25   95.43330    5.28880    5.81820    6.26730  -32.90290   10.46650   91.02770    -999.25    -999.25
 4150.00000    -999.25    -999.25   48.05400    2.87150    4.28900    6.00170  -51.60890   12.29930  102.15550    -999.25    -999.25
 4200.00000    -999.25    -999.25   85.29210    4.38850    5.15400    6.10510  -31.99210   10.58840   97.11010    -999.25    -999.25
 4250.00000    -999.25    -999.25   65.68410    2.71030    4.02000    6.81890  -52.21150    8.68240  100.81810    -999.25    -999.25
 4300.00000    -999.25    -999.25   93.66980    3.55830    4.46960    5.17410  -28.98870    9.54100  106.28580    -999.25    -999.25
 4350.00000    -999.25    -999.25   69.32970    1.89500    2.95100    6.66680  -55.79300    8.91090   99.58190    -999.25    -999.25
 4400.00000    -999.25    -999.25   72.63560    2.13320    3.29860    6.23460  -47.96990    9.01180   99.11340    -999.25    -999.25
 4450.00000    -999.25    -999.25   54.40090    1.62940    2.24930    4.41290  -59.75700    8.71860  102.64450    -999.25    -999.25
 4500.00000    -999.25    -999.25   66.04670    1.84200    2.80470    6.50840  -58.55940    8.33820   96.54730    -999.25    -999.25
 4550.00000    -999.25    -999.25   83.18490    2.08120    3.08040    6.38770  -51.97950    8.28730   94.34590    -999.25    -999.25
 4600.00000    -999.25    -999.25   53.40490    1.32100    2.07190    6.24090  -62.91680    8.45250   98.46520    -999.25    -999.25
 4650.00000    -999.25    -999.25   61.38170    1.14300    1.39840    4.51890  -62.77620    8.97000   98.44680    -999.25    -999.25
 4700.00000    -999.25    -999.25   96.19230    2.60290    3.32700    4.94830  -30.74980    9.11150   96.09400    -999.25    -999.25
 4750.00000    -999.25    -999.25   64.56770    1.39950    2.21630    6.90660  -58.03500    8.41640   93.57130    -999.25    -999.25
 4800.00000    -999.25    -999.25   60.74790    0.81900    1.04000    4.04560  -62.88000    7.73990   97.65490    -999.25    -999.25
 4850.00000    -999.25    -999.25   84.17600    1.11110    1.60650    4.47350  -56.03450    7.58290   92.73870    -999.25    -999.25
 4900.00000    -999.25    -999.25  105.27400    1.51560    2.30090    6.52530  -53.40330    7.96740   89.37650    -999.25    -999.25
 4950.00000    -999.25    -999.25  106.46740    1.73660    2.31030    3.51690  -27.66450    7.92970   97.16820    -999.25    -999.25
 5000.00000    -999.25    -999.25   91.94650    2.22330    2.98030    3.65790  -26.16580    8.34270   88.01780    -999.25    -999.25
 5050.00000    -999.25    -999.25   95.50820    2.45360    2.56130    3.29540  -18.42540    8.87140   91.90080    -999.25    -999.25
 5100.00000    -999.25    -999.25   87.85420    1.97490    3.17930    6.35910  -45.16350    7.78490   90.92970    -999.25    -999.25
 5150.00000    -999.25    -999.25   78.42610    1.78890    2.62590    5.58130  -36.47240    8.15700   89.90760    -999.25    -999.25
 5200.00000    -999.25    -999.25   91.96920    2.34170    2.42350    2.70310  -16.81860    9.90730   92.26980    -999.25    -999.25
 5250.00000    -999.25    -999.25   96.04240    2.37750    2.47260    2.66250  -14.58380    9.37330   92.01410    -999.25    -999.25
 5300.00000    -999.25    -999.25   98.73230    1.93760    2.01520    2.29370  -10.44110    9.22250   98.10830    -999.25    -999.25
 5350.00000    -999.25    -999.25   91.36410    2.23540    2.32460    2.63990  -15.06120    8.92780   92.41540    -999.25    -999.25
 5400.00000    -999.25    -999.25   92.05830    2.26350    2.35400    2.56520  -14.66000    9.42160   92.39330    -999.25    -999.25
 5450.00000    -999.25    -999.25   93.97410    2.33870    2.43250    2.55640  -12.49970   10.04950   92.57270    -999.25    -999.25
 5500.00000    -999.25    -999.25   92.32460    2.33280    2.42600    2.51760  -11.45080   10.18710   92.83280    -999.25    -999.25
 5550.00000    -999.25    -999.25   90.20780    2.55400    2.65600    2.91350  -11.34770    9.80900   88.39660    -999.25    -999.25
 5600.00000    -999.25    -999.25   93.55990    2.10360    2.21400    2.44400   -9.40900   10.08250   93.16870    -999.25    -999.25
 5650.00000    -999.25    -999.25   94.94680    2.25850    2.35070    2.44390   -7.96970   10.08890   90.86340    -999.25    -999.25
 5700.00000    -999.25    -999.25   95.34750    2.21000    2.29830    2.53730   -7.69000    9.77820   90.77670    -999.25    -999.25
 5750.00000    -999.25    -999.25   93.54420    2.24050    2.32960    2.64220   -7.16260   10.10600   92.87260    -999.25    -999.25
 5800.00000    -999.25    -999.25   86.38780    2.41000    2.50580    2.81400   -7.70830   10.55530   89.40590    -999.25    -999.25
 5850.00000    -999.25    -999.25   88.73260    2.29210    2.54330    2.65890   -7.63200   10.97150   91.82030    -999.25    -999.25
 5900.00000    -999.25    -999.25   89.89250    2.26190    2.35190    2.49080   -8.48000   10.72760   89.94860    -999.25    -999.25
 5950.00000    -999.25    -999.25   86.95200    2.32300    2.53320    2.62570   -6.60030   11.92500   89.62180    -999.25    -999.25
 6000.00000    -999.25    -999.25   87.61790    2.40420    2.50250    2.59850   -6.04760   12.25790   95.04550    -999.25    -999.25
 6050.00000    -999.25    -999.25   87.16830    2.18820    2.27520    2.48040   -6.90630   12.97760  110.83060    -999.25    -999.25
 6100.00000    -999.25    -999.25   88.56620    2.08820    2.17150    2.35180   -5.69590   13.09110  111.08050    -999.25    -999.25
 6150.00000    -999.25    -999.25   86.29330    2.37840    2.47320    2.75850   -5.05920   12.17090  120.47790    -999.25    -999.25
 6200.00000    -999.25    -999.25   89.76290    2.15130    2.23690    2.62350   -3.86680   11.56630  115.21050    -999.25    -999.25
 6250.00000    -999.25    -999.25   91.75820    2.29420    2.39050    2.94480   -3.01620    9.89740   89.43460    -999.25    -999.25
 6300.00000    -999.25    -999.25   85.13760    2.70220    2.80650    3.06160   -5.80490   10.56160   85.51600    -999.25    -999.25
 6350.00000    -999.25    -999.25   88.82900    2.30130    2.40720    2.79290   -5.38490   13.77940  110.94350    -999.25    -999.25
 6400.00000    -999.25    -999.25   83.94970    2.17670    2.26300    2.39860   -7.05960   15.57930  139.88080    -999.25    -999.25
 6450.00000    -999.25    -999.25   85.62900    1.91720    1.99300    2.15970   -3.93950    -999.25  113.05560    -999.25    -999.25
 6500.00000    -999.25    -999.25   86.76600    1.93490    2.01290    2.08840   -4.77080   14.80280  105.48000    -999.25    -999.25
 6550.00000    -999.25    -999.25   82.96300    1.62780    1.73250    1.85280   -0.88560    8.99840   94.37560    -999.25    -999.25
