~Version ---------------------------------------------------
VERS. 2.0 : CWLS log ASCII Standard -VERSION 2.0
WRAP.  NO : ONE LINE PER DEPTH STEP
~Well ------------------------------------------------------
STRT.F                    3900.0 : START DEPTH
STOP.F                    8200.0 : STOP DEPTH
STEP.F                  50.00000 : STEP LENGTH
NULL.                    -999.25 : NULL VALUE
COMP. CHAMPLIN PETROLEUM COMPANY : COMPANY
WELL.         FLOYD T. SWONKE #1 : WELL
FLD .                   GIDDINGS : FIELD
LOC .                            : LOCATION
CNTY.                   BURLESON : COUNTY
STAT.                      TEXAS : STATE
CTRY.   UNITED STATES OF AMERICA : COUNTRY
SRVC.               Schlumberger : SERVICE COMPANY
DATE.                21-Sep-1980 : LOGDATE
API .             42051309360000 : API NUMBER
UWI .             42051309360000 : UNIQUE WELL ID
SLAT.WGS84         30.4510572184 : SURFACE LATITUDE
SLON.WGS84        -96.7010729865 : SURFACE LONGITUDE
~Curve Information -----------------------------------------
DEPT   .F                 : 
NPHI_SS.DEC  42 890 03 00 : NEUTRON POROSITY SANDSTONE
GRR    .GAPI 07 310 01 00 : GAMMA RAY FROM RESISTIVITY LOG
DPHI_SS.DEC  45 890 12 00 : DENSITY POROSITY SANDSTONE
SPR    .MV   07 010 01 00 : SPONTANEOUS POTENTIAL FROM RESISTIVITY LOG
SFLU   .OHMM 07 220 01 00 : SHALLOW FOCUSED RESISTIVITY (UNAVERAGED)
DRHO   .G/C3 45 356 01 00 : BULK DENSITY CORRECTION
DCAL   .IN   07 280 01 00 : DIFFERENTIAL CALIPER
RILD   .OHMM 07 120 46 00 : DEEP INDUCTION RESISTIVITY
RILM   .OHMM 07 120 44 00 : INDUCTION LOG MEDIUM RESISTIVITY
NPHI_LS.DEC  42 890 01 00 : NEUTRON POROSITY LIMESTONE
DPHI_LS.DEC  45 890 10 00 : DENSITY POROSITY LIMESTONE
~Params ----------------------------------------------------
PD  .                     GL : PERMANENT DATUM
EPD .FT                  393 : ELEVATION PERMANENT DATUM
LMF .                     KB : LOG MEASURED FROM
DAPD.FT                   14 : FEET ABOVE PERMANENT DATUM
DMF .                     KB : DRILLING MEASURED FROM
EKB .FT                  407 : KELLY BUSHING
EDF .FT                  406 : DRILLING FLOOR
EGL .FT                  393 : GROUND LEVEL
DATE.               09/21/80 : RUN DATE
RUN .                      1 : RUN NUMBER
DD  .FT                 8220 : DEPTH DRILLER
DL  .FT                 8221 : DEPTH LOGGER
BLI .FT                 8215 : BOTTOM LOG INTERVAL
TLI .FT                 3912 : TOP LOG INTERVAL
CS  .IN                9.625 : CASING SIZE
CBD .FT                 3900 : CASING BOTTOM DRILLER
CBL .FT                 3912 : CASING BOTTOM LOGGER
BS  .IN                  8.5 : BIT SIZE
BSD .FT                 8220 : BIT SIZE AT DEPTH
DFT .            BENEX WL100 : DRILLING FLUID TYPE
DFD .                    9.2 : DRILLING FLUID DENSITY
DFV .                     41 : DRILLING FLUID VISCOSITY
DFPH.                      8 : DRILLING FLUID PH
DFL .                    5.6 : DRILLING FLUID LOSS
MSS .                   TANK : MUD SAMPLE SOURCE
RMS .OHMM                2.1 : RESISTIVITY MUD SAMPLE
MST .DEGF                 90 : MUD SAMPLE TEMPERATURE
RMF .OHMM               1.89 : RESISTIVITY MUD FILTRATE SAMPLE
MFST.DEGF                 75 : MUD FILTRATE SAMPLE TEMPERATURE
RMC .OHMM               3.15 : RESISTIVITY MUD CAKE
MCST.DEGF                 90 : MUD CAKE SAMPLE TEMPERATURE
MFSS.                      M : MUD FILTRATE SAMPLE SOURCE
MCSS.                      C : MUD CAKE SAMPLE SOURCE
RMB .OHMM                  1 : RESISTIVITY MUD AT BHT
TCS .HRS                2100 : TIME CIRCULATED STOPPED
TLAB.HRS                 730 : TIME LOGGER AT BOTTOM
LUN .                   7750 : LOGGING UNIT NUMBER
LUL .                BRENHAM : LOGGING UNIT LOCATION
ENGI.       ALEXANDER HARRIS : RECORDING ENGINEER
WITN.                 SCHELL : WITNESSED BY
CLNT.                A2DTECH : CLIENT CODE
ORIG.            2" 5" PRINT : ORIGIN OF DATA
UWI .         42051309360000 : UNIQUE WELL ID
DICO. A2D Technologies, Inc. : DIGITIZING COMPANY
~Other -----------------------------------------------------
~ASCII -----------------------------------------------------
 3900.00000    0.59780   51.11740    -999.25    -999.25    -999.25    -999.25    -999.25    -999.25    -999.25    -999.25    -999.25
 3950.00000    0.39790   63.61860    0.34940  -14.90890   16.11480    0.05280    1.63430    8.77580   11.83800    -999.25    -999.25
 4000.00000    0.36920   83.65060    0.33840  -31.11860   10.09040    0.04310    0.82010    7.69970    9.03550    -999.25    -999.25
 4050.00000    0.39520   83.80750    0.27420   -8.22310    2.86910    0.04510    2.46220    2.60360    2.71980    -999.25    -999.25
 4100.00000    0.41490   93.05280    0.26880   -9.61730    2.49160    0.09270    1.60220    2.60760    2.71270    -999.25    -999.25
 4150.00000    0.41790   67.62160    0.31740  -32.05580    5.51030    0.03860    0.87800    3.25990    4.08370    -999.25    -999.25
 4200.00000    0.42110  105.59890    0.29530   -9.48930    2.32650    0.08040    1.15080    2.73620    2.96800    -999.25    -999.25
 4250.00000    0.33300   88.18110    0.22600  -11.56770    3.63150    0.05360    1.71030    3.17950    3.30640    -999.25    -999.25
 4300.00000    0.31570   73.96020    0.19140  -29.75970    5.46190    0.09540    0.75700    3.58190    4.17150    -999.25    -999.25
 4350.00000    0.33070   92.11010    0.22000   -7.51970    3.29880    0.09020    1.45890    2.67110    2.83530    -999.25    -999.25
 4400.00000    0.36040   88.16040    0.22750   -7.62350    2.39320    0.09880    0.84990    2.50230    2.58650    -999.25    -999.25
 4450.00000    0.33590   94.97930    0.19850   -7.87650    3.09770    0.09440    1.11410    2.94010    3.04220    -999.25    -999.25
 4500.00000    0.30570   87.94220    0.18990   -7.77630    2.94310    0.06950    1.25560    2.81120    2.90560    -999.25    -999.25
 4550.00000    0.36920   93.85860    0.22900   -3.77580    2.19530    0.09600    1.71880    1.99130    2.06250    -999.25    -999.25
 4600.00000    0.41980   94.42210    0.25410   -3.43380    1.87360    0.08570    1.47410    1.66330    1.71890    -999.25    -999.25
 4650.00000    0.36140   82.83210    0.25450   -4.06350    2.53190    0.09540    0.97800    2.22960    2.30760    -999.25    -999.25
 4700.00000    0.39130   92.30120    0.21810   -1.63680    1.89290    0.09800    1.50520    1.66620    1.72200    -999.25    -999.25
 4750.00000    0.37570   95.27280    0.23980   -2.77400    1.71120    0.07310    1.90510    1.51120    1.56170    -999.25    -999.25
 4800.00000    0.42030  100.06000    0.24470   -3.10580    1.66610    0.05680    1.21730    1.45340    1.50330    -999.25    -999.25
 4850.00000    0.41320  111.26780    0.25070   -1.98290    1.53760    0.09730    1.31210    1.45090    1.50040    -999.25    -999.25
 4900.00000    0.40030   89.98060    0.23210   -2.00900    1.79720    0.09830   -0.22780    1.61850    1.67470    -999.25    -999.25
 4950.00000    0.40920  101.06040    0.23430   -0.43010    1.47560    0.09120    1.22660    1.22740    1.30060    -999.25    -999.25
 5000.00000    0.39190   91.11750    0.25470   -2.40380    1.11090    0.09290    1.79870    1.07090    1.14360    -999.25    -999.25
 5050.00000    0.32030   87.91900    0.18640   -3.39900    2.02910    0.07270    1.42540    1.95980    2.00210    -999.25    -999.25
 5100.00000    0.36690  105.73890    0.18510   -2.44750    1.67730    0.09010    1.47370    1.51890    1.58620    -999.25    -999.25
 5150.00000    0.34110   76.15250    0.16890   -4.66780    1.83470    0.09910    1.67610    1.45600    1.56720    -999.25    -999.25
 5200.00000    0.39310   98.48360    0.15640   -2.11400    1.27740    0.08980    2.75330    1.11090    1.17330    -999.25    -999.25
 5250.00000    0.41100   87.08370    0.18930   -2.82780    1.28030    0.09630    2.30260    1.15610    1.20070    -999.25    -999.25
 5300.00000    0.37410   74.78660    0.10800   -1.92000    1.69040    0.10130    1.74480    1.48440    1.57390    -999.25    -999.25
 5350.00000    0.33260   72.39910    0.15590   -4.44660    1.81720    0.08500    1.28450    1.63350    1.70300    -999.25    -999.25
 5400.00000    0.44250   92.12160    0.25870   -2.06920    1.18460    0.09650    1.86720    1.03920    1.07430    -999.25    -999.25
 5450.00000    0.35360   90.56200    0.16870   -1.14460    1.39320    0.09840    1.66070    1.19870    1.24030    -999.25    -999.25
 5500.00000    0.36920   95.18200    0.16790   -0.00770    1.29670    0.09660    1.94560    1.08130    1.11750    -999.25    -999.25
 5550.00000    0.37710   94.89580    0.14470    0.16580    1.47000    0.05580    1.81160    1.19630    1.25780    -999.25    -999.25
 5600.00000    0.33970   92.28380    0.16960    1.34510    1.37720    0.06800    1.54870    1.25110    1.29400    -999.25    -999.25
 5650.00000    0.32310   90.56600    0.17270    0.19800    1.68380    0.08670    2.08490    1.55430    1.60620    -999.25    -999.25
 5700.00000    0.30890   81.55990    0.13750   -0.88070    1.69750    0.05710    1.88970    1.54240    1.60560    -999.25    -999.25
 5750.00000    0.37540   96.61880    0.12310   -2.06500    1.51120    0.04850    1.45300    1.36510    1.43460    -999.25    -999.25
 5800.00000    0.30430   97.12250    0.19040   -6.21760    2.13400    0.09590    1.88490    1.71580    1.80050    -999.25    -999.25
 5850.00000    0.37650   94.09180    0.15940    1.26250    1.37410    0.08190    2.61430    1.28800    1.33100    -999.25    -999.25
 5900.00000    0.34320   95.08680    0.17030    0.82520    1.48150    0.09380    2.57080    1.37130    1.41730    -999.25    -999.25
 5950.00000    0.33550  101.05580    0.16210   -3.43030    1.30050    0.08620    2.42970    1.21240    1.25340    -999.25    -999.25
 6000.00000    0.41040   93.87280    0.19650    0.87610    1.04560    0.06960    2.65220    0.96630    1.00270    -999.25    -999.25
 6050.00000    0.31500  100.43850    0.12170    1.83310    1.66430    0.07720    2.25350    1.56360    1.66200    -999.25    -999.25
 6100.00000    0.31120  115.81260    0.12360    3.09670    1.78620    0.09960    1.52030    1.56100    1.66220    -999.25    -999.25
 6150.00000    0.30260   92.05860    0.10460   -0.50330    1.95660    0.09320    1.65120    1.78580    1.84710    -999.25    -999.25
 6200.00000    0.29600   90.78190    0.10980    3.85190    1.60960    0.08750    2.67490    1.47240    1.56350    -999.25    -999.25
 6250.00000    0.29360   86.60150    0.08650    1.36640    1.95220    0.08480    1.56160    1.71720    1.80490    -999.25    -999.25
 6300.00000    0.31190   93.10430    0.14320   -1.97190    1.68140    0.09900    3.54040    1.49800    1.54800    -999.25    -999.25
 6350.00000    0.34450   87.48270    0.13710    0.20710    1.66310    0.04810    3.84030    1.53490    1.58620    -999.25    -999.25
 6400.00000    -999.25   90.20770    -999.25    0.06420    1.74350    0.09890    3.49650    1.43240    1.48930    0.28250    0.13920
 6450.00000    -999.25   81.77600    -999.25   -2.65580    1.92730    0.02100    2.03800    1.59880    1.70380    0.26700    0.14830
 6500.00000    -999.25   47.25060    -999.25   -5.79870    3.88960   -0.00900    0.64400    3.56470    3.71030    0.13270    0.07290
 6550.00000    -999.25   47.19710    -999.25   -3.93170    4.16370    0.00130    0.76940    3.56550    3.69630    0.13180    0.07530
 6600.00000    -999.25   38.67670    -999.25  -12.82230    4.30050   -0.01180    0.66090    4.29300    4.49810    0.11050    0.09170
 6650.00000    -999.25   64.60180    -999.25   -1.21740    4.36520    0.00440    0.74770    3.02610    3.20650    0.15520    0.07960
 6700.00000    -999.25   80.62640    -999.25   -5.65650    2.02820    0.09160    2.59540    1.80060    1.89220    0.26520    0.14090
 6750.00000    -999.25   96.23900    -999.25   -2.63840    2.53310    0.02150    1.59910    2.26820    2.36050    0.20580    0.12350
 6800.00000    -999.25   77.21290    -999.25   -0.32350    3.38650   -0.00700    1.78240    2.97660    3.15090    0.16240    0.10370
 6850.00000    -999.25   71.23340    -999.25    0.52000    3.13890   -0.00710    1.79880    2.77790    2.87180    0.17800    0.10070
 6900.00000    -999.25   64.15280    -999.25   -0.24790    4.15320   -0.00150    1.32290    3.36240    3.57170    0.16040    0.08180
