~Version ---------------------------------------------------
VERS. 2.0 : CWLS log ASCII Standard -VERSION 2.0
WRAP.  NO : ONE LINE PER DEPTH STEP
~Well ------------------------------------------------------
STRT.F                   300.0 : START DEPTH
STOP.F                 18600.0 : STOP DEPTH
STEP.F                50.00000 : STEP LENGTH
NULL.                  -999.25 : NULL VALUE
COMP.        SHELL OIL COMPANY : COMPANY
WELL. PAWELEK BEN A ET AL A #1 : WELL
FLD .    PERSON AREA (WILDCAT) : FIELD
LOC .                          : LOCATION
CNTY.                   KARNES : COUNTY
STAT.                    TEXAS : STATE
CTRY. UNITED STATES OF AMERICA : COUNTRY
SRVC.             Schlumberger : SERVICE COMPANY
DATE.              22-May-1978 : LOGDATE
API .           42255305980000 : API NUMBER
UWI .           42255305980000 : UNIQUE WELL ID
SLAT.WGS84       29.0241796548 : SURFACE LATITUDE
SLON.WGS84      -97.8796797249 : SURFACE LONGITUDE
~Curve Information -----------------------------------------
DEPT   .F    0   1   0  0 : 1 MEASURED DEPTH
ILD    .OHMM 07 120 46 00 : INDUCTION DEEP RESISTIVITY
ILM    .OHMM 07 120 44 00 : INDUCTION MEDIUM RESISTIVITY
SPR    .MV   07 010 01 00 : SPONTANEOUS POTENTIAL FROM RESISTIVITY LOG
SFL    .OHMM 07 220 01 00 : SPHERICALLY FOCUSED LOG
GRR    .GAPI 07 310 01 00 : GAMMA RAY FROM RESISTIVITY LOG
DPHI_SS.DEC  45 890 12 00 : DENSITY POROSITY SANDSTONE
NPHI_SS.DEC  42 890 03 00 : NEUTRON POROSITY SANDSTONE
NPHI_LS.DEC  42 890 01 00 : NEUTRON POROSITY LIMESTONE
DPHI_LS.DEC  45 890 10 00 : DENSITY POROSITY LIMESTONE
GRD    .GAPI 45 310 01 00 : GAMMA RAY FROM DENSITY LOG
RHOB   .G/C3 45 350 01 00 : BULK DENSITY
DRHO   .G/C3 45 356 01 00 : BULK DENSITY CORRECTION
CALD   .IN   45 280 60 00 : CALIPER FROM DENSITY LOG
TEND   .LB   45 635 00 00 : TENSION FROM DENSITY LOG
PROX   .OHMM 21 270 04 00 : PROXIMITY RESISTIVITY (MPT)
MCAL   .IN   15 280 01 00 : MLT (MICROLOG) CALIPER
GRS    .GAPI 60 310 01 00 : GAMMA RAY FROM SONIC LOG
DT     .US/F 60 500 00 00 : DELTA-T (INTERVAL TRANSIT TIME)
CALS   .IN   60 280 50 00 : CALIPER FROM SONIC LOG
~Params ----------------------------------------------------
PD  .                     GL : PERMANENT DATUM
EPD .FT                  335 : ELEVATION PERMANENT DATUM
LMF .                     KB : LOG MEASURED FROM
DAPD.FT                   28 : FEET ABOVE PERMANENT DATUM
DMF .                     KB : DRILLING MEASURED FROM
EKB .FT                  363 : KELLY BUSHING
EDF .FT                  362 : DRILLING FLOOR
EGL .FT                  335 : GROUND LEVEL
DATE.               05/22/78 : RUN DATE
RUN .                      4 : RUN NUMBER
DD  .FT                18626 : DEPTH DRILLER
DL  .FT                18642 : DEPTH LOGGER
BLI .FT                18637 : BOTTOM LOG INTERVAL
TLI .FT                17550 : TOP LOG INTERVAL
CS  .IN                    7 : CASING SIZE
CBD .FT                17544 : CASING BOTTOM DRILLER
CBL .FT                17550 : CASING BOTTOM LOGGER
BS  .IN                    6 : BIT SIZE
BSD .FT                18626 : BIT SIZE AT DEPTH
DFT .               INVERMUL : DRILLING FLUID TYPE
DFD .                   17.6 : DRILLING FLUID DENSITY
DFV .                     70 : DRILLING FLUID VISCOSITY
DFL .                      2 : DRILLING FLUID LOSS
LUN .                   7799 : LOGGING UNIT NUMBER
LUL .                  PLEAS : LOGGING UNIT LOCATION
ENGI.             TURBEVILLE : RECORDING ENGINEER
WITN.                JARRELL : WITNESSED BY
CLNT.                A2DTECH : CLIENT CODE
ORIG.            2" 5" PRINT : ORIGIN OF DATA
UWI .         42255305980000 : UNIQUE WELL ID
DICO. A2D Technologies, Inc. : DIGITIZING COMPANY
~Other -----------------------------------------------------
~ASCII -----------------------------------------------------
# ...
 4000.00000    9.69060    7.81960  -21.78380    7.60010    -999.25    -999.25    -999.25    -999.25    -999.25   34.16380    2.09620    0.06680   15.11890    -999.25    -999.25    -999.25   27.78310  103.48350    -999.25
 4050.00000    5.01540    4.84060  -25.34040    4.44260    -999.25    -999.25    -999.25    -999.25    -999.25   54.30370    2.31280    0.04970   15.43930    -999.25    -999.25    -999.25   48.27550  100.68070    -999.25
 4100.00000    9.94490    7.99860  -33.79880    7.83940    -999.25    -999.25    -999.25    -999.25    -999.25   42.73080    2.19740    0.04340   15.46410    -999.25    -999.25    -999.25   36.29140  100.37200    -999.25
 4150.00000    7.97130    6.76470  -31.26480    6.54930    -999.25    -999.25    -999.25    -999.25    -999.25   65.93970    2.41720    0.04080   16.38750    -999.25    -999.25    -999.25   55.38810   96.20200    -999.25
 4200.00000   10.75630    9.07450  -35.31730    8.64000    -999.25    -999.25    -999.25    -999.25    -999.25   50.03870    2.25880    0.04650   15.64340    -999.25    -999.25    -999.25   45.07420   96.54840    -999.25
 4250.00000    6.48930    6.00460  -33.85620    5.68830    -999.25    -999.25    -999.25    -999.25    -999.25   63.56130    2.35960    0.03730   15.75740    -999.25    -999.25    -999.25   57.30800   99.05440    -999.25
 4300.00000    5.90460    5.43540  -36.94760    5.28260    -999.25    -999.25    -999.25    -999.25    -999.25   41.64350    2.14210    0.05380   15.58030    -999.25    -999.25    -999.25   37.35170  107.52900    -999.25
 4350.00000    6.30250    5.94580  -33.99160    5.75250    -999.25    -999.25    -999.25    -999.25    -999.25   65.39250    2.30220    0.06720   15.73150    -999.25    -999.25    -999.25   48.92620  105.28060    -999.25
 4400.00000    4.61460    4.35660  -30.54610    4.29630    -999.25    -999.25    -999.25    -999.25    -999.25   66.21700    2.25460    0.06870   15.28550    -999.25    -999.25    -999.25   59.44020  100.76060    -999.25
 4450.00000    5.85720    5.37380  -38.15800    4.98250    -999.25    -999.25    -999.25    -999.25    -999.25   43.49320    2.19790    0.03070   15.52690    -999.25    -999.25    -999.25   37.35270  100.28580    -999.25
 4500.00000    3.99120    3.79430  -26.14330    3.66390    -999.25    -999.25    -999.25    -999.25    -999.25   63.18570    2.36210    0.06260   15.88890    -999.25    -999.25    -999.25   50.03040   97.26990    -999.25
 4550.00000    1.63280    1.68240  -17.41710    1.74600    -999.25    -999.25    -999.25    -999.25    -999.25   74.66370    2.36880    0.07850   16.32170    -999.25    -999.25    -999.25   56.76510  106.01490    -999.25
 4600.00000    1.22220    1.30600  -19.42640    1.35530    -999.25    -999.25    -999.25    -999.25    -999.25   69.06170    2.33640    0.08840   16.20550    -999.25    -999.25    -999.25   59.80730   97.17370    -999.25
 4650.00000    2.42550    2.48810  -20.09150    2.54880    -999.25    -999.25    -999.25    -999.25    -999.25   66.49570    2.35610    0.06300   16.04410    -999.25    -999.25    -999.25   53.79320  100.66500    -999.25
 4700.00000    2.01820    2.07010  -17.30970    2.36110    -999.25    -999.25    -999.25    -999.25    -999.25   65.82260    2.36380    0.06950   16.07720    -999.25    -999.25    -999.25   57.70150  100.98630    -999.25
 4750.00000    1.67080    1.71880  -14.93360    1.92390    -999.25    -999.25    -999.25    -999.25    -999.25   67.12770    2.38510    0.05210   16.37630    -999.25    -999.25    -999.25   57.20610  111.01890    -999.25
 4800.00000    2.53300    2.76270  -43.38470    2.98260    -999.25   -0.00130    0.56800    -999.25    -999.25   69.52260    2.08150    0.08640   13.88070    -999.25    -999.25    -999.25   26.30320   96.98540    -999.25
 4850.00000    1.25350    1.01340  -61.21010    2.36380    -999.25    0.19910    0.55340    -999.25    -999.25   51.52920    2.30490    0.10690   13.19790 9500.73340    2.07650   13.16510   76.49130  113.74850   14.08220
 4900.00000    1.72980    1.80800  -62.32080    2.77210    -999.25    0.14630    0.44810    -999.25    -999.25   82.65770    2.39060    0.05900   14.11710 9379.24320    1.37270   13.29130   84.54610  117.19770   13.08980
 4950.00000    2.26990    2.53480  -77.03770    2.59620    -999.25    0.15660    0.40440    -999.25    -999.25   63.59560    2.32630    0.06380   12.97130 9387.06540    2.62320   12.09870   69.29350   99.90200   11.83430
 5000.00000    1.51150    1.54260  -62.79710    1.94970    -999.25    0.17360    0.43810    -999.25    -999.25   86.61500    2.38760    0.06180   15.19710 9648.07520    2.13970   14.06200   89.18270  103.57460   13.54660
 5050.00000    2.02020    2.29320  -72.05750    2.63730    -999.25    0.19580    0.35650    -999.25    -999.25   76.78820    2.32750    0.06270   15.52550 9698.59380    2.67880   14.05190   84.23210   99.00570   12.82870
 5100.00000    1.30340    1.33030  -58.92010    1.69760    -999.25    0.18050    0.42960    -999.25    -999.25   79.96680    2.36220    0.07110   15.67710 9651.18650    1.24540   14.55890   86.68980  112.88920   13.69100
 5150.00000    2.40170    2.59250  -67.81040    2.97600    -999.25    0.20090    0.37340    -999.25    -999.25   76.41080    2.35070    0.07050   14.69650 9576.78610    3.23650   13.36730   79.20040   88.71100   12.57210
 5200.00000    2.32560    3.02360  -75.99130    3.41400    -999.25    0.20500    0.36050    -999.25    -999.25   72.32510    2.33450    0.06630   13.62240 9487.81740    3.76550   12.79690   69.84920   90.06090   12.18470
 5250.00000    1.82220    2.36430  -87.10490    2.86020    -999.25    0.27990    0.38100    -999.25    -999.25   60.94120    2.18430    0.03560   12.26340 9444.83690    2.58740   11.30600   58.18770   92.60940   11.41750
 5300.00000    1.91930    2.47620  -83.76340    2.96690    -999.25    0.22940    0.40450    -999.25    -999.25   60.26930    2.24350    0.04880   12.04990 9683.33010    2.12600   11.52360   56.24310   95.98910   11.40850
 5350.00000    1.89550    2.07380  -66.59480    2.29770    -999.25    0.28530    0.45310    -999.25    -999.25   67.97370    2.08580    0.02610   12.35010 9593.01760    1.40320   11.94160   76.17500  105.54860   11.75160
 5400.00000    2.10190    2.70550  -80.46190    3.39610    -999.25    0.27390    0.38960    -999.25    -999.25   48.48210    2.20720    0.03030   12.06730 9534.40430    3.72350   11.34140   60.44780   91.57090   11.41070
 5450.00000    1.78690    1.97780  -71.94810    2.85550    -999.25    0.28490    0.33940    -999.25    -999.25   50.38970    2.19370    0.03100   12.26420 9587.46290    3.00930   11.47610   60.36080   87.27360   11.66100
 5500.00000    1.59770    2.26790  -90.49000    2.84750    -999.25    0.24590    0.37470    -999.25    -999.25   62.01970    2.25830    0.04770   12.22780 9517.87210    3.26670   11.11180   65.11630   95.58900   11.43240
 5550.00000    1.85120    2.17710  -65.52430    2.59820    -999.25    0.24290    0.36800    -999.25    -999.25   65.96510    2.27620    0.03420   12.40110 9720.04200    3.25340   11.21340   73.58480   97.23110   11.73530
 5600.00000    1.17350    1.25290  -58.52330    1.69930    -999.25    0.24930    0.36760    -999.25    -999.25   62.53210    2.18810    0.00760   12.33700 9680.11820    1.87580   11.35510   82.77740  120.46130   12.68630
 5650.00000    1.58660    2.19020  -86.74850    2.95780    -999.25    0.28520    0.35980    -999.25    -999.25   44.83170    2.17560    0.03020   12.05310 9577.93460    2.60550   11.40670   56.02740   94.55180   11.53530
 5700.00000    1.54250    1.66830  -60.86830    1.98260    -999.25    0.19180    0.40110    -999.25    -999.25   76.35320    2.33630    0.03110   12.40640 9568.77540    2.36360   11.52000   88.72700   98.22210   12.05710
 5750.00000    1.73410    2.24860  -84.15960    2.85550    -999.25    0.20790    0.36940    -999.25    -999.25   75.19630    2.26470    0.05260   12.07600 9438.11620    2.66960   11.00350   62.73890   88.67920   11.51480
 5800.00000    1.67560    2.32910  -90.43260    3.15430    -999.25    0.25690    0.35790    -999.25    -999.25   60.88180    2.22720    0.03560   12.02460 9643.81640    2.89680   10.91930   59.00080   91.48800   11.63030
