~Version ---------------------------------------------------
VERS.      2.0 : CWLS log ASCII Standard -VERSION 2.0
WRAP.      YES : Multiple lines per depth step
CREA. 01/03/18 : LAS Creation Date
~Well ------------------------------------------------------
STRT.FT                         300.0 : START DEPTH
STOP.FT                        9400.0 : STOP DEPTH
STEP.FT                      50.00000 : STEP LENGTH
NULL.                         -999.25 : NULL VALUE
COMP. UNION PACIFIC RESOURCES COMPANY : COMPANY
WELL.         TILICEK-TILICEK UNIT #1 : WELL
FLD .                        GIDDINGS : FIELD
LOC .                                 : LOCATION
CNTY.                         FAYETTE : COUNTY
STAT.                           TEXAS : STATE
CTRY.        UNITED STATES OF AMERICA : COUNTRY
SRVC.                    Schlumberger : SERVICE COMPANY
DATE.                     03-Sep-1991 : LOGDATE
API .                  42149324840000 : API NUMBER
UWI .                  42149324840000 : UNIQUE WELL ID
SLAT.WGS84              29.8012186187 : SURFACE LATITUDE
SLON.WGS84             -97.0895436393 : SURFACE LONGITUDE
~Curve Information -----------------------------------------
DEPT    .FT    : DEPTH FEET
CALWS   .IN    : CALIPER [DCALRED+BIT]
CONDWS  .MMHO  : CONDUCTIVITY [1000/DRESWS]
DCALRED .IN    : DIFFERENTIAL CALIPER FROM PI-SFL-DENSITY-NEUTRON-GR LOG
DCORWS  .G/C3  : DENSITY CORRECTION [DRHOED]
DENWS   .G/C3  : FORMATION BULK DENSITY [CALC. FROM DPOSSWS M=2.65,F=1.0]
DPHISSED.V/V   : DENSITY POROSITY SANDSTONE [M=2.65,F=1.0] FROM PI-SFL-DENSITY-NEUTRON-GR LOG
DPOSSWS .V/V   : DENSITY POROSITY SANDSTONE [DPHISSED]
DRESWS  .OHMM  : DEEP RESISTIVITY [TOP ILDED 8695' IDPHED]
DRHOED  .G/C3  : DENSITY CORRECTION FROM PI-SFL-DENSITY-NEUTRON-GR LOG
GRRED   .GAPI  : GAMMA RAY FROM DIL-SFL-GR <8692'> PI-SFL-DENSITY-NEUTRON-GR LOG
GRWS    .GAPI  : GAMMA RAY [GRRED]
IDPHED  .OHMM  : DEEP RESISTIVITY FROM PI-SFL-DENSITY-NEUTRON-GR LOG
ILDED   .OHMM  : DEEP RESISTIVITY FROM DIL-SFL-GR LOG
ILMED   .OHMM  : MEDIUM INDUCTION FROM DIL-SFL-GR LOG
IMPHED  .OHMM  : MEDIUM INDUCTION FROM PI-SFL-DENSITY-NEUTRON-GR LOG
MRESWS  .OHMM  : MEDIUM RESISTIVITY [TOP ILMED 8695' IMPHED]
NPHISSED.V/V   : NEUTRON POROSITY SANDSTONE FROM PI-SFL-DENSITY-NEUTRON-GR LOG
NPOSSWS .V/V   : NEUTRON POROSITY SANDSTONE [NPHISSED]
SFLED   .OHMM  : SPHERICALLY FOCUSED LOG UNAVERAGED RESISTIVITY FROM PI-SFL-DENSITY-NEUTRON-GR LOG
SFLUED  .OHMM  : SPHERICALLY FOCUSED LOG UNAVERAGED RESISTIVITY FROM DIL-SFL-GR LOG
SPRED   .MV    : SPONTANEOUS POTENTIAL FROM DIL-SFL-GR <8692'> PI-SFL-DENSITY-NEUTRON-GR LOG
SPWS    .MV    : SPONTANEOUS POTENTIAL [BASELINE 0 MV, SPRED]
SRESWS  .OHMM  : SHALLOW RESISTIVITY [TOP SFLUED 8692' SFLED]
TENRED  .LBF   : TENSION FROM DIL-SFL-GR <8692'> PI-SFL-DENSITY-NEUTRON-GR LOG
~Params ----------------------------------------------------
PD  .                     GL : PERMANENT DATUM
EPD .F                   381 : ELEVATION PERMANENT DATUM
LMF .                    RKB : LOG MEASURED FROM
DAPD.F                    25 : FEET ABOVE PERMANENT DATUM
DMF .                    RKB : DRILLING MEASURED FROM
EKB .F                   406 : KELLING BUSHING
EDF .F                   405 : DRILLING FLOOR
EGL .F                   381 : GROUND LEVEL
DATE.               09/03/91 : RUN DATE
RUN .                      2 : RUN NUMBER
DD  .F                  9445 : DEPTH DRILLER
DL  .F                  9442 : DEPTH LOGGER
BLI .F                  9436 : BOTTOM LOG INTERVAL
TLI .F                  8692 : TOP LOG INTERVAL
CS  .IN                7.625 : CASING SIZE
CBD .F                  8700 : CASING BOTTOM DRILLER
CBL .F                  8692 : CASING BOTTOM LOGGER
BS  .IN                 6.75 : BIT SIZE
BSD .F                  9445 : BIT SIZE AT DEPTH
DFT .             GEL  BENEX : DRILLING FLUID TYPE
DFD .                    9.5 : DRILLING FLUID DENSITY
DFV .                     39 : DRILLING FLUID VISCOSITY
DFPH.                      7 : DRILLING FLUID PH
DFL .                     10 : DRILLING FLUID LOSS
MSS .                MUD PIT : MUD SAMPLE SOURCE
RMS .OHMM               2.07 : RESISTIVITY MUD SAMPLE
MST .F                    75 : MUD SAMPLE TEMPERATURE
RMF .OHMM               1.68 : RESISTIVITY MUD FILTRATE SAMPLE
MFST.F                    75 : MUD FILTRATE SAMPLE TEMPERATURE
RMC .OHMM               2.48 : RESISTIVITY MUD CAKE
MCST.F                    75 : MUD CAKE SAMPLE TEMPERATURE
MFSS.                   MEAS : MUD FILTRATE SAMPLE SOURCE
MCSS.                   CALC : MUD CAKE SAMPLE SOURCE
RMB .OHMM              0.781 : RESISTIVITY MUD AT BHT
TCS .HRS                1400 : TIME CURCULATED STOPPED
TLAB.HRS                1800 : TIME LOGGER AT BOTTOM
LUN .                   2908 : LOGGING UNIT NUMBER
LUL .                  LIBER : LOGGING UNIT LOCATION
ENGI.        RILEY  HAMILTON : RECORDING ENGINEER
WITN.                SCHULZE : WITNESSED BY
CLNT.                A2DTECH : CLIENT CODE
ORIG.               5" PRINT : ORIGIN OF DATA
UWI .         42149324840000 : UNIQUE WELL ID
DICO. A2D Technologies, Inc. : DIGITIZING COMPANY
~Other -----------------------------------------------------
DIL-PI-SFL-DENSITY-NEUTRON-GR LOG RUN
~ASCII -----------------------------------------------------
# ...
 4650.00000    -999.25  630.67610    -999.25    -999.25    -999.25    -999.25    -999.25    1.58560    -999.25   45.10020   45.10020    -999.25    1.58560    2.01010    -999.25    2.01010    -999.25    -999.25    -999.25    5.48320 -126.33360  -92.79540    5.48320 1754.62190
 4700.00000    -999.25  286.13940    -999.25    -999.25    -999.25    -999.25    -999.25    3.49480    -999.25   53.98740   53.98740    -999.25    3.49480    4.08350    -999.25    4.08350    -999.25    -999.25    -999.25    8.29910  -75.93910  -42.22840    8.29910 1777.73600
 4750.00000    -999.25  442.96790    -999.25    -999.25    -999.25    -999.25    -999.25    2.25750    -999.25   49.24860   49.24860    -999.25    2.25750    2.93860    -999.25    2.93860    -999.25    -999.25    -999.25    5.14090 -102.82570  -68.94260    5.14090 1800.84900
 4800.00000    -999.25  487.35320    -999.25    -999.25    -999.25    -999.25    -999.25    2.05190    -999.25  109.12080  109.12080    -999.25    2.05190    1.92450    -999.25    1.92450    -999.25    -999.25    -999.25    2.06550  -45.84890  -11.79340    2.06550 1825.41200
 4850.00000    -999.25  450.20710    -999.25    -999.25    -999.25    -999.25    -999.25    2.22120    -999.25   83.65800   83.65800    -999.25    2.22120    2.29580    -999.25    2.29580    -999.25    -999.25    -999.25    2.67320  -49.18310  -14.95510    2.67320 1852.30900
 4900.00000    -999.25  370.75490    -999.25    -999.25    -999.25    -999.25    -999.25    2.69720    -999.25   90.87230   90.87230    -999.25    2.69720    2.64870    -999.25    2.64870    -999.25    -999.25    -999.25    3.96290  -41.04140   -6.64100    3.96290 1879.20610
 4950.00000    -999.25  247.96670    -999.25    -999.25    -999.25    -999.25    -999.25    4.03280    -999.25   58.41910   58.41910    -999.25    4.03280    4.16150    -999.25    4.16150    -999.25    -999.25    -999.25   13.18350  -39.32380   -4.75100   13.18350 1834.84200
 5000.00000    -999.25 1145.34420    -999.25    -999.25    -999.25    -999.25    -999.25    0.87310    -999.25   42.30130   42.30130    -999.25    0.87310    1.10790    -999.25    1.10790    -999.25    -999.25    -999.25    4.92740 -135.69260 -100.48640    4.92740 1973.25310
 5050.00000    -999.25  994.53010    -999.25    -999.25    -999.25    -999.25    -999.25    1.00550    -999.25   49.58300   49.58300    -999.25    1.00550    1.38010    -999.25    1.38010    -999.25    -999.25    -999.25    6.19160 -135.44330  -99.52230    6.19160 1835.55900
 5100.00000    -999.25 1007.55670    -999.25    -999.25    -999.25    -999.25    -999.25    0.99250    -999.25   44.85780   44.85780    -999.25    0.99250    1.35240    -999.25    1.35240    -999.25    -999.25    -999.25    7.04730 -141.83130 -105.19560    7.04730 1890.30600
 5150.00000    -999.25  376.96020    -999.25    -999.25    -999.25    -999.25    -999.25    2.65280    -999.25   99.63170   99.63170    -999.25    2.65280    2.85120    -999.25    2.85120    -999.25    -999.25    -999.25    2.95640  -74.77450  -37.59920    2.95640 1945.05400
 5200.00000    -999.25  398.12090    -999.25    -999.25    -999.25    -999.25    -999.25    2.51180    -999.25   98.12560   98.12560    -999.25    2.51180    2.97130    -999.25    2.97130    -999.25    -999.25    -999.25    4.93590  -71.55700  -35.01480    4.93590 1902.84090
 5250.00000    -999.25  731.79660    -999.25    -999.25    -999.25    -999.25    -999.25    1.36650    -999.25   67.21230   67.21230    -999.25    1.36650    1.84090    -999.25    1.84090    -999.25    -999.25    -999.25    4.97080 -116.69360  -80.78450    4.97080 1926.84590
 5300.00000    -999.25  454.19450    -999.25    -999.25    -999.25    -999.25    -999.25    2.20170    -999.25   70.74760   70.74760    -999.25    2.20170    2.82510    -999.25    2.82510    -999.25    -999.25    -999.25    5.95940  -58.48730  -23.21120    5.95940 1958.79000
 5350.00000    -999.25 1098.90110    -999.25    -999.25    -999.25    -999.25    -999.25    0.91000    -999.25   55.76550   55.76550    -999.25    0.91000    1.16370    -999.25    1.16370    -999.25    -999.25    -999.25    5.53460 -114.88680  -80.24380    5.53460 1974.15500
 5400.00000    -999.25  516.36890    -999.25    -999.25    -999.25    -999.25    -999.25    1.93660    -999.25  112.60100  112.60100    -999.25    1.93660    2.02550    -999.25    2.02550    -999.25    -999.25    -999.25    2.16120  -38.99640   -4.98650    2.16120 1974.15500
 5450.00000    -999.25  943.30720    -999.25    -999.25    -999.25    -999.25    -999.25    1.06010    -999.25   49.83090   49.83090    -999.25    1.06010    1.37730    -999.25    1.37730    -999.25    -999.25    -999.25    6.06440 -129.23260  -95.85580    6.06440 2021.49800
 5500.00000    -999.25  470.94280    -999.25    -999.25    -999.25    -999.25    -999.25    2.12340    -999.25   97.55690   97.55690    -999.25    2.12340    2.14300    -999.25    2.14300    -999.25    -999.25    -999.25    2.33590  -39.30040   -6.40490    2.33590 1987.09800
 5550.00000    -999.25 1193.88730    -999.25    -999.25    -999.25    -999.25    -999.25    0.83760    -999.25   47.08170   47.08170    -999.25    0.83760    1.21310    -999.25    1.21310    -999.25    -999.25    -999.25    6.39290 -137.20390 -103.77450    6.39290 2038.16300
 5600.00000    -999.25  555.86440    -999.25    -999.25    -999.25    -999.25    -999.25    1.79900    -999.25  100.84720  100.84720    -999.25    1.79900    2.13870    -999.25    2.13870    -999.25    -999.25    -999.25    4.43390  -64.38360  -30.23270    4.43390 2092.05300
 5650.00000    -999.25  578.73720    -999.25    -999.25    -999.25    -999.25    -999.25    1.72790    -999.25   66.02710   66.02710    -999.25    1.72790    2.11210    -999.25    2.11210    -999.25    -999.25    -999.25    5.79470 -124.44250  -89.35870    5.79470 2128.29590
 5700.00000    -999.25 1221.74710    -999.25    -999.25    -999.25    -999.25    -999.25    0.81850    -999.25   73.68910   73.68910    -999.25    0.81850    1.09970    -999.25    1.09970    -999.25    -999.25    -999.25    5.81440 -137.74310 -101.72630    5.81440 2101.98000
 5750.00000    -999.25  419.62150    -999.25    -999.25    -999.25    -999.25    -999.25    2.38310    -999.25   93.67540   93.67540    -999.25    2.38310    2.43740    -999.25    2.43740    -999.25    -999.25    -999.25    2.73690  -40.48330   -4.44780    2.73690 2133.52910
 5800.00000    -999.25  703.68020    -999.25    -999.25    -999.25    -999.25    -999.25    1.42110    -999.25   73.97990   73.97990    -999.25    1.42110    1.89990    -999.25    1.89990    -999.25    -999.25    -999.25    9.04710 -114.09850  -78.60450    9.04710 2172.96190
 5850.00000    -999.25  444.60250    -999.25    -999.25    -999.25    -999.25    -999.25    2.24920    -999.25   99.93580   99.93580    -999.25    2.24920    2.24870    -999.25    2.24870    -999.25    -999.25    -999.25    2.52940  -39.91920   -4.96670    2.52940 2229.52200
 5900.00000    -999.25  488.11440    -999.25    -999.25    -999.25    -999.25    -999.25    2.04870    -999.25   95.60510   95.60510    -999.25    2.04870    2.12080    -999.25    2.12080    -999.25    -999.25    -999.25    2.16290  -46.34500  -11.93400    2.16290 2181.66500
 5950.00000    -999.25  437.29230    -999.25    -999.25    -999.25    -999.25    -999.25    2.28680    -999.25   99.46240   99.46240    -999.25    2.28680    2.34040    -999.25    2.34040    -999.25    -999.25    -999.25    2.52550  -38.97410   -5.10460    2.52550 2212.72410
 6000.00000    -999.25  442.02800    -999.25    -999.25    -999.25    -999.25    -999.25    2.26230    -999.25   89.31410   89.31410    -999.25    2.26230    2.31800    -999.25    2.31800    -999.25    -999.25    -999.25    2.60460  -44.09000  -11.74890    2.60460 2212.72410
 6050.00000    -999.25  469.48360    -999.25    -999.25    -999.25    -999.25    -999.25    2.13000    -999.25   88.47560   88.47560    -999.25    2.13000    2.16290    -999.25    2.16290    -999.25    -999.25    -999.25    2.49480  -38.39180   -7.98200    2.49480 2212.72410
