~Version ---------------------------------------------------
VERS. 2.0 : CWLS log ASCII Standard -VERSION 2.0
WRAP. YES : Multiple lines per depth step
~Well ------------------------------------------------------
STRT.FT                     300.0 : START DEPTH
STOP.FT                   15250.0 : STOP DEPTH
STEP.FT                  50.00000 : STEP LENGTH
NULL.                     -999.25 : NULL VALUE
COMP. GRACE PETROLEUM CORPORATION : COMPANY
WELL.      WELDON COX GAS UNIT #1 : WELL
FLD .                  BEAR GRASS : FIELD
LOC .                             : LOCATION
CNTY.                        LEON : COUNTY
STAT.                       TEXAS : STATE
CTRY.    UNITED STATES OF AMERICA : COUNTRY
SRVC.                Schlumberger : SERVICE COMPANY
DATE.                 27-Jan-1980 : LOGDATE
API .              42289303540000 : API NUMBER
UWI .              42289303540000 : UNIQUE WELL ID
SLAT.WGS84           31.398216302 : SURFACE LATITUDE
SLON.WGS84         -96.2188853622 : SURFACE LONGITUDE
~Curve Information -----------------------------------------
DEPT    .FT    : DEPTH FEET
CALDED  .IN    : CALIPER FROM SIMULTANEOUS COMPENSATED NEUTRON-FORMATION DENSITY LOG [ADJ. TO CALRED]
CALRED  .IN    : CALIPER FROM DUAL INDUCTION-SFL-BOREHOLE COMPENSATED SONIC LOG
CALWS   .IN    : CALIPER [CALDED SPLICED FOR DEPTH 7900' TO 15268.5' WITH CALRED]
CONDWS  .MMHO  : CONDUCTIVITY [1000/DRESWS]
DCORWS  .G/C3  : DENSITY CORRECTION [DRHOED]
DENWS   .G/C3  : FORMATION BULK DENSITY [RHOBED]
DPHILSED.V/V   : DENSITY POROSITY LIMESTONE [M=2.71, F=1.0, CALCULATED FROM DENWS]]
DPOWS   .V/V   : DENSITY POROSITY LIMESTONE [DPHILSED]
DRESWS  .OHMM  : DEEP RESISTIVITY [ILDED]
DRHOED  .G/C3  : BULK DENSITY CORRECTION SIMULTANEOUS COMPENSATED NEUTRON-FORMATION DENSITY LOG [ADJ. TO ILDED]
DTED    .US/F  : DELTA-T (INTERVAL TRANSIT TIME) FROM DUAL INDUCTION-SFL-BOREHOLE COMPENSATED SONIC LOG
DTWS    .US/F  : COMPRESSIONAL SONIC [DTED]
GRDED   .GAPI  : GAMMA RAY SIMULTANEOUS COMPENSATED NEUTRON-FORMATION DENSITY LOG [ADJ. TO ILDED]
GRWS    .GAPI  : GAMMA RAY [GRDED]
ILDED   .OHMM  : DEEP INDUCTION FROM DUAL INDUCTION-SFL-BOREHOLE COMPENSATED SONIC LOG
ILMED   .OHMM  : MEDIUM INDUCTION FROM DUAL INDUCTION-SFL-BOREHOLE COMPENSATED SONIC LOG
MRESWS  .OHMM  : MEDIUM RESISTIVITY [ILMED]
NPHILSED.V/V   : NEUTRON POROSITY LIMESTONE SIMULTANEOUS COMPENSATED NEUTRON-FORMATION DENSITY LOG [ADJ. TO ILDED]
NPOWS   .V/V   : NEUTRON POROSITY LIMESTONE [NPHILSED]
RHOBED  .G/C3  : BULK DENSITY SIMULTANEOUS COMPENSATED NEUTRON-FORMATION DENSITY LOG [ADJ. TO ILDED]
SFLUED  .OHMM  : SHALLOW FOCUSED INDUCTION (UNAVERAGED) FROM DUAL INDUCTION-SFL-BOREHOLE COMPENSATED SONIC LOG
SPRED   .MV    : SPONTANEOUS POTENTIAL FROM DUAL INDUCTION-SFL-BOREHOLE COMPENSATED SONIC LOG
SPWS    .MV    : SPONTANEOUS POTENTIAL [BASELINE 0 MV, SPRED]
SRESWS  .OHMM  : SHALLOW RESISTIVITY [SFLUED]
~Params ----------------------------------------------------
PD  .                     GL : PERMANENT DATUM
EPD .F                   492 : ELEVATION PERMANENT DATUM
LMF .                     KB : LOG MEASURED FROM
DAPD.F                  22.4 : FEET ABOVE PERMANENT DATUM
DMF .                     KB : DRILLING MEASURED FROM
EKB .F                 514.4 : KELLING BUSHING
EDF .F                 513.4 : DRILLING FLOOR
EGL .F                   492 : GROUND LEVEL
DATE.              1-27-1980 : RUN DATE
RUN .                      4 : RUN NUMBER
DD  .F                 15300 : DEPTH DRILLER
DL  .F                 15299 : DEPTH LOGGER
BLI .F                 15293 : BOTTOM LOG INTERVAL
TLI .F                 13183 : TOP LOG INTERVAL
CS  .IN                 7.62 : CASING SIZE
CBD .F                  1320 : CASING BOTTOM DRILLER
CBL .F                  1318 : CASING BOTTOM LOGGER
BS  .IN                  6.2 : BIT SIZE
BSD .F                 15300 : BIT SIZE AT DEPTH
DFT .              LIME/CHEM : DRILLING FLUID TYPE
DFD .                   16.2 : DRILLING FLUID DENSITY
DFV .                     55 : DRILLING FLUID VISCOSITY
DFPH.                   11.5 : DRILLING FLUID PH
DFL .                      7 : DRILLING FLUID LOSS
MSS .                   TANK : MUD SAMPLE SOURCE
RMS .OHMM               1.18 : RESISTIVITY MUD SAMPLE
MST .F                    52 : MUD SAMPLE TEMPERATURE
RMF .OHMM               0.66 : RESISTIVITY MUD FILTRATE SAMPLE
MFST.F                    58 : MUD FILTRATE SAMPLE TEMPERATURE
RMC .OHMM                3.7 : RESISTIVITY MUD CAKE
MCST.F                    52 : MUD CAKE SAMPLE TEMPERATURE
MFSS.                      P : MUD FILTRATE SAMPLE SOURCE
MCSS.                      C : MUD CAKE SAMPLE SOURCE
RMB .OHMM               0.18 : RESISTIVITY MUD AT BHT
TCS .HRS                 900 : TIME CURCULATED STOPPED
TLAB.HRS                1730 : TIME LOGGER AT BOTTOM
LUN .                   8083 : LOGGING UNIT NUMBER
LUL .                  TYLER : LOGGING UNIT LOCATION
ENGI.                  HARSH : RECORDING ENGINEER
CLNT.                A2DTECH : CLIENT CODE
ORIG.            2",5" PRINT : ORIGIN OF DATA
UWI .         42289303540000 : UNIQUE WELL ID
DICO. A2D Technologies, Inc. : DIGITIZING COMPANY
~Other -----------------------------------------------------
CALIPER IS INVALID ABOVE 13192' AND IT WAS NULLED
~ASCII -----------------------------------------------------
# ...
 9000.00000   11.76380    5.97880    -999.25    3.51290    0.02740    2.68200    0.01500    0.01640  284.66180    0.02740   66.76610   66.76610   24.55300   24.55300  284.66180   62.57800   62.57800    0.01080    0.01080    2.68200   79.56390  -46.92640  -35.76400   79.56390
 9050.00000   11.87920    5.90870    -999.25    7.54020   -0.00110    2.59890    0.06030    0.06500  132.62320   -0.00110   70.89180   70.89180   30.10640   30.10640  132.62320   46.13780   46.13780    0.02440    0.02440    2.59890   78.05750  -65.62540  -54.78660   78.05750
 9100.00000   12.01220    5.80690    -999.25    3.97410   -0.00280    2.70420   -0.00030    0.00340  251.62680   -0.00280   60.69360   60.69360   39.80380   39.80380  251.62680   74.28310   74.28310    0.00830    0.00830    2.70420  156.65370  -43.33990  -32.82460  156.65370
 9150.00000   11.63400    5.94650    -999.25   21.54300   -0.00310    2.68800    0.01260    0.01290   46.41880   -0.00310   68.20730   68.20730   28.95580   28.95580   46.41880   40.40470   40.40470    0.01770    0.01770    2.68800   72.59960  -23.03080  -12.83910   72.59960
 9200.00000   14.17080    6.08810    -999.25  144.72620    0.02490    2.10350    0.36060    0.35470    6.90960    0.02490   87.95370   87.95370   58.06550   58.06550    6.90960    5.17640    5.17640    0.39010    0.39010    2.10350   18.38660  -19.90030  -10.03210   18.38660
 9250.00000   10.95040    6.12840    -999.25   18.65950   -0.00310    2.66970    0.02580    0.02360   53.59190   -0.00310   61.83050   61.83050   40.83090   40.83090   53.59190   35.12610   35.12610    0.01480    0.01480    2.66970  128.73550  -22.99820  -13.45360  128.73550
 9300.00000   10.88630    6.16870    -999.25   94.85600    0.02410    2.59780    0.06210    0.06560   10.54230    0.02410   74.94960   74.94960   45.44670   45.44670   10.54230    9.68150    9.68150    0.05240    0.05240    2.59780   24.01870  -41.84610  -32.62500   24.01870
 9350.00000   11.46630    5.90590    -999.25  192.13030   -0.01080    2.52910    0.10060    0.10580    5.20480   -0.01080  105.15840  105.15840   45.12810   45.12810    5.20480    4.82010    4.82010    0.12000    0.12000    2.52910    7.68170  -54.84580  -45.94830    7.68170
 9400.00000   11.19690    5.87350    -999.25  248.66960    0.02590    2.57930    0.07560    0.07640    4.02140    0.02590   93.67960   93.67960   55.04810   55.04810    4.02140    3.78190    3.78190    0.14330    0.14330    2.57930    6.13670  -32.52980  -23.95580    6.13670
 9450.00000   10.73540    5.81040    -999.25  174.84660    0.02530    2.58590    0.07150    0.07260    5.71930    0.02530   85.72500   85.72500   53.70890   53.70890    5.71930    5.36520    5.36520    0.09990    0.09990    2.58590    6.91120  -41.03530  -32.78490    6.91120
 9500.00000   11.23140    5.97610    -999.25  103.37520    0.00710    2.55600    0.09120    0.09010    9.67350    0.00710   94.39590   94.39590   61.24540   61.24540    9.67350    7.61720    7.61720    0.15970    0.15970    2.55600   12.51060  -31.30120  -23.37430   12.51060
 9550.00000   11.04940    5.88190    -999.25  262.43280    0.03800    2.55930    0.08620    0.08810    3.81050    0.03800   93.36350   93.36350   44.40720   44.40720    3.81050    3.59750    3.59750    0.07350    0.07350    2.55930    4.75550  -47.70220  -40.09880    4.75550
 9600.00000   10.82250    6.02840    -999.25  105.40850    0.01120    2.55080    0.09220    0.09310    9.48690    0.01120   88.80820   88.80820   68.40720   68.40720    9.48690    8.58980    8.58980    0.08440    0.08440    2.55080    8.62290  -50.47270  -43.19290    8.62290
 9650.00000   10.86210    6.21480    -999.25  113.06080    0.02160    2.55670    0.08350    0.08960    8.84480    0.02160   90.21380   90.21380   41.74320   41.74320    8.84480    7.47360    7.47360    0.05810    0.05810    2.55670   11.79120  -48.73000  -41.77370   11.79120
 9700.00000   10.43340    5.91230    -999.25   92.61920    0.03040    2.59640    0.06890    0.06640   10.79690    0.03040   83.50810   83.50810   38.29470   38.29470   10.79690   10.00470   10.00470    0.03880    0.03880    2.59640   15.97980  -59.62270  -52.99000   15.97980
 9750.00000   10.76340    6.16860    -999.25   72.70240    0.08820    2.68150    0.01520    0.01670   13.75470    0.08820   86.06250   86.06250   59.78250   59.78250   13.75470   10.80320   10.80320    0.07860    0.07860    2.68150   16.27800  -29.38870  -23.07950   16.27800
 9800.00000   11.36450    6.08560    -999.25  163.59380   -0.00360    2.60150    0.06380    0.06350    6.11270   -0.00360   86.69760   86.69760   69.00290   69.00290    6.11270    5.82770    5.82770    0.12500    0.12500    2.60150    7.38350  -27.70790  -21.72230    7.38350
 9850.00000   10.40920    5.29840    -999.25   61.63290    0.00060    2.59160    0.06850    0.06920   16.22510    0.00060   79.70770   79.70770   42.07980   42.07980   16.22510   15.18950   15.18950    0.06070    0.06070    2.59160   18.71330  -40.38930  -34.72720   18.71330
 9900.00000   10.47570    5.38630    -999.25   77.10870    0.01080    2.54440    0.09700    0.09680   12.96870    0.01080   84.66730   84.66730   48.17380   48.17380   12.96870   12.46760   12.46760    0.05080    0.05080    2.54440   18.01550  -67.76740  -62.42890   18.01550
 9950.00000   10.45340    5.56950    -999.25   69.00980    0.02380    2.60030    0.06250    0.06420   14.49070    0.02380   79.94410   79.94410   38.08170   38.08170   14.49070   13.87390   13.87390    0.02030    0.02030    2.60030   30.11600  -68.07990  -63.06490   30.11600
 10000.00000   10.71060    5.65370    -999.25   75.21170    0.01140    2.60010    0.06270    0.06430   13.29580    0.01140   82.50720   82.50720   54.56640   54.56640   13.29580   15.78480   15.78480    0.05080    0.05080    2.60010   28.18050  -41.77790  -37.08640   28.18050
 10050.00000   10.98000    6.20080    -999.25  128.53470    0.01550    2.64560    0.03500    0.03770    7.78000    0.01550   85.67090   85.67090   50.18030   50.18030    7.78000    7.05170    7.05170    0.14750    0.14750    2.64560    8.44470  -37.53260  -33.16470    8.44470
 10100.00000   15.46020    6.05380    -999.25  143.88490    0.07500    2.32320    0.23520    0.22620    6.95000    0.07500  108.84760  108.84760   70.99660   70.99660    6.95000    5.81670    5.81670    0.32830    0.32830    2.32320    8.95850  -15.12160  -11.07720    8.95850
 10150.00000   10.49430    5.68080    -999.25   38.42360    0.02150    2.56800    0.08260    0.08300   26.02570    0.02150   81.36180   81.36180   24.48630   24.48630   26.02570   23.18570   23.18570    0.00710    0.00710    2.56800   41.23860  -74.43570  -70.71490   41.23860
 10200.00000   10.41060    5.72220    -999.25   22.63740    0.00790    2.62670    0.04540    0.04870   44.17460    0.00790   75.21590   75.21590   60.02480   60.02480   44.17460   38.00180   38.00180    0.08140    0.08140    2.62670   94.87720  -44.05600  -40.65870   94.87720
 10250.00000   10.49860    5.49680    -999.25   20.81930    0.03210    2.59250    0.06780    0.06870   48.03230    0.03210   85.11990   85.11990   19.02750   19.02750   48.03230   37.92280   37.92280    0.01330    0.01330    2.59250   58.53790  -59.56240  -56.48870   58.53790
 10300.00000   10.52780    5.83730    -999.25   44.88870    0.00990    2.53570    0.09940    0.10190   22.27730    0.00990   81.49450   81.49450   53.32330   53.32330   22.27730   16.53300   16.53300    0.03130    0.03130    2.53570   19.79350  -44.52420  -41.77400   19.79350
 10350.00000   10.37790    5.82690    -999.25   66.65600    0.02980    2.33540    0.24280    0.21910   15.00240    0.02980   92.80480   92.80480   73.08250   73.08250   15.00240   10.76100   10.76100    0.10530    0.10530    2.33540   12.99070  -40.56080  -38.13420   12.99070
 10400.00000   10.58570    5.97690    -999.25   60.91950   -0.00360    2.54890    0.09310    0.09420   16.41510   -0.00360   83.11040   83.11040   40.84760   40.84760   16.41510   14.44740   14.44740    0.01820    0.01820    2.54890   43.30020  -56.93690  -54.83380   43.30020
