~Version ---------------------------------------------------
VERS. 2.0 : CWLS log ASCII Standard -VERSION 2.0
WRAP. YES : Multiple lines per depth step
~Well ------------------------------------------------------
STRT.FT                   4050.0 : START DEPTH
STOP.FT                   9250.0 : STOP DEPTH
STEP.FT                 50.00000 : STEP LENGTH
NULL.                    -999.25 : NULL VALUE
COMP. CHAMPLIN PETROLEUM COMPANY : COMPANY
WELL.      ALBERT SCHULTZ JR. #1 : WELL
FLD .                   GIDDINGS : FIELD
LOC .                            : LOCATION
CNTY.                   BURLESON : COUNTY
STAT.                      TEXAS : STATE
CTRY.   UNITED STATES OF AMERICA : COUNTRY
SRVC.               Schlumberger : SERVICE COMPANY
DATE.                08-Nov-1980 : LOGDATE
API .             42051310590000 : API NUMBER
UWI .             42051310590000 : UNIQUE WELL ID
SLAT.WGS84         30.3972386436 : SURFACE LATITUDE
SLON.WGS84        -96.6361204842 : SURFACE LONGITUDE
~Curve Information -----------------------------------------
DEPT    .FT    : DEPTH FEET
CALWS   .IN    : CALIPER [DCALED+BITS]
CONDWS  .MMHO  : CONDUCTIVITY [1000/DRESWS]
DCALED  .IN    : DIFFERENTIAL CALIPER FROM DIL-SFL-CNFD LOG
DCORWS  .G/C3  : DENSITY CORRECTION [DRHOED]
DENWS   .G/C3  : FORMATION BULK DENSITY [M=2.71, F=1.0] [CALCULATED FROM DPOWS]
DPHILSED.V/V   : DENSITY POROSITY LIMESTONE [M=2.71, F=1.0] FROM DIL-SFL-CNFD LOG
DPHISSED.V/V   : DENSITY POROSITY SANDSTONE [M=2.65, F=1.0] FROM DIL-SFL-CNFD LOG
DPOWS   .V/V   : DENSITY POROSITY LIMESTONE [DPHISSED CONVERTED TO LIMESTONE [M=2.71, F=1.0] & SPL.TO DPHILSED @ 7398']
DRESWS  .OHMM  : DEEP RESISTIVITY [ILDED]
DRHOED  .G/C3  : DENSITY CORRECTION FROM DIL-SFL-CNFD LOG
GRRED   .GAPI  : GAMMA RAY FROM DIL-SFL-CNFD LOG
GRWS    .GAPI  : GAMMA RAY [GRRED]
ILDED   .OHMM  : DEEP INDUCTION FROM DIL-SFL-CNFD LOG
ILMED   .OHMM  : MEDIUM INDUCTION FROM DIL-SFL-CNFD LOG
MRESWS  .OHMM  : MEDIUM RESISTIVITY [ILMED]
NPHILSED.V/V   : NEUTRON POROSITY LIMESTONE FROM DIL-SFL-CNFD LOG [ADJ. TO DPHILSED]
NPHISSED.V/V   : NEUTRON POROSITY SANDSTONE FROM DIL-SFL-CNFD LOG [ADJ. TO DPHISSED]
NPOWS   .V/V   : NEUTRON POROSITY LIMESTONE [NPHISSED MATRIX CONVERTED TO LIMESTONE & SPL.TO NPHILSED @7398']
SFLUED  .OHMM  : SHALLOW FOCUSED RESISTIVITY FROM DIL-SFL-CNFD LOG
SPRED   .MV    : SPONTANEOUS POTENTIAL FROM DIL-SFL-CNFD LOG
SPWS    .MV    : SPONTANEOUS POTENTIAL [BASELINE 0 MV, SPRED]
SRESWS  .OHMM  : SHALLOW RESISTIVITY [SFLUED]
~Params ----------------------------------------------------
PD  .                     GL : PERMANENT DATUM
EPD .FT                  337 : ELEVATION PERMANENT DATUM
LMF .                     KB : LOG MEASURED FROM
DAPD.FT                   14 : FEET ABOVE PERMANENT DATUM
DMF .                     KB : DRILLING MEASURED FROM
EKB .FT                  351 : KELLY BUSHING
EDF .FT                  350 : DRILLING FLOOR
EGL .FT                  337 : GROUND LEVEL
DATE.               11/08/80 : RUN DATE
RUN .                      1 : RUN NUMBER
DD  .FT                 9270 : DEPTH DRILLER
DL  .FT                 9276 : DEPTH LOGGER
BLI .FT                 9270 : BOTTOM LOG INTERVAL
TLI .FT                 4030 : TOP LOG INTERVAL
CS  .IN                9.625 : CASING SIZE
CBD .FT                 4030 : CASING BOTTOM DRILLER
CBL .FT                 4030 : CASING BOTTOM LOGGER
BS  .IN                 8.75 : BIT SIZE
BSD .FT                 9270 : BIT SIZE AT DEPTH
DFT .                  BENEX : DRILLING FLUID TYPE
DFD .                    9.8 : DRILLING FLUID DENSITY
DFV .                     50 : DRILLING FLUID VISCOSITY
DFPH.                    8.5 : DRILLING FLUID PH
DFL .                      5 : DRILLING FLUID LOSS
MSS .              CIRC TANK : MUD SAMPLE SOURCE
RMS .OHMM               1.52 : RESISTIVITY MUD SAMPLE
MST .DEGF                110 : MUD SAMPLE TEMPERATURE
RMF .OHMM               1.46 : RESISTIVITY MUD FILTRATE SAMPLE
MFST.DEGF                 75 : MUD FILTRATE SAMPLE TEMPERATURE
RMC .OHMM               2.26 : RESISTIVITY MUD CAKE
MCST.DEGF                110 : MUD CAKE SAMPLE TEMPERATURE
MFSS.                      M : MUD FILTRATE SAMPLE SOURCE
MCSS.                      C : MUD CAKE SAMPLE SOURCE
RMB .OHMM               0.78 : RESISTIVITY MUD AT BHT
TCS .HRS                 330 : TIME CIRCULATED STOPPED
TLAB.HRS                 730 : TIME LOGGER AT BOTTOM
LUN .                   8101 : LOGGING UNIT NUMBER
LUL .                BRENHAM : LOGGING UNIT LOCATION
ENGI.       HARDER GILLILAND : RECORDING ENGINEER
WITN.                 SCHELL : WITNESSED BY
CLNT.                A2DTECH : CLIENT CODE
ORIG.          1" 2.5" PRINT : ORIGIN OF DATA
UWI .         42051310590000 : UNIQUE WELL ID
DICO. A2D Technologies, Inc. : DIGITIZING COMPANY
~Other -----------------------------------------------------
~ASCII -----------------------------------------------------
# ...
 7250.00000   10.37800  603.79180    1.62800    0.10310    2.46570    -999.25    0.11170    0.14290    1.65620    0.10310  107.16050  107.16050    1.65620    1.62950    1.62950    -999.25    0.28760    0.24360    1.79920   -0.31100   -2.27290    1.79920
 7300.00000   10.08850  503.87990    1.33850    0.08670    2.49310    -999.25    0.09510    0.12690    1.98460    0.08670  111.96700  111.96700    1.98460    1.89320    1.89320    -999.25    0.25160    0.20770    2.05520   -3.98360   -4.69440    2.05520
 7350.00000   11.31610  643.45920    2.56610    0.10000    2.46730    -999.25    0.11070    0.14190    1.55410    0.10000  110.08710  110.08710    1.55410    1.52640    1.52640    -999.25    0.29500    0.25100    1.68550   -5.11680   -4.57660    1.68550
 7400.00000   11.52890  702.79010    2.77890    0.10000    2.44240    0.15650    -999.25    0.15650    1.42290    0.10000  106.35750  106.35750    1.42290    1.40010    1.40010    0.33120    -999.25    0.33120    1.52890   -5.03890   -3.24770    1.52890
 7450.00000   10.02520  518.80670    1.27520    0.04580    2.48620    0.13090    -999.25    0.13090    1.92750    0.04580   93.43070   93.43070    1.92750    1.88170    1.88170    0.25990    -999.25    0.25990    1.95470   -5.42040   -2.37810    1.95470
 7500.00000    9.82820  233.39400    1.07820    0.01150    2.59920    0.06480    -999.25    0.06480    4.28460    0.01150   56.94080   56.94080    4.28460    4.05540    4.05540    0.11350    -999.25    0.11350    4.39690  -10.41360   -6.12030    4.39690
 7550.00000    9.93620  222.79160    1.18620    0.01040    2.58530    0.07290    -999.25    0.07290    4.48850    0.01040   54.30160   54.30160    4.48850    4.39850    4.39850    0.11710    -999.25    0.11710    4.77050  -12.23580   -6.69150    4.77050
 7600.00000    9.70650  151.23330    0.95650    0.00600    2.58450    0.07340    -999.25    0.07340    6.61230    0.00600   54.01590   54.01590    6.61230    5.87130    5.87130    0.09830    -999.25    0.09830    7.84850  -20.70580  -13.91040    7.84850
 7650.00000   11.50760  321.46070    2.75760    0.01570    2.55080    0.09310    -999.25    0.09310    3.11080    0.01570   99.15080   99.15080    3.11080    2.93480    2.93480    0.14860    -999.25    0.14860    3.23400   -8.08690   -0.64070    3.23400
 7700.00000   11.71090  391.63470    2.96090    0.04660    2.54120    0.09870    -999.25    0.09870    2.55340    0.04660  100.80280  100.80280    2.55340    2.50990    2.50990    0.19610    -999.25    0.19610    2.71140   -9.93020   -2.77190    2.71140
 7750.00000   10.89970  296.46320    2.14970    0.01550    2.57100    0.08130    -999.25    0.08130    3.37310    0.01550   96.04730   96.04730    3.37310    3.29270    3.29270    0.14150    -999.25    0.14150    4.20250   -9.82360   -2.95320    4.20250
 7800.00000   10.83670  330.31640    2.08670    0.07300    2.57590    0.07840    -999.25    0.07840    3.02740    0.07300   98.18530   98.18530    3.02740    2.83260    2.83260    0.18860    -999.25    0.18860    3.14420   -9.48430   -2.90180    3.14420
 7850.00000   10.65960  383.06840    1.90960    0.01030    2.54810    0.09470    -999.25    0.09470    2.61050    0.01030   99.52080   99.52080    2.61050    2.53060    2.53060    0.19250    -999.25    0.19250    2.86000   -8.13860   -1.84400    2.86000
 7900.00000   10.71150  440.78110    1.96150    0.02040    2.54640    0.09570    -999.25    0.09570    2.26870    0.02040   97.85070   97.85070    2.26870    2.23140    2.23140    0.24900    -999.25    0.24900    2.54520   -7.05880   -1.05220    2.54520
 7950.00000   11.45160  483.79290    2.70160    0.07860    2.44360    0.15580    -999.25    0.15580    2.06700    0.07860  115.31200  115.31200    2.06700    1.99500    1.99500    0.27080    -999.25    0.27080    2.42830   -9.44970   -3.73100    2.42830
 8000.00000   13.54570  676.17820    4.79570    0.09990    2.50000    0.12280    -999.25    0.12280    1.47890    0.09990  112.89340  112.89340    1.47890    1.45470    1.45470    0.28270    -999.25    0.28270    1.65170   -9.73460   -3.47970    1.65170
 8050.00000   12.81850  490.91800    4.06850    0.10210    2.53630    0.10160    -999.25    0.10160    2.03700    0.10210  105.96300  105.96300    2.03700    2.00160    2.00160    0.24520    -999.25    0.24520    2.25890  -12.22560   -5.12960    2.25890
 8100.00000   12.93620  499.67520    4.18620    0.10000    2.54340    0.09740    -999.25    0.09740    2.00130    0.10000  101.99770  101.99770    2.00130    1.96870    1.96870    0.26300    -999.25    0.26300    2.23500  -11.85460   -3.91760    2.23500
 8150.00000   12.70900  518.64530    3.95900    0.10090    2.52430    0.10860    -999.25    0.10860    1.92810    0.10090  114.52400  114.52400    1.92810    1.89730    1.89730    0.27450    -999.25    0.27450    2.13870  -12.11240   -3.33440    2.13870
 8200.00000   12.84850  546.03040    4.09850    0.10080    2.53280    0.10360    -999.25    0.10360    1.83140    0.10080  115.64410  115.64410    1.83140    1.80000    1.80000    0.26520    -999.25    0.26520    2.05950  -11.45960   -1.84060    2.05950
 8250.00000   11.76810  512.45260    3.01810    0.10080    2.55130    0.09280    -999.25    0.09280    1.95140    0.10080  119.62250  119.62250    1.95140    1.92020    1.92020    0.25750    -999.25    0.25750    2.18960  -13.18570   -2.72570    2.18960
 8300.00000   11.36590  524.16400    2.61590    0.10070    2.51950    0.11140    -999.25    0.11140    1.90780    0.10070  115.89010  115.89010    1.90780    1.87020    1.87020    0.26180    -999.25    0.26180    2.16000  -12.54510   -1.24410    2.16000
 8350.00000   10.87600  469.88070    2.12600    0.08710    2.52810    0.10640    -999.25    0.10640    2.12820    0.08710  114.26900  114.26900    2.12820    2.09420    2.09420    0.23940    -999.25    0.23940    2.44250  -14.76710   -2.62510    2.44250
 8400.00000   11.66180  513.37340    2.91180    0.09870    2.55300    0.09180    -999.25    0.09180    1.94790    0.09870  113.04070  113.04070    1.94790    1.91680    1.91680    0.26900    -999.25    0.26900    2.17270  -18.15500   -4.67920    2.17270
 8450.00000   10.80610  481.13930    2.05610    0.10260    2.55130    0.09280    -999.25    0.09280    2.07840    0.10260  113.65640  113.65640    2.07840    2.04510    2.04510    0.24910    -999.25    0.24910    2.28480  -16.55500   -1.58120    2.28480
 8500.00000    9.26240  107.89930    0.51240    0.00490    2.62190    0.05150    -999.25    0.05150    9.26790    0.00490   40.69130   40.69130    9.26790    8.29990    8.29990    0.06280    -999.25    0.06280   10.57960  -23.58140   -9.68290   10.57960
 8550.00000    9.21310  118.40060    0.46310    0.02150    2.61050    0.05820    -999.25    0.05820    8.44590    0.02150   48.15310   48.15310    8.44590    7.54120    7.54120    0.06650    -999.25    0.06650   12.02670  -26.95780  -14.66160   12.02670
 8600.00000    8.99270   59.63990    0.24270    0.00750    2.60810    0.05960    -999.25    0.05960   16.76730    0.00750   53.73360   53.73360   16.76730   13.80690   13.80690    0.06550    -999.25    0.06550   14.67780  -31.30200  -20.60820   14.67780
 8650.00000    8.93140   67.77320    0.18140   -0.00730    2.58790    0.07140    -999.25    0.07140   14.75510   -0.00730   59.28190   59.28190   14.75510   13.53560   13.53560    0.07190    -999.25    0.07190   23.14620  -28.17510  -19.08370   23.14620
 8700.00000    8.72930   48.86420   -0.02070    0.02030    2.60140    0.06350    -999.25    0.06350   20.46490    0.02030   47.75260   47.75260   20.46490   15.61760   15.61760    0.08380    -999.25    0.08380   20.70890  -32.71660  -25.22750   20.70890
 8750.00000    8.71740   36.35890   -0.03260    0.00500    2.58230    0.07470    -999.25    0.07470   27.50360    0.00500   53.49190   53.49190   27.50360   19.61470   19.61470    0.08260    -999.25    0.08260   21.37790  -35.07180  -29.18510   21.37790
 8800.00000    8.56520   49.76860   -0.18480    0.05110    2.59370    0.06800    -999.25    0.06800   20.09300    0.05110   32.52560   32.52560   20.09300   26.23670   26.23670    0.08130    -999.25    0.08130   37.06360  -48.61200  -44.32770   37.06360
