~Version ---------------------------------------------------
VERS. 2.0 : CWLS log ASCII Standard -VERSION 2.0
WRAP. YES : Multiple lines per depth step
~Well ------------------------------------------------------
STRT.FT                   3800.0 : START DEPTH
STOP.FT                   8500.0 : STOP DEPTH
STEP.FT                 50.00000 : STEP LENGTH
NULL.                    -999.25 : NULL VALUE
COMP. CHAMPLIN PETROLEUM COMPANY : COMPANY
WELL.     MARYANN ZGABAY UNIT #1 : WELL
FLD .                   GIDDINGS : FIELD
LOC .                            : LOCATION
CNTY.                   BURLESON : COUNTY
STAT.                      TEXAS : STATE
CTRY.   UNITED STATES OF AMERICA : COUNTRY
SRVC.               Schlumberger : SERVICE COMPANY
DATE.                22-Jun-1980 : LOGDATE
API .             42051306560000 : API NUMBER
UWI .             42051306560000 : UNIQUE WELL ID
SLAT.WGS84         30.3487905786 : SURFACE LATITUDE
SLON.WGS84        -96.7442146113 : SURFACE LONGITUDE
~Curve Information -----------------------------------------
DEPT    .FT    : Depth Curve
CALDED  .IN    : CALIPER FROM COMPENSATED NEUTRON-FORMATION DENSITY LOG
CALSED  .IN    : CALIPER FROM SONIC-DENSITY LOG
CALWS   .IN    : CALIPER [CALDED]
CONDWS  .MMHO  : CONDUCTIVITY [1000/DRESWS]
DCORWS  .G/C3  : DENSITY CORRECTION [DRHOED]
DENWS   .G/C3  : BULK DENSITY [RHOBED]
DPHI1ED .V/V   : DENSITY POROSITY FROM SONIC-DENSITY LOG
DPHILSED.V/V   : DENSITY POROSITY LIMESTONE [M=2.71 F=1.0] FROM COMPENSATED NEUTRON-FORMATION DENSITY LOG
DPHISSED.V/V   : DENSITY POROSITY SANDSTONE [M=2.65 F=1.0] FROM COMPENSATED NEUTRON-FORMATION DENSITY LOG
DPOWS   .V/V   : DENSITY POROSITY [DPHISSED  CONVERTED TO LIMESTONE (M=2.71 F=1.0),SPL. TO DPHILSED @ 5602.5']
DRESWS  .OHMM  : DEEP RESISTIVITY [ILDED]
DRHOED  .G/C3  : BULK DENSITY CORRECTION  FROM COMPENSATED NEUTRON-FORMATION DENSITY LOG
DTED    .US/F  : SONIC FROM DUAL INDUCTION-SFL-SONIC LOG [ADJ. TO GRDED]
DTWS    .US/F  : COMPRESSIONAL SONIC [DTED]
GRDED   .GAPI  : GAMMA RAY  FROM COMPENSATED NEUTRON-FORMATION DENSITY LOG [GRDED IN CASING FROM 3781' - 3796']
GRRED   .GAPI  : GAMMA RAY FROM DUAL INDUCTION-SFL-SONIC LOG [ADJ. TO GRDED] [GRRED RESCALED TO 0-150 FROM 0-75]
GRSED   .GAPI  : GAMMA RAY FROM SONIC-DENSITY LOG
GRWS    .G/C3  : GAMMA RAY [GRRED SPL. TO GRDED @ 3783']
ILDED   .OHMM  : DEEP INDUCTION FROM DUAL INDUCTION-SFL-SONIC LOG [ADJ. TO GRDED]
ILMED   .OHMM  : MEDIUM INDUCTION FROM DUAL INDUCTION-SFL-SONIC LOG [ADJ. TO GRDED]
MRESWS  .OHMM  : MEDIUM RESISTIVITY [ILMED]
NPHILSED.V/V   : NEUTRON POROSITY LIMESTONE  FROM COMPENSATED NEUTRON-FORMATION DENSITY LOG
NPHISSED.V/V   : NEUTRON POROSITY SANDSTONE  FROM COMPENSATED NEUTRON-FORMATION DENSITY LOG [NPHISSED IN CASING FROM 3781' - 3796']
NPOWS   .V/V   : NEUTRON POROSITY LIMESTONE[NPHISSED MATRIX CONVERTED TO LIMESTONE SPL. TO NPHILSED @ 5600']
RHOBED  .G/C3  : BULK DENSITY FROM COMPENSATED NEUTRON-FORMATION DENSITY LOG
SFLUED  .OHMM  : SHALLOW FOUCUSED FROM DUAL INDUCTION-SFL-SONIC [ADJ. TO GRDED]
SPHIED  .V/V   : SONIC POROSITY FROM SONIC-DENSITY LOG [ADJ. TO DTED]
SPOWS   .V/V   : SONIC POROSITY [ SPHI SPL. TO SPHIED FROM 7501.5'-8116.5']
SPRED   .MV    : SPOTANEOUS POTENTIAL FROM DUAL INDUCTION-SFL-SONIC [ADJ. TO GRDED]
SPWS    .MV    : SPONTANEOUS POTENTIAL [BASELINE 0 MV, SPRED]
SRESWS  .OHMM  : SHALLOW RESISTIVITY [SFLUED]
~Params ----------------------------------------------------
PD  .                     GL : PERMANENT DATUM
EPD .FT                  279 : ELEVATION PERMANENT DATUM
LMF .                     KB : LOG MEASURED FROM
DAPD.FT                 16.3 : FEET ABOVE PERMANENT DATUM
DMF .                     KB : DRILLING MEASURED FROM
EKB .FT                295.3 : KELLY BUSHING
EDF .FT                294.3 : DRILLING FLOOR
EGL .FT                  279 : GROUND LEVEL
DATE.                6-22-80 : RUN DATE
RUN .                      1 : RUN NUMBER
DD  .FT                 8522 : DEPTH DRILLER
DL  .FT                 8523 : DEPTH LOGGER
BLI .FT                 8516 : BOTTOM LOG INTERVAL
TLI .FT                 3796 : TOP LOG INTERVAL
CS  .IN                9.625 : CASING SIZE
CBD .FT                 3784 : CASING BOTTOM DRILLER
CBL .FT                 3796 : CASING BOTTOM LOGGER
BS  .IN                 8.75 : BIT SIZE
BSD .FT                 8522 : BIT SIZE AT DEPTH
DFT .                 BEN-EX : DRILLING FLUID TYPE
DFD .                    9.5 : DRILLING FLUID DENSITY
DFV .                     44 : DRILLING FLUID VISCOSITY
DFPH.                    9.5 : DRILLING FLUID PH
DFL .                    6.6 : DRILLING FLUID LOSS
MSS .               MUD TANK : MUD SAMPLE SOURCE
RMS .OHMM               2.06 : RESISTIVITY MUD SAMPLE
MST .DEGF                 94 : MUD SAMPLE TEMPERATURE
RMF .OHMM               1.52 : RESISTIVITY MUD FILTRATE SAMPLE
MFST.DEGF                 94 : MUD FILTRATE SAMPLE TEMPERATURE
RMC .OHMM               3.04 : RESISTIVITY MUD CAKE
MCST.DEGF                 94 : MUD CAKE SAMPLE TEMPERATURE
MFSS.                      C : MUD FILTRATE SAMPLE SOURCE
MCSS.                      C : MUD CAKE SAMPLE SOURCE
RMB .OHMM              0.988 : RESISTIVITY MUD AT BHT
TCS .HRS                 300 : TIME CIRCULATED STOPPED
TLAB.HRS                1000 : TIME LOGGER AT BOTTOM
LUN .                   7750 : LOGGING UNIT NUMBER
LUL .                BRENHAM : LOGGING UNIT LOCATION
ENGI.            KRONEBITTER : RECORDING ENGINEER
WITN.             PRESTRIDGE : WITNESSED BY
CLNT.                A2DTECH : CLIENT CODE
ORIG.          1" 2.5" PRINT : ORIGIN OF DATA
UWI .         42051306560000 : UNIQUE WELL ID
DICO. A2D Technologies, Inc. : DIGITIZING COMPANY
~Other -----------------------------------------------------
~ASCII -----------------------------------------------------
 3800.00000   10.47060    -999.25   10.47060    -999.25    -999.25    -999.25    -999.25    -999.25    -999.25    -999.25    -999.25    -999.25    -999.25    -999.25   59.29200   69.64280    -999.25   59.29200    -999.25    -999.25    -999.25    -999.25    0.33570    0.29190    -999.25    -999.25    -999.25    -999.25    -999.25    -999.25    -999.25
 3850.00000   10.11760    -999.25   10.11760  114.66970    0.02360    2.13840    -999.25    -999.25    0.30820    0.33250    8.72070    0.02360  103.63560  103.63560   56.85790   60.45920    -999.25   56.85790    8.72070    9.31090    9.31090    -999.25    0.38290    0.33970    2.13840   12.80140    -999.25    0.38140  -20.49000  -26.76860   12.80140
 3900.00000   10.11760    -999.25   10.11760  140.31150    0.04650    2.19010    -999.25    -999.25    0.27050    0.29610    7.12700    0.04650  100.85440  100.85440   65.48740   59.10880    -999.25   65.48740    7.12700    7.94940    7.94940    -999.25    0.36340    0.31990    2.19010   11.75040    -999.25    0.36130  -27.66250  -36.38790   11.75040
 3950.00000   10.42650    -999.25   10.42650  153.42130    0.04570    2.11610    -999.25    -999.25    0.32070    0.34450    6.51800    0.04570  102.52990  102.52990   51.32710   45.95700    -999.25   51.32710    6.51800    7.39330    7.39330    -999.25    0.32900    0.28520    2.11610   11.74320    -999.25    0.37340  -27.19760  -38.83880   11.74320
 4000.00000   10.11760    -999.25   10.11760  194.90140    0.08850    2.39140    -999.25    -999.25    0.15490    0.18460    5.13080    0.08850   94.91250   94.91250  108.67210  104.46420    -999.25  108.67210    5.13080    5.60370    5.60370    -999.25    0.36820    0.32480    2.39140    8.14030    -999.25    0.31820    4.02370  -10.53340    8.14030
 4050.00000   10.11770    -999.25   10.11770  140.30760    0.05090    2.25460    -999.25    -999.25    0.36620    0.38840    7.12720    0.05090   91.16900   91.16900   91.88640   81.39840    -999.25   91.88640    7.12720    7.23750    7.23750    -999.25    0.34200    0.29830    2.25460   11.71900    -999.25    0.29110   -1.44970  -22.45870   11.71900
 4100.00000    9.29410    -999.25    9.29410  203.86940    0.05970    2.22920    -999.25    -999.25    0.25770    0.28370    4.90510    0.05970   94.89410   94.89410   70.73720   71.41040    -999.25   70.73720    4.90510    5.08910    5.08910    -999.25    0.37020    0.32680    2.22920    8.60710    -999.25    0.31810   -9.00130  -32.72530    8.60710
 4150.00000    9.28570    -999.25    9.28570  160.07430    0.02900    2.17010    -999.25    -999.25    0.29130    0.31620    6.24710    0.02900   99.71010   99.71010   48.67260   49.13760    -999.25   48.67260    6.24710    6.99060    6.99060    -999.25    0.36340    0.31990    2.17010   10.95520    -999.25    0.35300  -23.18510  -49.62400   10.95520
 4200.00000    9.40880    -999.25    9.40880  148.96690    0.02730    2.16070    -999.25    -999.25    0.29570    0.32040    6.71290    0.02730  102.15050  102.15050   52.87670   56.28580    -999.25   52.87670    6.71290    7.08260    7.08260    -999.25    0.33390    0.29010    2.16070   11.34090    -999.25    0.37070  -16.63580  -45.78970   11.34090
 4250.00000    8.86760    -999.25    8.86760  148.33930    0.03690    2.15480    -999.25    -999.25    0.27700    0.30240    6.74130    0.03690   89.37920   89.37920   55.45650   46.12560    -999.25   55.45650    6.74130    8.30790    8.30790    -999.25    0.35710    0.31350    2.15480   11.95650    -999.25    0.27810  -18.90060  -44.25960   11.95650
 4300.00000    9.44110    -999.25    9.44110  250.47280    0.09610    2.31250    -999.25    -999.25    0.21460    0.24220    3.99240    0.09610   95.50250   95.50250   93.36320   90.67300    -999.25   93.36320    3.99240    4.07490    4.07490    -999.25    0.34080    0.29710    2.31250    6.75430    -999.25    0.32250   14.38670   -6.03080    6.75430
 4350.00000    8.58830    -999.25    8.58830  158.17030    0.07300    2.26190    -999.25    -999.25    0.23380    0.26070    6.32230    0.07300   85.94960   85.94960   51.10600   55.39800    -999.25   51.10600    6.32230    8.22540    8.22540    -999.25    0.31070    0.26680    2.26190   21.34280    -999.25    0.25330   -7.55070  -29.06180   21.34280
 4400.00000    8.88250    -999.25    8.88250  262.42590    0.03070    2.33080    -999.25    -999.25    0.19660    0.22480    3.81060    0.03070  100.31290  100.31290   93.36280   91.93380    -999.25   93.36280    3.81060    3.88450    3.88450    -999.25    0.39550    0.35250    2.33080    4.81140    -999.25    0.35730   14.68050   -7.92430    4.81140
 4450.00000    8.66180    -999.25    8.66180  211.16650    0.01180    2.20980    -999.25    -999.25    0.26370    0.28950    4.73560    0.01180   93.94590   93.94590   62.16810   63.00600    -999.25   62.16810    4.73560    5.01610    5.01610    -999.25    0.34460    0.30090    2.20980   10.81290    -999.25    0.31120  -38.51480  -57.33290   10.81290
 4500.00000    8.92010    -999.25    8.92010  256.19350    0.05040    2.35460    -999.25    -999.25    0.17720    0.20610    3.90330    0.05040   97.57690   97.57690  101.76990   91.98460    -999.25  101.76990    3.90330    4.02410    4.02410    -999.25    0.35540    0.31180    2.35460    7.10340    -999.25    0.33750   -3.59770  -21.29470    7.10340
 4550.00000    9.21010    -999.25    9.21010  218.42650    0.01680    2.32740    -999.25    -999.25    0.19220    0.22050    4.57820    0.01680   92.80480   92.80480   97.34510   82.90300    -999.25   97.34510    4.57820    5.15600    5.15600    -999.25    0.36600    0.32260    2.32740    9.08910    -999.25    0.30290   -5.81800  -24.92210    9.08910
 4600.00000   10.29090    -999.25   10.29090  331.24650    0.00960    2.40180    -999.25    -999.25    0.15080    0.18060    3.01890    0.00960   96.11630   96.11630  100.00000   89.94920    -999.25  100.00000    3.01890    2.98160    2.98160    -999.25    0.30760    0.26360    2.40180    5.77250    -999.25    0.32690   16.51370   -3.99760    5.77250
 4650.00000    8.92650    -999.25    8.92650  326.42400    0.02210    2.25570    -999.25    -999.25    0.23920    0.26590    3.06350    0.02210   96.50100   96.50100   74.55790   67.43420    -999.25   74.55790    3.06350    3.22240    3.22240    -999.25    0.39430    0.35130    2.25570   11.53100    -999.25    0.32970   -9.20370  -31.12210   11.53100
 4700.00000    9.47060    -999.25    9.47060  309.82770    0.05830    2.42110    -999.25    -999.25    0.13800    0.16820    3.22760    0.05830   95.51970   95.51970   84.51330   85.74620    -999.25   84.51330    3.22760    3.20280    3.20280    -999.25    0.35340    0.30980    2.42110    6.02620    -999.25    0.32260    4.91010  -19.59770    6.02620
 4750.00000    9.52940    -999.25    9.52940  359.13090    0.07890    2.41820    -999.25    -999.25    0.14330    0.17340    2.78450    0.07890   97.64220   97.64220   99.85200   98.36340    -999.25   99.85200    2.78450    2.77330    2.77330    -999.25    0.32750    0.28370    2.41820    4.70600    -999.25    0.33800   22.40150   -6.07470    4.70600
 4800.00000    9.93810    -999.25    9.93810  359.84170    0.08920    2.42610    -999.25    -999.25    0.14670    0.17660    2.77900    0.08920   97.00750   97.00750   93.36280   84.82100    -999.25   93.36280    2.77900    2.76800    2.76800    -999.25    0.34360    0.29990    2.42610    4.49130    -999.25    0.33340   18.87720  -10.33180    4.49130
 4850.00000    9.80880    -999.25    9.80880  450.14630    0.10100    2.38840    -999.25    -999.25    0.16030    0.18980    2.22150    0.10100   97.95380   97.95380   95.35400   87.94900    -999.25   95.35400    2.22150    2.19320    2.19320    -999.25    0.36150    0.31800    2.38840    3.59160    -999.25    0.34020   25.68190   -4.25990    3.59160
 4900.00000   10.52940    -999.25   10.52940  397.67760    0.08380    2.43900    -999.25    -999.25    0.12580    0.15650    2.51460    0.08380   96.71560   96.71560   92.47790   80.37460    -999.25   92.47790    2.51460    2.47730    2.47730    -999.25    0.32210    0.27820    2.43900    4.55210    -999.25    0.33130   25.09910   -5.57550    4.55210
