~Version ---------------------------------------------------
VERS. 2.0 : CWLS log ASCII Standard -VERSION 2.0
WRAP. YES : Multiple lines per depth step
~Well ------------------------------------------------------
STRT.FT                    1500.0 : START DEPTH
STOP.FT                    9700.0 : STOP DEPTH
STEP.FT                  50.00000 : STEP LENGTH
NULL.                     -999.25 : NULL VALUE
COMP.        MARATHON OIL COMPANY : COMPANY
WELL.                 NEWELL A #5 : WELL
FLD .                  BEAR GRASS : FIELD
LOC .                             : LOCATION
CNTY.                        LEON : COUNTY
STAT.                       TEXAS : STATE
CTRY.    UNITED STATES OF AMERICA : COUNTRY
SRVC. HALLIBURTON Sperry Drilling : SERVICE COMPANY
DATE.                 18-May-2000 : LOGDATE
API .              42289313250000 : API NUMBER
UWI .              42289313250000 : UNIQUE WELL ID
SLAT.WGS84          31.3623770117 : SURFACE LATITUDE
SLON.WGS84           -96.26513599 : SURFACE LONGITUDE
~Curve Information -----------------------------------------
DEPT    .FT    : DEPTH.FT
CALDED  .IN    : CALIPER FROM CNFD LOG
CALWS   .IN    : CALIPER [DCARLED+BIT SIZE]
CONDWS  .MMHO  : CONDUCTIVITY [1000/DRESWS]
DCALED  .IN    : DIFFERENTIAL CALIPER FROM HRIDN LOG
DCORED  .G/C3  : DENSITY CORRECTION FROM HRIDN LOG
DCORWS  .G/C3  : DENSITY CORRECTION [DCORED]
DENWS   .G/C3  : BULK DENSITY [M=2.71 F=1.0] [CALCULATED FROM DPOWS]
DFLED   .OHMM  : DIGITALLY FOCUSED LATEROLOG FROM HRIDN LOG
DPORLSED.V/V   : DENSITY POROSITY LIMESTONE FROM CNFD LOG
DPOWS   .V/V   : DENSITY POROSITY [M=2.71 F=1.0] [DPHILSED]
DRESWS  .OHMM  : DEEP RESISTIVITY [RILDED]
GRRED   .GAPI  : GAMMA RAY FROM IDN LOG
GRWS    .GAPI  : GAMMA RAY [GRRED]
MRESWS  .OHMM  : MEDIUM RESISTIVITY [RILMED]
NPORLSED.V/V   : NEUTRON POROSITY LIMESTONE FROM CNFD LOG
NPOWS   .V/V   : NEUTRON POROSITY LIMESTONE [NPHILSED]
RILDED  .OHMM  : INDUCTION DEEP RESISTIVITY FROM HRIDN LOG
RILMED  .OHMM  : INDUCTION MEDIUM RESISTIVITY FROM HRIDN LOG
SPRED   .MV    : SPONTANEOUS POTENTIAL FROM HRIDN LOG
SPWS    .MV    : SPONTANEOUS POTENTIAL [BASELINE 0 MV] [SPRED]
SRESWS  .OHMM  : SHALLOW RESISTIVITY [DFLED]
TENDED  .LBF   : TENSION FROM CNFD LOG
TENRED  .LBF   : TENSION FROM HRIDN LOG
~Params ----------------------------------------------------
PD  .                     GL : PERMANENT DATUM
EPD .FT                  501 : ELEVATION PERMANENT DATUM
LMF .                     KB : LOG MEASURED FROM
DAPD.FT                   12 : FEET ABOVE PERMANENT DATUM
DMF .                     KB : DRILLING MEASURED FROM
EKB .FT                  513 : KELLY BUSHING
EDF .FT                  512 : DRILLING FLOOR
EGL .FT                  501 : GROUND LEVEL
DATE.               05/18/00 : RUN DATE
RUN .                      1 : RUN NUMBER
DD  .FT                 9700 : DEPTH DRILLER
DL  .FT                 9688 : DEPTH LOGGER
BLI .FT                 9676 : BOTTOM LOG INTERVAL
TLI .FT                 1523 : TOP LOG INTERVAL
CS  .IN                9.625 : CASING SIZE
CBD .FT                 1530 : CASING BOTTOM DRILLER
CBL .FT                 1523 : CASING BOTTOM LOGGER
BS  .IN                7.875 : BIT SIZE
BSD .FT                 9700 : BIT SIZE AT DEPTH
DFT .         WATERBASED MUD : DRILLING FLUID TYPE
DFD .                    9.8 : DRILLING FLUID DENSITY
DFV .                     52 : DRILLING FLUID VISCOSITY
DFPH.                     10 : DRILLING FLUID PH
DFL .                    9.6 : DRILLING FLUID LOSS
MSS .               MUD TANK : MUD SAMPLE SOURCE
RMS .OHMM                1.9 : RESISTIVITY MUD SAMPLE
MST .DEGF                 84 : MUD SAMPLE TEMPERATURE
RMF .OHMM               1.56 : RESISTIVITY MUD FILTRATE SAMPLE
MFST.DEGF                 82 : MUD FILTRATE SAMPLE TEMPERATURE
RMC .OHMM               2.35 : RESISTIVITY MUD CAKE
MCST.DEGF                 82 : MUD CAKE SAMPLE TEMPERATURE
MFSS.                   MEAS : MUD FILTRATE SAMPLE SOURCE
MCSS.                   MEAS : MUD CAKE SAMPLE SOURCE
RMB .OHMM              0.738 : RESISTIVITY MUD AT BHT
TCS .HRS                1830 : TIME CIRCULATED STOPPED
TLAB.HRS                 200 : TIME LOGGER AT BOTTOM
LUN .                  52552 : LOGGING UNIT NUMBER
LUL .                KILGORE : LOGGING UNIT LOCATION
ENGI.                 GLEITZ : RECORDING ENGINEER
WITN.       EWBANK GALLAGHER : WITNESSED BY
CLNT.                A2DTECH : CLIENT CODE
ORIG.         1" 2" 5" PRINT : ORIGIN OF DATA
UWI .         42289313250000 : UNIQUE WELL ID
DICO. A2D Technologies, Inc. : DIGITIZING COMPANY
~Other -----------------------------------------------------
1. ALL CURVES APPEAR ON DEPTH. MATRIX LIMESTONE M=2.71 F=1
~ASCII -----------------------------------------------------
# ...
 6150.00000    -999.25    -999.25  191.00740    -999.25    -999.25    -999.25    -999.25    4.71230    -999.25    -999.25    5.23540   48.65390   48.65390    5.43960    -999.25    -999.25    5.23540    5.43960  -40.48820   -2.40970    4.71230    -999.25 3297.38430
 6200.00000    -999.25    -999.25   87.43320    -999.25    -999.25    -999.25    -999.25   10.51890    -999.25    -999.25   11.43730   28.82230   28.82230   11.88360    -999.25    -999.25   11.43730   11.88360  -44.13870   -6.24100   10.51890    -999.25 3343.75070
 6250.00000    -999.25    -999.25   49.09320    -999.25    -999.25    -999.25    -999.25   35.92680    -999.25    -999.25   20.36940   24.33100   24.33100   21.13670    -999.25    -999.25   20.36940   21.13670  -54.08730  -16.37040   35.92680    -999.25 3340.62720
 6300.00000    -999.25    -999.25  786.90590    -999.25    -999.25    -999.25    -999.25    1.67750    -999.25    -999.25    1.27080   77.84150   77.84150    1.43150    -999.25    -999.25    1.27080    1.43150  -44.31240   -6.77630    1.67750    -999.25 3328.16380
 6350.00000    -999.25    -999.25   84.81400    -999.25    -999.25    -999.25    -999.25   17.35320    -999.25    -999.25   11.79050   30.91680   30.91680   12.31390    -999.25    -999.25   11.79050   12.31390  -71.34160  -33.98630   17.35320    -999.25 3357.43730
 6400.00000    -999.25    -999.25  294.47270    -999.25    -999.25    -999.25    -999.25    3.33420    -999.25    -999.25    3.39590   62.18710   62.18710    3.57320    -999.25    -999.25    3.39590    3.57320  -41.97840   -4.80400    3.33420    -999.25 3397.57690
 6450.00000    -999.25    -999.25   57.48450    -999.25    -999.25    -999.25    -999.25   25.09910    -999.25    -999.25   17.39600   50.75570   50.75570   18.07750    -999.25    -999.25   17.39600   18.07750  -48.99280  -11.99920   25.09910    -999.25 3398.06490
 6500.00000    -999.25    -999.25  169.36520    -999.25    -999.25    -999.25    -999.25    7.66680    -999.25    -999.25    5.90440   44.96820   44.96820    6.54450    -999.25    -999.25    5.90440    6.54450  -41.36670   -4.55390    7.66680    -999.25 3404.32670
 6550.00000    -999.25    -999.25  272.11620    -999.25    -999.25    -999.25    -999.25    3.77200    -999.25    -999.25    3.67490   63.89850   63.89850    3.82180    -999.25    -999.25    3.67490    3.82180  -39.97000   -3.33800    3.77200    -999.25 3413.19360
 6600.00000    -999.25    -999.25  363.04230    -999.25    -999.25    -999.25    -999.25    3.26860    -999.25    -999.25    2.75450   95.91230   95.91230    2.92080    -999.25    -999.25    2.75450    2.92080  -40.31480   -3.86360    3.26860    -999.25 3462.17530
 6650.00000    -999.25    -999.25   45.46840    -999.25    -999.25    -999.25    -999.25   33.75090    -999.25    -999.25   21.99330   26.74400   26.74400   23.03950    -999.25    -999.25   21.99330   23.03950  -52.33210  -16.06170   33.75090    -999.25 3494.87040
 6700.00000    -999.25    -999.25   50.26360    -999.25    -999.25    -999.25    -999.25   39.48180    -999.25    -999.25   19.89510   29.69950   29.69950   20.81550    -999.25    -999.25   19.89510   20.81550  -47.86220  -11.77260   39.48180    -999.25 3522.19900
 6750.00000    -999.25    -999.25  409.53400    -999.25    -999.25    -999.25    -999.25    3.49450    -999.25    -999.25    2.44180   53.96970   53.96970    2.60740    -999.25    -999.25    2.44180    2.60740  -39.42610   -3.51740    3.49450    -999.25 3522.07370
 6800.00000    -999.25    -999.25  973.52020    -999.25    -999.25    -999.25    -999.25    1.57940    -999.25    -999.25    1.02720   85.73090   85.73090    1.13680    -999.25    -999.25    1.02720    1.13680  -40.74090   -5.01300    1.57940    -999.25 3509.85640
 6850.00000    -999.25    -999.25  605.43680    -999.25    -999.25    -999.25    -999.25    1.97420    -999.25    -999.25    1.65170   52.38200   52.38200    1.78870    -999.25    -999.25    1.65170    1.78870  -37.40700   -1.85990    1.97420    -999.25 3566.06400
 6900.00000    -999.25    -999.25  134.01410    -999.25    -999.25    -999.25    -999.25   10.02060    -999.25    -999.25    7.46190   40.64840   40.64840    7.75890    -999.25    -999.25    7.46190    7.75890  -37.78410   -2.41780   10.02060    -999.25 3645.26000
 6950.00000    -999.25    -999.25  352.24910    -999.25    -999.25    -999.25    -999.25    4.26590    -999.25    -999.25    2.83890   55.76750   55.76750    3.04690    -999.25    -999.25    2.83890    3.04690  -37.49880   -2.21930    4.26590    -999.25 3625.44530
 7000.00000    9.44230    9.44230   78.42150    1.65760    0.02940    0.02940    2.66380   20.09140    0.02700    0.02700   12.75160   29.30580   29.30580   15.12670    0.06360    0.06360   12.75160   15.12670  -40.99870   -5.71920   20.09140 3573.34740 3619.23050
 7050.00000    9.73770    9.73770  143.67820    1.87620    0.02530    0.02530    2.65720   10.80550    0.03090    0.03090    6.96000   33.10310   33.10310    7.56390    0.07820    0.07820    6.96000    7.56390  -39.63600   -4.35650   10.80550 3651.84160 3643.26760
 7100.00000    9.96470    9.96470  190.46890    2.07470    0.04030    0.04030    2.64840    4.50390    0.03600    0.03600    5.25020   43.07660   43.07660    5.51970    0.11560    0.11560    5.25020    5.51970  -39.89160   -4.61210    4.50390 3612.32350 3667.89790
 7150.00000    9.76660    9.76660   64.44250    1.91470    0.05210    0.05210    2.67550   58.37420    0.02020    0.02020   15.51770   43.23620   43.23620   22.61560    0.06310    0.06310   15.51770   22.61560  -40.12610   -4.84660   58.37420 3640.51070 3654.58010
 7200.00000    9.77680    9.77680  190.01650    1.95970    0.12320    0.12320    2.61170   20.61400    0.05750    0.05750    5.26270   52.84200   52.84200    6.80780    0.11130    0.11130    5.26270    6.80780  -40.91810   -5.63860   20.61400 3703.86380 3678.01370
 7250.00000    9.86590    9.86590  179.84960    1.97980    0.02120    0.02120    2.62690    7.73320    0.04860    0.04860    5.56020   65.13860   65.13860    5.97740    0.11060    0.11060    5.56020    5.97740  -40.98550   -5.70600    7.73320 3747.50710 3752.81050
 7300.00000    9.71990    9.71990  118.09160    1.96000    0.02540    0.02540    2.63580   12.20470    0.04340    0.04340    8.46800   56.85460   56.85460    8.90760    0.11190    0.11190    8.46800    8.90760  -38.74370   -3.46420   12.20470 3757.47240 3756.03880
 7350.00000    9.51880    9.51880   32.21930    1.69100    0.01490    0.01490    2.68110   71.97040    0.01690    0.01690   31.03730   44.49580   44.49580   38.78960    0.02990    0.02990   31.03730   38.78960  -42.66660   -7.38710   71.97040 3745.84520 3776.47310
 7400.00000    9.95110    9.95110  285.72240    2.16220    0.03010    0.03010    2.64470    4.55230    0.03820    0.03820    3.49990   74.68150   74.68150    3.67910    0.17310    0.17310    3.49990    3.67910  -39.18200   -3.90250    4.55230 3788.52610 3797.46610
 7450.00000   12.19600   12.19600  363.74220    4.39510    0.15530    0.15530    2.28630    6.46580    0.24780    0.24780    2.74920   67.26060   67.26060    3.44270    0.32830    0.32830    2.74920    3.44270  -39.71750   -4.43800    6.46580 3827.52440 3843.53170
 7500.00000   10.03250   10.03250  278.10220    2.22350    0.07740    0.07740    2.64930    6.82820    0.03550    0.03550    3.59580   72.43870   72.43870    4.03700    0.17150    0.17150    3.59580    4.03700  -39.53780   -4.25830    6.82820 3758.97660 3772.23750
 7550.00000    9.70290    9.70290  108.05440    1.84960    0.04340    0.04340    2.66980   15.34880    0.02350    0.02350    9.25460   53.14430   53.14430   10.07340    0.08790    0.08790    9.25460   10.07340  -37.62880   -2.34930   15.34880 3803.33500 3798.23440
 7600.00000    9.75460    9.75460   32.07470    1.88670    0.04270    0.04270    2.65580  106.74150    0.03170    0.03170   31.17720   25.17970   25.17970   46.02420    0.03730    0.03730   31.17720   46.02420  -48.59710  -13.31760  106.74150 3785.87550 3828.27730
 7650.00000    9.40970    9.40970  132.65770    1.65020    0.06520    0.06520    2.59580   15.83770    0.06680    0.06680    7.53820   41.79690   41.79690   10.72880    0.11850    0.11850    7.53820   10.72880  -42.99490   -7.71540   15.83770 3820.24070 3849.86130
