~Version ---------------------------------------------------
VERS. 2.0 : CWLS log ASCII Standard -VERSION 2.0
WRAP.  NO : ONE LINE PER DEPTH STEP
~Well ------------------------------------------------------
STRT.F                         1050.0 : START DEPTH
STOP.F                         8100.0 : STOP DEPTH
STEP.F                       50.00000 : STEP LENGTH
NULL.                         -999.25 : NULL VALUE
COMP. UNION PACIFIC RESOURCES COMPANY : COMPANY
WELL.            PRESTON RUFFINO B #2 : WELL
FLD .                          KURTEN : FIELD
LOC .                                 : LOCATION
CNTY.                          BRAZOS : COUNTY
STAT.                           TEXAS : STATE
CTRY.        UNITED STATES OF AMERICA : COUNTRY
SRVC.                    Schlumberger : SERVICE COMPANY
DATE.                     12-Feb-1990 : LOGDATE
API .                  42041314550000 : API NUMBER
UWI .                  42041314550000 : UNIQUE WELL ID
SLAT.WGS84              30.7793740987 : SURFACE LATITUDE
SLON.WGS84             -96.4235123476 : SURFACE LONGITUDE
~Curve Information -----------------------------------------
DEPT   .F                 : 
GRR    .GAPI 07 310 01 00 : GAMMA RAY FROM RESISTIVITY LOG
ILD    .OHMM 07 120 46 00 : INDUCTION DEEP RESISTIVITY
ILM    .OHMM 07 120 44 00 : INDUCTION MEDIUM RESISTIVITY
DCAL   .IN   07 280 01 00 : DIFFERENTIAL CALIPER
SFLU   .OHMM 07 220 01 00 : SHALLOW FOCUSED RESISTIVITY (UNAVERAGED)
SPR    .MV   07 010 01 00 : SPONTANEOUS POTENTIAL FROM RESISTIVITY LOG
DPHI_LS.DEC  45 890 10 00 : DENSITY POROSITY LIMESTONE
NPHI_LS.DEC  42 890 01 00 : NEUTRON POROSITY LIMESTONE
DRHO   .G/C3 45 356 01 00 : BULK DENSITY CORRECTION
RHOB   .G/C3 45 350 01 00 : BULK DENSITY
CALD   .IN   45 280 60 00 : CALIPER FROM DENSITY LOG
~Params ----------------------------------------------------
PD  .                     GL : PERMANENT DATUM
EPD .FT                  264 : ELEVATION PERMANENT DATUM
LMF .                     KB : LOG MEASURED FROM
DAPD.FT                   21 : FEET ABOVE PERMANENT DATUM
DMF .                     KB : DRILLING MEASURED FROM
EKB .FT                  385 : KELLY BUSHING
EDF .FT                  384 : DRILLING FLOOR
EGL .FT                  364 : GROUND LEVEL
DATE.               02/12/90 : RUN DATE
RUN .                      1 : RUN NUMBER
DD  .FT                 8180 : DEPTH DRILLER
DL  .FT                 8120 : DEPTH LOGGER
BLI .FT                 8114 : BOTTOM LOG INTERVAL
TLI .FT                 1040 : TOP LOG INTERVAL
CS  .IN                9.625 : CASING SIZE
CBD .FT                 1043 : CASING BOTTOM DRILLER
CBL .FT                 1040 : CASING BOTTOM LOGGER
BS  .IN                 8.75 : BIT SIZE
BSD .FT                 8180 : BIT SIZE AT DEPTH
DFT .                  BENEX : DRILLING FLUID TYPE
DFD .                    8.7 : DRILLING FLUID DENSITY
DFV .                     42 : DRILLING FLUID VISCOSITY
DFPH.                    8.2 : DRILLING FLUID PH
DFL .                    7.6 : DRILLING FLUID LOSS
MSS .               MUD TANK : MUD SAMPLE SOURCE
RMS .OHMM               4.39 : RESISTIVITY MUD SAMPLE
MST .DEGF                 93 : MUD SAMPLE TEMPERATURE
RMF .OHMM               7.15 : RESISTIVITY MUD FILTRATE SAMPLE
MFST.DEGF                 70 : MUD FILTRATE SAMPLE TEMPERATURE
RMC .OHMM               6.59 : RESISTIVITY MUD CAKE
MCST.DEGF                 93 : MUD CAKE SAMPLE TEMPERATURE
MFSS.                   MEAS : MUD FILTRATE SAMPLE SOURCE
MCSS.                   CALC : MUD CAKE SAMPLE SOURCE
RMB .OHMM              2.373 : RESISTIVITY MUD AT BHT
TCS .HRS                1600 : TIME CIRCULATED STOPPED
TLAB.HRS                2100 : TIME LOGGER AT BOTTOM
LUN .                   8235 : LOGGING UNIT NUMBER
LUL .           BREHAM DEPOT : LOGGING UNIT LOCATION
ENGI.               BARDFORD : RECORDING ENGINEER
WITN.       MCGINNIS BLANCHL : WITNESSED BY
CLNT.                A2DTECH : CLIENT CODE
ORIG.            2" 5" PRINT : ORIGIN OF DATA
UWI .         42041314550000 : UNIQUE WELL ID
DICO. A2D Technologies, Inc. : DIGITIZING COMPANY
~Other -----------------------------------------------------
~ASCII -----------------------------------------------------
# ...
 4100.00000   79.47930    1.48700    1.58060    4.12310    1.77510  -10.93590    -999.25    -999.25    -999.25    -999.25    -999.25
 4150.00000   96.07680    1.43220    1.47250    4.52780    1.68540  -11.43650    -999.25    -999.25    -999.25    -999.25    -999.25
 4200.00000  104.70190    1.51870    1.58470    4.33830    1.74610   -5.59170    -999.25    -999.25    -999.25    -999.25    -999.25
 4250.00000   96.84220    1.63500    1.68130    3.51720    1.75550   -7.96540    -999.25    -999.25    -999.25    -999.25    -999.25
 4300.00000  105.63090    1.98760    2.04530    3.22100    2.27790   -9.17500    -999.25    -999.25    -999.25    -999.25    -999.25
 4350.00000   94.57340    1.81840    1.88890    1.66010    2.03570   -4.86230    -999.25    -999.25    -999.25    -999.25    -999.25
 4400.00000   72.87480    1.43630    1.46160    1.73620    1.49590   -2.38040    -999.25    -999.25    -999.25    -999.25    -999.25
 4450.00000   75.94210    1.01850    1.09740    2.04470    1.17300   -1.45130    -999.25    -999.25    -999.25    -999.25    -999.25
 4500.00000   80.78110    0.87710    0.93010    1.86280    1.05150   -0.58230    -999.25    -999.25    -999.25    -999.25    -999.25
 4550.00000   73.99610    1.58840    1.65960    1.20930    1.70200   -2.63800    -999.25    -999.25    -999.25    -999.25    -999.25
 4600.00000   96.12440    1.89260    1.95910    1.77910    2.24750   -3.78600    -999.25    -999.25    -999.25    -999.25    -999.25
 4650.00000   78.50760    1.37780    1.47010    3.63330    1.63810   -6.25860    -999.25    -999.25    -999.25    -999.25    -999.25
 4700.00000   69.74270    1.74000    1.87480    4.11850    2.22750   -8.70380    -999.25    -999.25    -999.25    -999.25    -999.25
 4750.00000   78.41410    1.45230    1.49490    4.79190    1.53380   -7.65250    -999.25    -999.25    -999.25    -999.25    -999.25
 4800.00000   80.05460    1.08910    1.15340    5.68600    1.29100   -5.43850    -999.25    -999.25    -999.25    -999.25    -999.25
 4850.00000   78.10720    0.97990    1.05640    5.67330    1.21100   -5.09600    -999.25    -999.25    -999.25    -999.25    -999.25
 4900.00000   90.74160    1.09870    1.16630    5.90780    1.28120   -5.77780    -999.25    -999.25    -999.25    -999.25    -999.25
 4950.00000   91.29440    0.93290    0.99180    5.11610    1.15560   -2.89930    -999.25    -999.25    -999.25    -999.25    -999.25
 5000.00000   77.58370    1.51910    1.59420    4.45330    1.75130   -5.71870    -999.25    -999.25    -999.25    -999.25    -999.25
 5050.00000   75.27880    1.85360    1.94150    2.24330    2.18080   -4.22370    -999.25    -999.25    -999.25    -999.25    -999.25
 5100.00000   69.64690    1.56860    1.66620    2.18500    1.94080   -4.31170    -999.25    -999.25    -999.25    -999.25    -999.25
 5150.00000   64.38620    1.94240    2.04160    1.24010    2.40770   -4.13880    -999.25    -999.25    -999.25    -999.25    -999.25
 5200.00000   61.08820    2.51670    2.70290    1.07820    3.41000   -3.75080    -999.25    -999.25    -999.25    -999.25    -999.25
 5250.00000   86.45140    0.93210    1.02630    1.97040    1.13520   -0.26540    -999.25    -999.25    -999.25    -999.25    -999.25
 5300.00000   89.35980    1.00870    1.10270    2.34910    1.11190   -6.78160    -999.25    -999.25    -999.25    -999.25    -999.25
 5350.00000  100.00200    1.23520    1.32760    2.67570    1.36360   -1.06570    -999.25    -999.25    -999.25    -999.25    -999.25
 5400.00000   94.94280    1.39290    1.41340    2.65380    1.45640   -3.25490    -999.25    -999.25    -999.25    -999.25    -999.25
 5450.00000   92.99310    0.96300    1.05010    2.75490    1.15730    0.66370    -999.25    -999.25    -999.25    -999.25    -999.25
 5500.00000  104.80390    0.78290    0.84060    3.38700    0.89890    0.13080    -999.25    -999.25    -999.25    -999.25    -999.25
 5550.00000  101.56450    1.11210    1.20540    4.46960    1.33440    1.35940    -999.25    -999.25    -999.25    -999.25    -999.25
 5600.00000   90.58080    1.69840    1.83120    4.10360    2.10910   -1.15510    -999.25    -999.25    -999.25    -999.25    -999.25
 5650.00000   85.11910    1.66700    1.76140    4.41270    1.96790    0.40830    -999.25    -999.25    -999.25    -999.25    -999.25
 5700.00000   79.91050    1.65770    1.77670    4.43340    1.99850   -0.39760    -999.25    -999.25    -999.25    -999.25    -999.25
 5750.00000   84.45380    1.49750    1.59990    4.65250    1.84240   -1.22060    -999.25    -999.25    -999.25    -999.25    -999.25
 5800.00000   97.63520    1.35260    1.44860    4.83500    1.62870   -2.51540    -999.25    -999.25    -999.25    -999.25    -999.25
 5850.00000   96.59290    1.49400    1.61960    4.52050    1.74050   -2.08830    -999.25    -999.25    -999.25    -999.25    -999.25
 5900.00000   91.93690    1.30510    1.40500    3.89710    1.63980   -0.81200    -999.25    -999.25    -999.25    -999.25    -999.25
 5950.00000   87.07310    1.21810    1.31370    1.64310    1.50310    2.31200    -999.25    -999.25    -999.25    -999.25    -999.25
 6000.00000   83.47730    1.21550    1.31870    2.70370    1.53170   -1.44940    0.21000    0.38740    -999.25    -999.25    -999.25
 6050.00000   70.21710    1.30070    1.40450    4.78160    1.64880   -1.78650    0.18340    0.40990    -999.25    -999.25    -999.25
 6100.00000   78.13460    1.24480    1.33280    4.97920    1.54030   -2.98650    0.19580    0.40330    0.08990    -999.25    -999.25
 6150.00000   76.56810    1.18650    1.28150    4.83600    1.55290   -6.03850    0.20260    0.42480    -999.25    -999.25    -999.25
 6200.00000   69.30270    2.58860    2.73480    2.26170    3.00000   -3.29670    0.11760    0.26530    0.01680    -999.25    -999.25
 6250.00000   65.86820    3.14740    3.38660    1.69890    3.75180   -7.49180    0.11510    0.24300    0.01400    -999.25    -999.25
 6300.00000   70.08370    2.02020    2.18530    2.56550    2.54680   -6.05070    0.10770    0.32300    -999.25    -999.25    -999.25
 6350.00000   68.37310    2.07160    2.23520    1.86700    2.68070   -3.15180    0.09310    0.29710    0.02330    -999.25    -999.25
 6400.00000   77.96400    1.42380    1.51060    3.86540    1.81360   -4.11320    0.16510    0.40990    -999.25    -999.25    -999.25
 6450.00000   79.89280    1.26100    1.38510    4.65350    1.70470   -6.86860    0.21210    0.44160    -999.25    -999.25    -999.25
 6500.00000   74.29070    1.72190    1.87650    4.07690    2.31670   -5.06650    0.13330    0.36550    -999.25    -999.25    -999.25
 6550.00000   75.87780    1.96010    2.12770    4.27640    2.49690   -3.94490    0.11040    0.32250    -999.25    -999.25    -999.25
 6600.00000   71.69260    1.42300    1.55330    5.97430    1.91930   -4.71710    0.17120    0.38440    -999.25    -999.25    -999.25
 6650.00000   76.34010    1.34720    1.48170    6.33260    1.84340   -4.84760    0.15220    0.40580    -999.25    -999.25    -999.25
 6700.00000   77.85000    1.40640    1.53480    6.46090    1.85000   -5.39010    0.15940    0.41920    -999.25    -999.25    -999.25
 6750.00000   76.14400    1.55980    1.71120    5.73740    2.07920   -4.25490    0.15930    0.41010    -999.25    -999.25    -999.25
 6800.00000   71.99670    1.58290    1.72970    5.38670    2.10160   -5.00380    0.12570    0.38330    -999.25    -999.25    -999.25
 6850.00000   78.87210    1.46450    1.60050    5.33240    1.95960   -5.79680    0.12820    0.44070    -999.25    -999.25    -999.25
 6900.00000   76.09160    1.56100    1.72150    4.56720    2.12570   -3.03940    0.11120    0.38890    0.09950    -999.25    -999.25
 6950.00000   70.48130    2.41480    2.68540    1.46670    3.59600   -4.61130    0.11280    0.29960    0.09020    -999.25    -999.25
 7000.00000   76.64120    2.34730    2.63020    3.94430    3.23140   -4.40610    0.10310    0.28190    -999.25    -999.25    -999.25
 7050.00000   55.29310    3.77340    3.96700    1.40020    4.66650   -5.28800    0.08080    0.17590    0.03270    2.57170   10.15770
 7100.00000   27.63870    5.70550    6.31560    1.24970    7.86290  -11.81850    0.08280    0.10790    0.00950    2.56980   10.01250
