~Version ---------------------------------------------------
VERS. 2.0 : CWLS log ASCII Standard -VERSION 2.0
WRAP.  NO : One line per depth step
~Well ------------------------------------------------------
STRT.FT                          300.0 : START DEPTH
STOP.FT                        14400.0 : STOP DEPTH
STEP.FT                       50.00000 : STEP LENGTH
NULL.                          -999.25 : NULL VALUE
COMP.    AMERADA PETROLEUM CORPORATION : COMPANY
WELL.                MABEL GRIMES B #1 : WELL
FLD .               LOWE RANCH EDWARDS : FIELD
LOC .                                  : LOCATION
CNTY.                        MC MULLEN : COUNTY
STAT.                            TEXAS : STATE
CTRY.         UNITED STATES OF AMERICA : COUNTRY
SRVC. Schlumberger Well Surveying Corp : SERVICE COMPANY
DATE.                      20-Feb-1958 : LOGDATE
API .                   42311013640000 : API NUMBER
UWI .                   42311013640000 : UNIQUE WELL ID
SLAT.WGS84               28.3207374348 : SURFACE LATITUDE
SLON.WGS84              -98.6948976176 : SURFACE LONGITUDE
~Curve Information -----------------------------------------
DEPT  .FT    : DEPTH
ASNED .OHMM  : AMPLIFIED SHORT NORMAL 16 IN.
CALMED.IN    : CALIPER FROM MICRO LOG (ADJ TO RES.)
CALWS .IN    : CALIPER (CALMED)
CILDED.MMHO  : CONDUCTIVITY FROM LOG
CONDWS.MMHO  : CONDUCTIVITY (1000/DRESws)
DRESWS.OHMM  : DEEP RESISTIVITY (LNED/ILDED @ 5122) (IF DRESws<1, THEN 1000/CILDED)
GRNED .CU    : GAMMA RAY FROM NEUTRON LOG (ADJ TO RES.)
GRWS  .CU    : GAMMA RAY (GRNED)
ILDED .OHMM  : DEEP INDUCTION RESISTIVITY
LNED  .OHMM  : LONG NORMAL 64 IN.
LT18ED.OHMM  : LATERAL
NEUTED.CU    : NEUTRON FROM GAMMA RAY NEUTRON LOG (ADJ TO RES.)
NEUTWS.CU    : NEUTRON FROM GAMMA RAY NEUTRON LOG (NEUTED)
SPWS  .MV    : SPONTANEOUS POTENTIAL BASELINE 0 MV (SPRED)
SPRED .MV    : SPONTANEOUS POTENTIAL FROM RESISTIVITY
SRESWS.OHMM  : SHALLOW RESISTIVITY (ASNED)
~Params ----------------------------------------------------
PD  .                     GL : PERMANENT DATUM
LMF .                     KB : LOG MEASURED FROM
DAPD.F                 16.05 : FEET ABOVE PERMANENT DATUM
DMF .                     KB : DRILLING MEASURED FROM
EDF .F                   323 : DRILLING FLOOR
DATE.               02/20/58 : RUN DATE
RUN .                      3 : RUN NUMBER
DD  .F                 14409 : DEPTH DRILLER
DL  .F                 14411 : DEPTH LOGGER
BLI .F                 14405 : BOTTOM LOG INTERVAL
TLI .F                 13725 : TOP LOG INTERVAL
CBD .F                 13725 : CASING BOTTOM DRILLER
CBL .F                 13725 : CASING BOTTOM LOGGER
BS  .IN                 8.75 : BIT SIZE
BSD .F                 14409 : BIT SIZE AT DEPTH
DFT .               OIL EMUL : DRILLING FLUID TYPE
DFD .                   12.4 : DRILLING FLUID DENSITY
DFV .                     46 : DRILLING FLUID VISCOSITY
DFPH.                     12 : DRILLING FLUID PH
DFL .                    6.5 : DRILLING FLUID LOSS
MSS .                MUD PIT : MUD SAMPLE SOURCE
RMS .OHMM               0.82 : RESISTIVITY MUD SAMPLE
MST .F                    78 : MUD SAMPLE TEMPERATURE
RMF .OHMM               0.16 : RESISTIVITY MUD FILTRATE SAMPLE
MFST.F                   310 : MUD FILTRATE SAMPLE TEMPERATURE
RMC .OHMM               0.31 : RESISTIVITY MUD CAKE
MCST.F                   310 : MUD CAKE SAMPLE TEMPERATURE
RMB .OHMM               0.21 : RESISTIVITY MUD AT BHT
TCS .HRS                   2 : TIME CURCULATED STOPPED
LUL .                    VIC : LOGGING UNIT LOCATION
ENGI.                WHITNEY : RECORDING ENGINEER
WITN.                 GOLSON : WITNESSED BY
CLNT.                A2DTECH : CLIENT CODE
ORIG.               2" PRINT : ORIGIN OF DATA
UWI .         42311013640000 : UNIQUE WELL ID
DICO. A2D Technologies, Inc. : DIGITIZING COMPANY
~Other -----------------------------------------------------
~ASCII -----------------------------------------------------
# ...
 2450.00000    5.50800    -999.25    -999.25    -999.25  282.82940    3.53570    -999.25    -999.25    -999.25    3.53570    3.30060    -999.25    -999.25  -40.14330  -62.89090    5.50800
 2500.00000    9.35820    -999.25    -999.25    -999.25  171.25340    5.83930    -999.25    -999.25    -999.25    5.83930    4.64000    -999.25    -999.25  -51.23140  -74.99700    9.35820
 2550.00000    7.86100    -999.25    -999.25    -999.25  221.60170    4.51260    -999.25    -999.25    -999.25    4.51260    4.36020    -999.25    -999.25  -40.71770  -65.50120    7.86100
 2600.00000    8.00340    -999.25    -999.25    -999.25  233.31230    4.28610    -999.25    -999.25    -999.25    4.28610    4.93850    -999.25    -999.25  -46.84740  -72.64890    8.00340
 2650.00000    8.42860    -999.25    -999.25    -999.25  180.05690    5.55380    -999.25    -999.25    -999.25    5.55380    4.60540    -999.25    -999.25  -44.77210  -71.59150    8.42860
 2700.00000    2.08120    -999.25    -999.25    -999.25  533.19120    1.87550    -999.25    -999.25    -999.25    1.87550    2.15430    -999.25    -999.25   -6.30860  -34.14590    2.08120
 2750.00000   10.17830    -999.25    -999.25    -999.25  145.20110    6.88700    -999.25    -999.25    -999.25    6.88700    6.18040    -999.25    -999.25  -56.11580  -83.59770   10.17830
 2800.00000    9.09400    -999.25    -999.25    -999.25  126.97610    7.87550    -999.25    -999.25    -999.25    7.87550   10.31220    -999.25    -999.25  -23.62450  -50.63150    9.09400
 2850.00000    9.32280    -999.25    -999.25    -999.25  157.75110    6.33910    -999.25    -999.25    -999.25    6.33910    4.88540    -999.25    -999.25  -65.49100  -92.02310    9.32280
 2900.00000    4.83070    -999.25    -999.25    -999.25  242.42420    4.12500    -999.25    -999.25    -999.25    4.12500    3.72100    -999.25    -999.25  -30.67080  -56.72800    4.83070
 2950.00000   10.19020    -999.25    -999.25    -999.25  172.31280    5.80340    -999.25    -999.25    -999.25    5.80340    4.37720    -999.25    -999.25  -58.01920  -83.60150   10.19020
 3000.00000    4.93660    -999.25    -999.25    -999.25  287.13350    3.48270    -999.25    -999.25    -999.25    3.48270    6.91620    -999.25    -999.25  -36.27310  -61.38050    4.93660
 3050.00000    7.64410    -999.25    -999.25    -999.25  199.04460    5.02400    -999.25    -999.25    -999.25    5.02400    4.50030    -999.25    -999.25  -51.97740  -76.60990    7.64410
 3100.00000    7.82500    -999.25    -999.25    -999.25  175.55560    5.69620    -999.25    -999.25    -999.25    5.69620    3.13460    -999.25    -999.25  -66.97010  -91.12770    7.82500
 3150.00000    4.72370    -999.25    -999.25    -999.25  302.73670    3.30320    -999.25    -999.25    -999.25    3.30320    4.08000    -999.25    -999.25  -15.11700  -38.79970    4.72370
 3200.00000    3.11310    -999.25    -999.25    -999.25  523.31360    1.91090    -999.25    -999.25    -999.25    1.91090    1.83860    -999.25    -999.25  -14.25310  -37.53300    3.11310
 3250.00000    4.23710    -999.25    -999.25    -999.25  336.30400    2.97350    -999.25    -999.25    -999.25    2.97350    4.28930    -999.25    -999.25  -42.81340  -65.85900    4.23710
 3300.00000    7.50280    -999.25    -999.25    -999.25  267.96720    3.73180    -999.25    -999.25    -999.25    3.73180    3.69440    -999.25    -999.25  -59.66230  -82.47350    7.50280
 3350.00000    3.05500    -999.25    -999.25    -999.25  343.56000    2.91070    -999.25    -999.25    -999.25    2.91070    2.71480    -999.25    -999.25   -9.95080  -32.52770    3.05500
 3400.00000    4.68440    -999.25    -999.25    -999.25  280.70960    3.56240    -999.25    -999.25    -999.25    3.56240    4.07920    -999.25    -999.25  -23.09250  -45.43500    4.68440
 3450.00000    4.13750    -999.25    -999.25    -999.25  267.93850    3.73220    -999.25    -999.25    -999.25    3.73220    2.53940    -999.25    -999.25  -12.38860  -34.49680    4.13750
 3500.00000    7.32090    -999.25    -999.25    -999.25  290.18310    3.44610    -999.25    -999.25    -999.25    3.44610    3.13420    -999.25    -999.25  -57.23310  -79.10690    7.32090
 3550.00000    2.97510    -999.25    -999.25    -999.25  424.26810    2.35700    -999.25    -999.25    -999.25    2.35700    3.29260    -999.25    -999.25   -5.87560  -27.51510    2.97510
 3600.00000    3.96530    -999.25    -999.25    -999.25  339.43180    2.94610    -999.25    -999.25    -999.25    2.94610    3.90460    -999.25    -999.25   -5.74490  -27.15000    3.96530
 3650.00000    4.18870    -999.25    -999.25    -999.25  397.18790    2.51770    -999.25    -999.25    -999.25    2.51770    2.43380    -999.25    -999.25   -7.05480  -28.22550    4.18870
 3700.00000    4.20560    -999.25    -999.25    -999.25  284.26050    3.51790    -999.25    -999.25    -999.25    3.51790    2.54750    -999.25    -999.25   -6.93130  -27.86770    4.20560
 3750.00000    2.40210    -999.25    -999.25    -999.25  543.74420    1.83910    -999.25    -999.25    -999.25    1.83910    2.78390    -999.25    -999.25   -3.01420  -23.79050    2.40210
 3800.00000    2.43710    -999.25    -999.25    -999.25  513.76900    1.94640    -999.25    -999.25    -999.25    1.94640    2.50380    -999.25    -999.25   -4.65980  -25.35960    2.43710
 3850.00000    2.13930    -999.25    -999.25    -999.25  658.93510    1.51760    -999.25    -999.25    -999.25    1.51760    2.00500    -999.25    -999.25   -3.12350  -23.74690    2.13930
 3900.00000    2.32310    -999.25    -999.25    -999.25  658.63130    1.51830    -999.25    -999.25    -999.25    1.51830    2.01370    -999.25    -999.25   -2.48190  -23.02880    2.32310
 3950.00000    2.94390    -999.25    -999.25    -999.25  440.93660    2.26790    -999.25    -999.25    -999.25    2.26790    1.55860    -999.25    -999.25   -2.73750  -23.20800    2.94390
 4000.00000    1.94830    -999.25    -999.25    -999.25  504.31190    1.98290    -999.25    -999.25    -999.25    1.98290    3.93130    -999.25    -999.25   -8.19110  -28.58510    1.94830
 4050.00000    7.75400    -999.25    -999.25    -999.25  116.42660    8.58910    -999.25    -999.25    -999.25    8.58910    6.98710    -999.25    -999.25  -14.58730  -34.90490    7.75400
 4100.00000    5.50800    -999.25    -999.25    -999.25  129.33100    7.73210    -999.25    -999.25    -999.25    7.73210   29.24120    -999.25    -999.25  -19.62940  -39.87050    5.50800
 4150.00000    9.93760    -999.25    -999.25    -999.25   78.25710   12.77840    -999.25    -999.25    -999.25   12.77840    6.38200    -999.25    -999.25  -18.71460  -38.87930    9.93760
 4200.00000   16.56870    -999.25    -999.25    -999.25   53.69070   18.62520    -999.25    -999.25    -999.25   18.62520   15.28660    -999.25    -999.25  -36.36330  -56.45150   16.56870
 4250.00000   13.31570    -999.25    -999.25    -999.25   68.54530   14.58890    -999.25    -999.25    -999.25   14.58890    9.82480    -999.25    -999.25  -30.79690  -50.80870   13.31570
 4300.00000   11.52850    -999.25    -999.25    -999.25   92.86600   10.76820    -999.25    -999.25    -999.25   10.76820   12.44830    -999.25    -999.25  -38.04160  -57.97690   11.52850
 4350.00000    5.08730    -999.25    -999.25    -999.25  251.07330    3.98290    -999.25    -999.25    -999.25    3.98290    6.77620    -999.25    -999.25   -6.75710  -26.61600    5.08730
 4400.00000   12.07250    -999.25    -999.25    -999.25   98.42330   10.16020    -999.25    -999.25    -999.25   10.16020    5.90210    -999.25    -999.25  -41.70700  -61.25890   12.07250
 4450.00000   13.81720    -999.25    -999.25    -999.25   87.09360   11.48190    -999.25    -999.25    -999.25   11.48190    9.75320    -999.25    -999.25  -50.28660  -68.54900   13.81720
 4500.00000   10.49880    -999.25    -999.25    -999.25  139.32430    7.17750    -999.25    -999.25    -999.25    7.17750    5.35870    -999.25    -999.25  -53.80680  -70.77960   10.49880
 4550.00000    9.14450    -999.25    -999.25    -999.25  163.97740    6.09840    -999.25    -999.25    -999.25    6.09840    5.13010    -999.25    -999.25  -60.39350  -76.07680    9.14450
