~Version ---------------------------------------------------
VERS. 2.0 : CWLS log ASCII Standard -VERSION 2.0
WRAP.  NO : ONE LINE PER DEPTH STEP
~Well ------------------------------------------------------
STRT.F                       1050.0 : START DEPTH
STOP.F                      10050.0 : STOP DEPTH
STEP.F                     50.00000 : STEP LENGTH
NULL.                       -999.25 : NULL VALUE
COMP.           MARLINE OIL COMPANY : COMPANY
WELL. STUART J W AND BESSIE FIFE #1 : WELL
FLD .                       JOHNSON : FIELD
LOC .                               : LOCATION
CNTY.                        ZAVALA : COUNTY
STAT.                         TEXAS : STATE
CTRY.      UNITED STATES OF AMERICA : COUNTRY
SRVC.                  Schlumberger : SERVICE COMPANY
DATE.                   05-Dec-1979 : LOGDATE
API .                42507312420000 : API NUMBER
UWI .                42507312420000 : UNIQUE WELL ID
SLAT.WGS84            28.7431848519 : SURFACE LATITUDE
SLON.WGS84          -100.0778407048 : SURFACE LONGITUDE
~Curve Information -----------------------------------------
DEPT.F                 : 
CILD.MMHO 07 110 46 00 : INDUCTION DEEP CONDUCTIVITY
ILD .OHMM 07 120 46 00 : INDUCTION DEEP RESISTIVITY
ILM .OHMM 07 120 44 00 : INDUCTION MEDIUM RESISTIVITY
GRR .GAPI 07 310 01 00 : GAMMA RAY FROM RESISTIVITY LOG
LL8 .OHMM 07 220 08 00 : LATEROLOG 8
ASFL.OHMM 07 221 01 00 : AMPLIFIED SPHERICALLY FOCUSED LOG
SPR .MV   07 010 01 00 : SPONTANEOUS POTENTIAL FROM RESISTIVITY LOG
~Params ----------------------------------------------------
PD  .                     GL : PERMANENT DATUM
EPD .F                 628.3 : ELEVATION PERMANENT DATUM
LMF .                     KB : LOG MEASURED FROM
DAPD.F                    14 : FEET ABOVE PERMANENT DATUM
DMF .                     KB : DRILLING MEASURED FROM
EKB .F                 642.3 : KELLING BUSHING
EDF .F                 641.3 : DRILLING FLOOR
EGL .F                 628.3 : GROUND LEVEL
DATE.               12/10/79 : RUN DATE
RUN .                      3 : RUN NUMBER
DD  .F                  9286 : DEPTH DRILLER
DL  .F                  9201 : DEPTH LOGGER
BLI .F                  9195 : BOTTOM LOG INTERVAL
TLI .F                  5620 : TOP LOG INTERVAL
CS  .IN                9.625 : CASING SIZE
CBD .F                  1020 : CASING BOTTOM DRILLER
BS  .IN                 8.75 : BIT SIZE
BSD .F                  9286 : BIT SIZE AT DEPTH
DFT .           GYP VC10 CML : DRILLING FLUID TYPE
DFD .                   12.9 : DRILLING FLUID DENSITY
DFV .                     51 : DRILLING FLUID VISCOSITY
DFPH.                      9 : DRILLING FLUID PH
DFL .                    2.6 : DRILLING FLUID LOSS
MSS .               CIRC PIT : MUD SAMPLE SOURCE
RMS .OHMM               0.46 : RESISTIVITY MUD SAMPLE
MST .F                    75 : MUD SAMPLE TEMPERATURE
RMF .OHMM               0.31 : RESISTIVITY MUD FILTRATE SAMPLE
MFST.F                    75 : MUD FILTRATE SAMPLE TEMPERATURE
RMC .OHMM              0.608 : RESISTIVITY MUD CAKE
MCST.F                    75 : MUD CAKE SAMPLE TEMPERATURE
MFSS.                   MEAS : MUD FILTRATE SAMPLE SOURCE
MCSS.                  CHART : MUD CAKE SAMPLE SOURCE
RMB .OHMM              0.172 : RESISTIVITY MUD AT BHT
TCS .HRS                 700 : TIME CURCULATED STOPPED
TLAB.HRS                1100 : TIME LOGGER AT BOTTOM
LUN .                   8091 : LOGGING UNIT NUMBER
LUL .                    C C : LOGGING UNIT LOCATION
ENGI.        WELLSRE MARKLEY : RECORDING ENGINEER
WITN.                   GRAY : WITNESSED BY
CLNT.                A2DTECH : CLIENT CODE
ORIG.               1" PRINT : ORIGIN OF DATA
UWI .         42507312420000 : UNIQUE WELL ID
DICO. A2D Technologies, Inc. : DIGITIZING COMPANY
~Other -----------------------------------------------------
~ASCII -----------------------------------------------------
# ...
 5550.00000   82.19840   13.25970    -999.25    -999.25    -999.25   16.36060  -38.88480
 5600.00000   35.69200   26.42660    -999.25    -999.25    -999.25   41.76700  -50.58480
 5650.00000   64.17370   17.12810    -999.25    -999.25    -999.25   17.08350  -62.60370
 5700.00000   10.24350   51.48830    -999.25    -999.25    -999.25  123.06590  -60.49430
 5750.00000   29.10910   34.86090    -999.25    -999.25    -999.25   58.57960  -62.06390
 5800.00000   23.37130   42.73610    -999.25    -999.25    -999.25  101.33700  -59.18900
 5850.00000   46.20620   22.98970    -999.25    -999.25    -999.25   28.82090  -59.32420
 5900.00000   23.34830   41.15980    -999.25    -999.25    -999.25   63.28120  -63.36170
 5950.00000   25.29180   37.07130    -999.25    -999.25    -999.25   90.82480  -61.72800
 6000.00000   26.02140   33.34120    -999.25    -999.25    -999.25   64.67950  -71.13150
 6050.00000   22.11160   40.49620    -999.25    -999.25    -999.25   88.44950  -70.06300
 6100.00000   19.84800   46.36750    -999.25    -999.25    -999.25   89.02200  -71.87720
 6150.00000   21.62190   68.18350    -999.25    -999.25    -999.25   94.66060  -70.70240
 6200.00000    6.32300   81.26420    -999.25    -999.25    -999.25  364.60680  -67.95270
 6250.00000  191.92610    4.30730    -999.25    -999.25    -999.25   12.25480  -64.50530
 6300.00000   14.36640   47.76080    -999.25    -999.25    -999.25  200.22740  -36.17590
 6350.00000   55.20430   16.04080    -999.25    -999.25    -999.25   19.90190   -7.44180
 6400.00000   12.89440   64.56380    -999.25    -999.25    -999.25  847.09530  -26.16180
 6450.00000    6.91990  106.62630    -999.25    -999.25    -999.25  856.18880  -45.20900
 6500.00000   35.99220   26.11700    -999.25    -999.25    -999.25  268.73850  -47.30160
 6550.00000   21.13170   34.41370    -999.25    -999.25    -999.25  437.10030  -50.99910
 6600.00000   16.05060   45.78930    -999.25    -999.25    -999.25  244.67410  -52.87560
 6650.00000   16.05060   60.06820    -999.25    -999.25    -999.25  435.65830  -44.28280
 6700.00000   27.51050   36.25660    -999.25    -999.25    -999.25  230.28950  -39.33600
 6750.00000   15.38180   70.65740    -999.25    -999.25    -999.25  158.34100  -35.10120
 6800.00000   11.95100   75.77090    -999.25    -999.25    -999.25  993.07520  -45.44640
 6850.00000   17.41250   55.37910    -999.25    -999.25    -999.25   98.62000  -26.15380
 6900.00000   26.87620   35.77350    -999.25    -999.25    -999.25   83.10720  -25.49400
 6950.00000   16.63420   59.47330    -999.25    -999.25    -999.25  167.90680  -36.44020
 7000.00000   25.48730   37.77700    -999.25    -999.25    -999.25   96.29790  -28.17220
 7050.00000   23.60730   39.71850    -999.25    -999.25    -999.25  234.31090  -25.91170
 7100.00000   17.01420   51.48830    -999.25    -999.25    -999.25  148.82860  -25.30670
 7150.00000   36.47860   34.71330    -999.25    -999.25    -999.25  113.28030  -21.18800
 7200.00000   15.71330   59.05430    -999.25    -999.25    -999.25  212.28760  -14.02310
 7250.00000   26.75100   42.67650    -999.25    -999.25    -999.25  189.47560  -24.80220
 7300.00000   19.45040   57.35300    -999.25    -999.25    -999.25  170.68680  -21.81360
 7350.00000   15.07780   76.26460    -999.25    -999.25    -999.25  235.98060  -21.25930
 7400.00000   18.96890   75.14530    -999.25    -999.25    -999.25  132.90240  -23.71460
 7450.00000   10.45720   90.83810    -999.25    -999.25    -999.25  337.37400  -27.12690
 7500.00000   21.68730   47.03220    -999.25    -999.25    -999.25  143.35650  -43.29160
 7550.00000   38.56310   23.34840    -999.25    -999.25    -999.25   46.19520  -45.93200
 7600.00000   13.11760   84.24070    -999.25    -999.25    -999.25  367.97200  -34.35290
 7650.00000   23.77190   38.51990    -999.25    -999.25    -999.25  662.63060  -30.84120
 7700.00000    9.62280  119.29590    -999.25    -999.25    -999.25  230.62680  -25.88240
 7750.00000    8.26850  109.68490    -999.25    -999.25    -999.25  488.96490  -27.09190
 7800.00000   13.13230   67.57270    -999.25    -999.25    -999.25  846.39110  -27.98600
 7850.00000   10.61930   92.52850    -999.25    -999.25    -999.25  398.74120  -30.23380
 7900.00000   57.69320   17.17090    -999.25    -999.25    -999.25   36.35550  -40.30590
 7950.00000    8.51170   98.44060    -999.25    -999.25    -999.25  276.52040  -15.81490
 8000.00000    7.21110  130.36910    -999.25    -999.25    -999.25  345.54540  -18.68080
 8050.00000    9.21640  102.33380    -999.25    -999.25    -999.25  679.70790  -37.50980
 8100.00000   14.86170  134.62930    -999.25    -999.25    -999.25    -999.25  -58.60410
 8150.00000    7.29570  216.38940    -999.25    -999.25    -999.25    -999.25  -61.04860
 8200.00000    0.00000 1000.46410    -999.25    -999.25    -999.25    -999.25  -61.26900
 8250.00000    7.05250  127.74130    -999.25    -999.25    -999.25 1001.59470  -58.21820
 8300.00000    5.24990  130.00550    -999.25    -999.25    -999.25  241.54950  -42.68360
 8350.00000    6.43980   93.63430    -999.25    -999.25    -999.25  156.24490  -32.79720
 8400.00000   14.32120   67.08110    -999.25    -999.25    -999.25  998.04940  -41.40800
 8450.00000   14.60470   86.51780    -999.25    -999.25    -999.25  330.72080  -20.96400
 8500.00000   20.85700   51.11290    -999.25    -999.25    -999.25   71.44330    -999.25
 8550.00000    -999.25   46.81080   61.65430    -999.25   95.63290    -999.25 -124.40820
 8600.00000    -999.25   44.86430   62.71720    -999.25   35.76760    -999.25 -130.74630
 8650.00000    -999.25   73.06430   27.52040   22.02890   48.45240    -999.25 -122.25350
 8700.00000    -999.25   35.56000   29.71920   18.85310   52.69280    -999.25 -139.78240
 8750.00000    -999.25   81.29430   61.52750   43.86450  112.44100    -999.25 -140.61430
 8800.00000    -999.25  261.06490   72.77260   24.36560  169.08250    -999.25 -177.53500
 8850.00000    -999.25  332.46500  107.31230   24.76350  243.46360    -999.25 -185.33810
 8900.00000    -999.25  265.15760   76.74770   28.31250  165.31490    -999.25 -118.21590
 8950.00000    -999.25  170.57230  101.85370   30.07170  439.13390    -999.25  -78.43740
 9000.00000    -999.25   27.81190   22.64180   40.36930   36.14910    -999.25  -60.38810
 9050.00000    -999.25  115.10460   31.02000   23.89200  144.68950    -999.25  -71.17430
 9100.00000    -999.25   47.70690   32.09630   32.42840   30.36050    -999.25  -74.36960
 9150.00000    -999.25   16.28820   15.20310   39.96460   34.61980    -999.25  -59.12580
 9200.00000  173.77260    5.75490    -999.25   40.76530    9.39860    6.05320  -11.15710
 9250.00000  117.52440    8.50940    -999.25   33.91090    -999.25   13.86250  -22.89670
 9300.00000   99.59840   10.03910    -999.25   52.32840    -999.25   14.13040  -24.12170
 9350.00000   59.68250   16.74920    -999.25   35.45060    -999.25   34.10080  -20.75000
 9400.00000   26.70110   37.46790    -999.25   42.06230    -999.25   78.00420  -51.91110
 9450.00000  186.60750    6.60000    -999.25   57.41990    -999.25    7.05490  -75.65980
 9500.00000   64.78090   15.43740    -999.25   45.63640    -999.25   21.04190  -69.41280
 9550.00000  171.68710    5.82470    -999.25   51.27360    -999.25    8.34180  -88.90800
 9600.00000   17.02380   54.44160    -999.25   37.51240    -999.25  148.18960  -84.04220
 9650.00000   35.37490   28.26510    -999.25   50.58130    -999.25   34.20410  -80.52420
 9700.00000  101.19750    9.93550    -999.25   60.10380    -999.25   15.81830  -27.29290
 9750.00000   93.77190   10.66470    -999.25   55.62620    -999.25   15.03190  -14.06820
 9800.00000  163.10220    6.29930    -999.25   78.49030    -999.25    8.03450  -42.75780
 9850.00000   17.46050   36.84750    -999.25   41.65890    -999.25   40.44540  -46.61960
 9900.00000    7.05030  141.75020    -999.25   28.63560    -999.25  530.25430  -69.05460
 9950.00000    2.61060  210.41280    -999.25   16.87710    -999.25  167.65430  -71.82230
 10000.00000    6.07040  193.68380    -999.25   13.77000    -999.25  694.77790  -88.21600
