~Version ---------------------------------------------------
VERS. 2.0 : CWLS log ASCII Standard -VERSION 2.0
WRAP.  NO : One line per depth step
~Well ------------------------------------------------------
STRT.FT                          300.0 : START DEPTH
STOP.FT                        14400.0 : STOP DEPTH
STEP.FT                       50.00000 : STEP LENGTH
NULL.                          -999.25 : NULL VALUE
COMP.    AMERADA PETROLEUM CORPORATION : COMPANY
WELL.                MABEL GRIMES B #1 : WELL
FLD .               LOWE RANCH EDWARDS : FIELD
LOC .                                  : LOCATION
CNTY.                        MC MULLEN : COUNTY
STAT.                            TEXAS : STATE
CTRY.         UNITED STATES OF AMERICA : COUNTRY
SRVC. Schlumberger Well Surveying Corp : SERVICE COMPANY
DATE.                      20-Feb-1958 : LOGDATE
API .                   42311013640000 : API NUMBER
UWI .                   42311013640000 : UNIQUE WELL ID
SLAT.WGS84               28.3207374348 : SURFACE LATITUDE
SLON.WGS84              -98.6948976176 : SURFACE LONGITUDE
~Curve Information -----------------------------------------
DEPT  .FT    : DEPTH
ASNED .OHMM  : AMPLIFIED SHORT NORMAL 16 IN.
CALMED.IN    : CALIPER FROM MICRO LOG (ADJ TO RES.)
CALWS .IN    : CALIPER (CALMED)
CILDED.MMHO  : CONDUCTIVITY FROM LOG
CONDWS.MMHO  : CONDUCTIVITY (1000/DRESws)
DRESWS.OHMM  : DEEP RESISTIVITY (LNED/ILDED @ 5122) (IF DRESws<1, THEN 1000/CILDED)
GRNED .CU    : GAMMA RAY FROM NEUTRON LOG (ADJ TO RES.)
GRWS  .CU    : GAMMA RAY (GRNED)
ILDED .OHMM  : DEEP INDUCTION RESISTIVITY
LNED  .OHMM  : LONG NORMAL 64 IN.
LT18ED.OHMM  : LATERAL
NEUTED.CU    : NEUTRON FROM GAMMA RAY NEUTRON LOG (ADJ TO RES.)
NEUTWS.CU    : NEUTRON FROM GAMMA RAY NEUTRON LOG (NEUTED)
SPWS  .MV    : SPONTANEOUS POTENTIAL BASELINE 0 MV (SPRED)
SPRED .MV    : SPONTANEOUS POTENTIAL FROM RESISTIVITY
SRESWS.OHMM  : SHALLOW RESISTIVITY (ASNED)
~Params ----------------------------------------------------
PD  .                     GL : PERMANENT DATUM
LMF .                     KB : LOG MEASURED FROM
DAPD.F                 16.05 : FEET ABOVE PERMANENT DATUM
DMF .                     KB : DRILLING MEASURED FROM
EDF .F                   323 : DRILLING FLOOR
DATE.               02/20/58 : RUN DATE
RUN .                      3 : RUN NUMBER
DD  .F                 14409 : DEPTH DRILLER
DL  .F                 14411 : DEPTH LOGGER
BLI .F                 14405 : BOTTOM LOG INTERVAL
TLI .F                 13725 : TOP LOG INTERVAL
CBD .F                 13725 : CASING BOTTOM DRILLER
CBL .F                 13725 : CASING BOTTOM LOGGER
BS  .IN                 8.75 : BIT SIZE
BSD .F                 14409 : BIT SIZE AT DEPTH
DFT .               OIL EMUL : DRILLING FLUID TYPE
DFD .                   12.4 : DRILLING FLUID DENSITY
DFV .                     46 : DRILLING FLUID VISCOSITY
DFPH.                     12 : DRILLING FLUID PH
DFL .                    6.5 : DRILLING FLUID LOSS
MSS .                MUD PIT : MUD SAMPLE SOURCE
RMS .OHMM               0.82 : RESISTIVITY MUD SAMPLE
MST .F                    78 : MUD SAMPLE TEMPERATURE
RMF .OHMM               0.16 : RESISTIVITY MUD FILTRATE SAMPLE
MFST.F                   310 : MUD FILTRATE SAMPLE TEMPERATURE
RMC .OHMM               0.31 : RESISTIVITY MUD CAKE
MCST.F                   310 : MUD CAKE SAMPLE TEMPERATURE
RMB .OHMM               0.21 : RESISTIVITY MUD AT BHT
TCS .HRS                   2 : TIME CURCULATED STOPPED
LUL .                    VIC : LOGGING UNIT LOCATION
ENGI.                WHITNEY : RECORDING ENGINEER
WITN.                 GOLSON : WITNESSED BY
CLNT.                A2DTECH : CLIENT CODE
ORIG.               2" PRINT : ORIGIN OF DATA
UWI .         42311013640000 : UNIQUE WELL ID
DICO. A2D Technologies, Inc. : DIGITIZING COMPANY
~Other -----------------------------------------------------
~ASCII -----------------------------------------------------
# ...
 13200.00000   47.70820    -999.25    -999.25   15.40730   10.29360   97.14790    1.33940    1.33940   97.14790    -999.25    -999.25  207.56670  207.56670  -15.65700  -35.48510   47.70820
 13250.00000   29.37940    -999.25    -999.25   47.07450    4.29850  232.64010    1.88870    1.88870  232.64010    -999.25    -999.25  185.30050  185.30050   -9.95320  -30.02070   29.37940
 13300.00000   41.27690    -999.25    -999.25   19.40240    2.07130  482.79350    1.51710    1.51710  482.79350    -999.25    -999.25  209.56420  209.56420  -17.95560  -38.26260   41.27690
 13350.00000   60.18680    -999.25    -999.25   11.25890   10.09970   99.01320    1.15460    1.15460   99.01320    -999.25    -999.25  270.14540  270.14540  -20.71670  -41.26310   60.18680
 13400.00000   56.30290    -999.25    -999.25   12.50000   11.38920   87.80240    1.20140    1.20140   87.80240    -999.25    -999.25  259.92810  259.92810  -16.62500  -37.41080   56.30290
 13450.00000   63.07830    -999.25    -999.25    6.78190    2.89920  344.91980    1.38830    1.38830  344.91980    -999.25    -999.25  250.57630  250.57630  -31.39610  -52.42140   63.07830
 13500.00000   45.11980    -999.25    -999.25    7.81960    8.07340  123.86430    1.20130    1.20130  123.86430    -999.25    -999.25  269.13670  269.13670  -11.43940  -32.70410   45.11980
 13550.00000   53.02020    -999.25    -999.25    7.44680    6.87530  145.44890    1.23520    1.23520  145.44890    -999.25    -999.25  278.20250  278.20250  -15.26140  -34.71570   53.02020
 13600.00000   47.95370    -999.25    -999.25   11.17020   11.46320   87.23580    1.40630    1.40630   87.23580    -999.25    -999.25  248.50080  248.50080  -29.65330  -46.68490   47.95370
 13650.00000   69.76870    -999.25    -999.25    4.60980    1.44560  691.74950    1.27150    1.27150  691.74950    -999.25    -999.25  238.15120  238.15120  -65.07740  -79.68630   69.76870
 13700.00000   61.31730    -999.25    -999.25    3.19150    1.31690  759.33370    1.15490    1.15490  759.33370    -999.25    -999.25  266.25900  266.25900  -36.37610  -48.56230   61.31730
 13750.00000   17.20320    9.82680    9.82680   61.03720   74.31020   13.45710    3.81140    3.81140   13.45710    -999.25    -999.25  173.28860  173.28860  -14.51010  -25.89560   17.20320
 13800.00000   21.12800    9.04230    9.04230   99.02450   99.39570   10.06080    3.64810    3.64810   10.06080    -999.25    -999.25  205.83810  205.83810  -16.13330  -29.47990   21.12800
 13850.00000   26.04540    7.74850    7.74850   82.22490   84.36110   11.85380    3.57340    3.57340   11.85380    -999.25    -999.25  216.95320  216.95320  -11.30370  -26.61130   26.04540
 13900.00000   49.19320    7.87050    7.87050   24.73400   25.67510   38.94820    2.77790    2.77790   38.94820    -999.25    -999.25  242.18490  242.18490  -14.71840  -31.98710   49.19320
 13950.00000   20.01780   10.78470   10.78470   56.47390   65.61420   15.24060    4.25980    4.25980   15.24060    -999.25    -999.25  170.78850  170.78850  -11.86370  -31.09350   20.01780
 14000.00000   39.46270    7.11160    7.11160   35.85410   41.22960   24.25440    2.75080    2.75080   24.25440    -999.25    -999.25  254.15470  254.15470   -8.82740  -30.01820   39.46270
 14050.00000   27.31320    6.86750    6.86750   78.05850   62.68140   15.95370    2.68050    2.68050   15.95370    -999.25    -999.25  220.35670  220.35670   -8.92760  -32.07950   27.31320
 14100.00000  116.54800    6.35240    6.35240    5.91880    6.80060  147.04580    1.88510    1.88510  147.04580    -999.25    -999.25  346.83110  346.83110  -12.86010  -44.71290  116.54800
 14150.00000  103.75890    6.35240    6.35240    3.05850    3.47370  287.87880    1.73110    1.73110  287.87880    -999.25    -999.25  365.41910  365.41910  -16.67600  -61.02090  103.75890
 14200.00000  122.92040    6.29600    6.29600    1.15310    2.48600  402.25880    2.17100    2.17100  402.25880    -999.25    -999.25  360.00400  360.00400   -6.52340  -62.81080  122.92040
 14250.00000  127.97340    6.16270    6.16270    0.22220    1.79520  557.04100    1.43890    1.43890  557.04100    -999.25    -999.25  383.45270  383.45270  -24.37660  -86.28730  127.97340
 14300.00000   25.17790    6.00000    6.00000   83.96350    8.43610  118.53830    2.12550    2.12550  118.53830    -999.25    -999.25  344.52380  344.52380  -20.35200  -87.88600   25.17790
 14350.00000   74.02130    5.87810    5.87810    8.37780    8.97600  111.40820    1.87160    1.87160  111.40820    -999.25    -999.25  370.07200  370.07200  -21.06740  -94.22460   74.02130
 14400.00000  123.66550    5.81020    5.81020    4.52620   26.73300   37.40690    1.84440    1.84440   37.40690    -999.25    -999.25  388.21630  388.21630  -18.29890  -92.91820  123.66550
