~Version ---------------------------------------------------
VERS.      2.0 : CWLS log ASCII Standard -VERSION 2.0
WRAP.      YES : Multiple lines per depth step
CREA. 01/09/13 : LAS Creation Date
~Well ------------------------------------------------------
STRT.FT                    1500.0 : START DEPTH
STOP.FT                    9700.0 : STOP DEPTH
STEP.FT                  50.00000 : STEP LENGTH
NULL.                     -999.25 : NULL VALUE
COMP.        MARATHON OIL COMPANY : COMPANY
WELL.                 NEWELL A #4 : WELL
FLD .                  BEAR GRASS : FIELD
LOC .                             : LOCATION
CNTY.                        LEON : COUNTY
STAT.                       TEXAS : STATE
CTRY.    UNITED STATES OF AMERICA : COUNTRY
SRVC. HALLIBURTON Sperry Drilling : SERVICE COMPANY
DATE.                 24-Apr-2000 : LOGDATE
API .              42289313210000 : API NUMBER
UWI .              42289313210000 : UNIQUE WELL ID
SLAT.WGS84          31.3590171152 : SURFACE LATITUDE
SLON.WGS84         -96.2605957839 : SURFACE LONGITUDE
~Curve Information -----------------------------------------
DEPT    .FT    : DEPTH FEET
CALDED  .IN    : CALIPER FROM HRI-DFL-SD-DSN-GR LOG
CALWS   .IN    : CALIPER [CALDED]
CONDWS  .MMHO  : CONDUCTIVITY [1000/DRESWS]
DCALED  .IN    : DIFFERENTIAL CALIPER FROM HRI-DFL-SD-DSN-GR LOG
DCORED  .G/C3  : DENSITY CORRECTION FROM HRI-DFL-SD-DSN-GR LOG
DCORWS  .G/C3  : DENSITY CORRECTION [DCORED]
DENWS   .G/C3  : FORMATION BULK DENSITY [CALCULATED FROM DPOWS, M=2.71, F=1.0]
DFLED   .OHMM  : DIGITALLY FOCUSED LATEROLOG FROM HRI-DFL-SD-DSN-GR LOG
DPORLSED.V/V   : DENSITY POROSITY LIMESTONE [M=2.71, F=1.0] FROM HRI-DFL-SD-DSN-GR LOG
DPOWS   .V/V   : DENSITY POROSITY LIMESTONE [DPORLSED]
DRESWS  .OHMM  : DEEP RESISTIVITY [HDRSED]
GRRED   .GAPI  : GAMMA RAY FROM HRI-DFL-SD-DSN-GR LOG
GRWS    .GAPI  : GAMMA RAY [GRRED]
HDRSED  .OHMM  : DEEP HIGH RESOLUTION RESISTIVITY FROM HRI-DFL-SD-DSN-GR LOG
HMRSED  .OHMM  : MEDIUM HIGH RESOLUTION RESISTIVITY FROM HRI-DFL-SD-DSN-GR LOG
MRESWS  .OHMM  : MEDIUM RESISTIVITY [HMRSEDS]
NPORLSED.V/V   : NEUTRON POROSITY LIMESTONE FROM HRI-DFL-SD-DSN-GR LOG
NPOWS   .V/V   : NEUTRON POROSITY LIMESTONE [NPORSLSED]
SPRED   .MV    : SPONTANEOUS POTENTIAL FROM HRI-DFL-SD-DSN-GR LOG
SPWS    .MV    : SPONTANEOUS POTENTIAL [BASELINE 0 MV, SPRED]
SRESWS  .OHMM  : SHALLOW RESISTIVITY [DLFED]
TENRED  .LBF   : TENSION FROM HRI-DFL-SD-DSN-GR LOG
~Params ----------------------------------------------------
PD  .                     GL : PERMANENT DATUM
EPD .FT                  508 : ELEVATION PERMANENT DATUM
LMF .                     KB : LOG MEASURED FROM
DAPD.FT                   12 : FEET ABOVE PERMANENT DATUM
DMF .                     KB : DRILLING MEASURED FROM
EKB .FT                  520 : KELLY BUSHING
EDF .FT                  519 : DRILLING FLOOR
EGL .FT                  508 : GROUND LEVEL
DATE.               04/24/00 : RUN DATE
RUN .                      1 : RUN NUMBER
DD  .FT                 9709 : DEPTH DRILLER
DL  .FT                 9701 : DEPTH LOGGER
BLI .FT                 9693 : BOTTOM LOG INTERVAL
TLI .FT                 1523 : TOP LOG INTERVAL
CS  .IN                9.625 : CASING SIZE
CBD .FT                 1525 : CASING BOTTOM DRILLER
CBL .FT                 1523 : CASING BOTTOM LOGGER
BS  .IN                7.875 : BIT SIZE
BSD .FT                 9709 : BIT SIZE AT DEPTH
DFT .              FRESH MUD : DRILLING FLUID TYPE
DFD .                   10.1 : DRILLING FLUID DENSITY
DFV .                     39 : DRILLING FLUID VISCOSITY
DFPH.                    9.6 : DRILLING FLUID PH
DFL .                     15 : DRILLING FLUID LOSS
MSS .               MUD TANK : MUD SAMPLE SOURCE
RMS .OHMM                0.7 : RESISTIVITY MUD SAMPLE
MST .FT                   80 : MUD SAMPLE TEMPERATURE
RMF .OHMM               0.53 : RESISTIVITY MUD FILTRATE SAMPLE
MFST.FT                   79 : MUD FILTRATE SAMPLE TEMPERATURE
RMC .OHMM               0.87 : RESISTIVITY MUD CAKE
MCST.FT                   80 : MUD CAKE SAMPLE TEMPERATURE
MFSS.                   MEAS : MUD FILTRATE SAMPLE SOURCE
MCSS.                   MEAS : MUD CAKE SAMPLE SOURCE
RMB .OHMM              0.257 : RESISTIVITY MUD AT BHT
TCS .HRS                1300 : TIME CURCULATED STOPPED
TLAB.HRS                1245 : TIME LOGGER AT BOTTOM
LUN .                  52562 : LOGGING UNIT NUMBER
LUL .                 KILGOR : LOGGING UNIT LOCATION
ENGI.               J BUTLER : RECORDING ENGINEER
WITN.           PERRY FRANKS : WITNESSED BY
CLNT.                A2DTECH : CLIENT CODE
ORIG.         1" 2" 5" PRINT : ORIGIN OF DATA
UWI .         42289313210000 : UNIQUE WELL ID
DICO. A2D Technologies, Inc. : DIGITIZING COMPANY
~Other -----------------------------------------------------
~ASCII -----------------------------------------------------
 1500.00000    -999.25    -999.25    -999.25    -999.25    -999.25    -999.25    -999.25    -999.25    -999.25    -999.25    -999.25   67.46940   67.46940    -999.25    -999.25    -999.25    -999.25    -999.25    -999.25    -999.25    -999.25    -999.25
 1550.00000    -999.25    -999.25  258.75230    -999.25    -999.25    -999.25    -999.25    3.86550    -999.25    -999.25    3.86470   86.86170   86.86170    3.86470    3.74850    3.74850    -999.25    -999.25  -79.03400  -14.90910    3.86550 1422.96570
 1600.00000    -999.25    -999.25  329.53270    -999.25    -999.25    -999.25    -999.25    3.18650    -999.25    -999.25    3.03460   86.65350   86.65350    3.03460    2.75660    2.75660    -999.25    -999.25  -79.89940  -15.77450    3.18650 1457.12500
 1650.00000    -999.25    -999.25  426.43920    -999.25    -999.25    -999.25    -999.25    2.16860    -999.25    -999.25    2.34500   98.53030   98.53030    2.34500    2.13730    2.13730    -999.25    -999.25  -66.34110   -2.21620    2.16860 1474.51940
 1700.00000    -999.25    -999.25  487.18700    -999.25    -999.25    -999.25    -999.25    2.03150    -999.25    -999.25    2.05260   96.31480   96.31480    2.05260    1.88290    1.88290    -999.25    -999.25  -65.56840   -1.44350    2.03150 1483.51270
 1750.00000    -999.25    -999.25  409.68500    -999.25    -999.25    -999.25    -999.25    2.08760    -999.25    -999.25    2.44090   94.82990   94.82990    2.44090    2.21380    2.21380    -999.25    -999.25  -66.94810   -2.42750    2.08760 1493.37630
 1800.00000    -999.25    -999.25  499.37580    -999.25    -999.25    -999.25    -999.25    1.85210    -999.25    -999.25    2.00250  100.51490  100.51490    2.00250    1.75660    1.75660    -999.25    -999.25  -68.89940   -3.92400    1.85210 1484.85530
 1850.00000    -999.25    -999.25  605.03390    -999.25    -999.25    -999.25    -999.25    1.57090    -999.25    -999.25    1.65280  103.84210  103.84210    1.65280    1.46370    1.46370    -999.25    -999.25  -68.01900   -2.58880    1.57090 1523.37280
 1900.00000    -999.25    -999.25  535.01690    -999.25    -999.25    -999.25    -999.25    1.77010    -999.25    -999.25    1.86910  107.23900  107.23900    1.86910    1.69020    1.69020    -999.25    -999.25  -67.57030   -1.68530    1.77010 1566.76900
 1950.00000    -999.25    -999.25  613.42170    -999.25    -999.25    -999.25    -999.25    1.55150    -999.25    -999.25    1.63020  110.96940  110.96940    1.63020    1.48460    1.48460    -999.25    -999.25  -67.20930   -0.86950    1.55150 1593.50900
 2000.00000    -999.25    -999.25  382.16070    -999.25    -999.25    -999.25    -999.25    2.35070    -999.25    -999.25    2.61670  118.69810  118.69810    2.61670    2.38930    2.38930    -999.25    -999.25  -69.81510   -3.02050    2.35070 1569.85250
 2050.00000    -999.25    -999.25  487.35320    -999.25    -999.25    -999.25    -999.25    1.88780    -999.25    -999.25    2.05190  115.05070  115.05070    2.05190    2.04500    2.04500    -999.25    -999.25  -70.28300   -3.03360    1.88780 1622.71610
 2100.00000    -999.25    -999.25  529.35260    -999.25    -999.25    -999.25    -999.25    1.76630    -999.25    -999.25    1.88910  115.45520  115.45520    1.88910    1.75330    1.75330    -999.25    -999.25  -69.74340   -2.03910    1.76630 1655.91000
 2150.00000    -999.25    -999.25  452.61160    -999.25    -999.25    -999.25    -999.25    2.03640    -999.25    -999.25    2.20940  109.67130  109.67130    2.20940    1.99820    1.99820    -999.25    -999.25  -74.30620   -6.14710    2.03640 1656.64770
 2200.00000    -999.25    -999.25  543.92170    -999.25    -999.25    -999.25    -999.25    1.80780    -999.25    -999.25    1.83850  115.70540  115.70540    1.83850    1.64550    1.64550    -999.25    -999.25  -72.72190   -4.10800    1.80780 1656.24380
 2250.00000    -999.25    -999.25  610.35160    -999.25    -999.25    -999.25    -999.25    1.45530    -999.25    -999.25    1.63840   92.35570   92.35570    1.63840    1.55590    1.55590    -999.25    -999.25  -70.72750   -0.99760    1.45530 1731.38670
 2300.00000    -999.25    -999.25  792.07920    -999.25    -999.25    -999.25    -999.25    1.18620    -999.25    -999.25    1.26250  106.19540  106.19540    1.26250    1.14910    1.14910    -999.25    -999.25  -74.34320   -2.15500    1.18620 1663.46460
 2350.00000    -999.25    -999.25  616.59880    -999.25    -999.25    -999.25    -999.25    1.52240    -999.25    -999.25    1.62180  104.41640  104.41640    1.62180    1.52110    1.52110    -999.25    -999.25  -78.79000   -4.14350    1.52240 1728.65220
 2400.00000    -999.25    -999.25  823.51970    -999.25    -999.25    -999.25    -999.25    1.29620    -999.25    -999.25    1.21430   95.94240   95.94240    1.21430    1.11480    1.11480    -999.25    -999.25  -82.06560   -4.96070    1.29620 1745.54140
 2450.00000    -999.25    -999.25  664.93780    -999.25    -999.25    -999.25    -999.25    1.52380    -999.25    -999.25    1.50390   94.81010   94.81010    1.50390    1.38890    1.38890    -999.25    -999.25  -91.23550   -7.88720    1.52380 1774.96530
 2500.00000    -999.25    -999.25  880.59180    -999.25    -999.25    -999.25    -999.25    1.14900    -999.25    -999.25    1.13560   99.20630   99.20630    1.13560    1.04810    1.04810    -999.25    -999.25 -118.34600  -27.92340    1.14900 1800.92190
 2550.00000    -999.25    -999.25  531.77350    -999.25    -999.25    -999.25    -999.25    1.96800    -999.25    -999.25    1.88050   86.97980   86.97980    1.88050    1.73940    1.73940    -999.25    -999.25 -121.18080  -23.68400    1.96800 2030.72500
 2600.00000    -999.25    -999.25  379.17570    -999.25    -999.25    -999.25    -999.25    2.66650    -999.25    -999.25    2.63730   68.15790   68.15790    2.63730    2.55620    2.55620    -999.25    -999.25 -121.95930  -17.38820    2.66650 1862.36250
 2650.00000    -999.25    -999.25  944.46540    -999.25    -999.25    -999.25    -999.25    0.96520    -999.25    -999.25    1.05880   88.93880   88.93880    1.05880    1.02170    1.02170    -999.25    -999.25 -122.81610  -11.17070    0.96520 1887.37940
 2700.00000    -999.25    -999.25  632.67110    -999.25    -999.25    -999.25    -999.25    1.44690    -999.25    -999.25    1.58060   82.79580   82.79580    1.58060    1.50660    1.50660    -999.25    -999.25 -117.25820   -3.35450    1.44690 1877.65270
 2750.00000    -999.25    -999.25  837.17040    -999.25    -999.25    -999.25    -999.25    1.12540    -999.25    -999.25    1.19450   92.61570   92.61570    1.19450    1.14420    1.14420    -999.25    -999.25 -116.61170   -2.82170    1.12540 1926.13050
 2800.00000    -999.25    -999.25  828.84380    -999.25    -999.25    -999.25    -999.25    1.17040    -999.25    -999.25    1.20650   95.50500   95.50500    1.20650    1.18380    1.18380    -999.25    -999.25 -116.16680   -2.49060    1.17040 1915.47390
 2850.00000    -999.25    -999.25  534.21660    -999.25    -999.25    -999.25    -999.25    1.80840    -999.25    -999.25    1.87190   98.66650   98.66650    1.87190    1.73590    1.73590    -999.25    -999.25 -118.81220   -5.24970    1.80840 1912.81210
 2900.00000    -999.25    -999.25  671.59170    -999.25    -999.25    -999.25    -999.25    1.58460    -999.25    -999.25    1.48900  112.17410  112.17410    1.48900    1.46590    1.46590    -999.25    -999.25 -115.51330   -2.06450    1.58460 1959.74430
 2950.00000    -999.25    -999.25  921.82890    -999.25    -999.25    -999.25    -999.25    0.91790    -999.25    -999.25    1.08480  104.71700  104.71700    1.08480    0.95430    0.95430    -999.25    -999.25 -114.74370   -1.40870    0.91790 1977.04270
 3000.00000    -999.25    -999.25  853.31510    -999.25    -999.25    -999.25    -999.25    1.17420    -999.25    -999.25    1.17190  113.96160  113.96160    1.17190    1.18900    1.18900    -999.25    -999.25 -114.83420   -1.61290    1.17420 2022.59800
 3050.00000    -999.25    -999.25  837.59110    -999.25    -999.25    -999.25    -999.25    1.17650    -999.25    -999.25    1.19390  117.94810  117.94810    1.19390    1.14370    1.14370    -999.25    -999.25 -115.88200   -2.77440    1.17650 2031.97860
