~Version ---------------------------------------------------
VERS. 2.0 : CWLS log ASCII Standard -VERSION 2.0
WRAP. YES : MULTIPLE LINES PER DEPTH STEP
~Well ------------------------------------------------------
STRT.FT                   3650.0 : START DEPTH
STOP.FT                   9600.0 : STOP DEPTH
STEP.FT                 50.00000 : STEP LENGTH
NULL.                    -999.25 : NULL VALUE
COMP. LADD PETROLEUM CORPORATION : COMPANY
WELL.                   KELLY #1 : WELL
FLD .              ALABAMA FERRY : FIELD
LOC .                            : LOCATION
CNTY.                       LEON : COUNTY
STAT.                      TEXAS : STATE
CTRY.   UNITED STATES OF AMERICA : COUNTRY
SRVC.                            : SERVICE COMPANY
DATE.                            : LOGDATE
API .             42289308110000 : API NUMBER
UWI .             42289308110000 : UNIQUE WELL ID
SLAT.WGS84         31.2591611688 : SURFACE LATITUDE
SLON.WGS84        -95.8375326441 : SURFACE LONGITUDE
~Curve Information -----------------------------------------
DEPT  .FT    : DEPTH
CILDED.MMHO  : CONDUCTIVITY
RILDED.OHMM  : DEEP INDUCTION RESISTIVITY
RILMED.OHMM  : INDUCTION LOG MEDIUM RESISTIVITY
RFOCED.OHMM  : FOCUSED RESISTIVITY
GRRED .GAPI  : GAMMA RAY FROM RESISTIVITY LOG
CORRED.G/C3  : DENSITY CORRECTION
PORDED.V/V   : DENSITY POROSITY SANDSTONE (M=2.71 F=1) FILLED OFFSCALE VALUES @.3 WHERE NULL
CALDED.IN    : CALIPER FROM DENSITY LOG
NPHIED.V/V   : NEUTRON POROSITY LIMESTONE
RNMLED.OHMM  : MICRONORMAL RESISTIVITY
RLMLED.OHMM  : MICROINVERSE RESISTIVITY
SPED  .MV    : SPONTANEOUS POTENTIAL [BASELINE -10 MV]
DPOWS .V/V   : DENSITY POROSITY [M=2.71, F=1.0]
DENWS .G/C3  : BULK DENSITY [FROM DPOWS M=2.71, F=1.0]
CALWS .IN    : CALIPER
DRESWS.OHMM  : DEEP RESISTIVITY
GRWS  .GAPI  : GAMMA RAY
NPOWS .V/V   : NEUTRON POROSITY LIMESTONE
SPWS  .MV    : SPONTANEOUS POTENTIAL [BASELINE -10 MV]
CONDWS.MMHO  : CONDUCTIVITY FROM DEEP RESISTIVITY
DCORWS.G/C3  : DENSITY CORRECTION
MRESWS.OHMM  : MEDIUM RESISTIVITY
SRESWS.OHMM  : SHALLOW RESISTIVITY
~Params ----------------------------------------------------
EKB .F                 294.0 : KELLY BUSHING
EGL .F                   277 : ELEVATION GROUND LEVEL
EDF .F                   293 : ELEVATION DERRICK FLOOR
EPD .F                   277 : ELEVATION PERMANENT DATUM
TD  .F                9600.0 : TOTAL DEPTH
DATE.            04-MAR-1987 : DATE LOGGED
CLNT.                A2DTECH : CLIENT CODE
SL  .  2797' FNL & 6000' FEL : SURFACE LOCATION
PD  .                     GL : PERMANENT DATUM
LMF .                     KB : LOG MEASURED FROM
DMF .                     KB : DRILLING MEASURED FROM
DAPD.F                    17 : FEET ABOVE PERMANENT DATUM
DD  .F                  9600 : DEPTH DRILLER
DL  .F                  9606 : DEPTH LOGGER
BLI .F                  9624 : BOTTOM LOG INTERVAL
TLI .F                  3611 : TOP LOG INTERVAL
CS1 .IN                8.625 : CASING SIZE
CBD1.         8.625" @ 3595' : CASING DRILLER 1
CBL1.F                  3611 : CASING LOGGER 1
BS1 .IN                7.875 : BIT SIZE
BSD1.F                  9600 : DEPTH DRILLED WITH BIT1
DFT .               GEL CHEM : TYPE FLUID IN HOLE
DFD .                   10.3 : DENSITY
DFV .                     50 : VISCOSITY
DFPH.                     10 : PH
DFL .                    9.6 : FLUID LOSS
MSS .                MUD PIT : SOURCE OF SAMPLE
RMS .OHMM               3.43 : RM
RMF .OHMM               2.57 : RMF
RMC .OHMM               4.29 : RMC
MFSS.                   CALC : SOURCE RMF.
MCSS.                   CALC : SOURCE RMC.
RMB .OHMM                1.6 : RM. AT BHT
BHT .F                   204 : BHT.
TCS .HRS                 4.5 : TIME CIRC. STOPPED
LUN .                HL-6380 : LOGGING UNIT NUMBER
LUL .              TYLER, TX : LOGGING UNIT LOCATION
ENGI.                 HANKLA : RECORDED BY
WITN.                  GROVE : WITNESSED BY
ORIG.          5" & 1" PRINT : ORIGIN OF DATA
UWI .         42289308110000 : UNIQUE WELL ID
DICO. A2D TECHNOLOGIES, INC. : DIGITIZING COMPANY
~Other -----------------------------------------------------
~ASCII -----------------------------------------------------
# ...
 6750.00000  764.41530    1.20980    1.28720    1.99280   81.98760    0.08990    0.13570   11.87230    0.27620    1.37200    1.22520  -14.03450    0.13570    2.47800   11.87230    1.20980   81.98760    0.27620  -14.03450  764.41530    0.08990    1.28720    1.99280
 6800.00000  905.48780    1.10360    1.10070    1.76820   79.78230    0.10850    0.15210   14.39870    0.25650    1.12800    0.86760  -14.23370    0.15210    2.44990   14.39870    1.10360   79.78230    0.25650  -14.23370  905.48780    0.10850    1.10070    1.76820
 6850.00000  823.35880    1.23630    1.22610    1.95730   78.38520    0.10080    0.09720   13.85720    0.25540    1.55490    1.35460  -18.64790    0.09720    2.54380   13.85720    1.23630   78.38520    0.25540  -18.64790  823.35880    0.10080    1.22610    1.95730
 6900.00000  429.36990    2.23500    2.31790    2.63840   82.58160    0.09610    0.08410   13.19550    0.21730    1.94820    1.20610  -11.31360    0.08410    2.56620   13.19550    2.23500   82.58160    0.21730  -11.31360  429.36990    0.09610    2.31790    2.63840
 6950.00000  306.65400    3.41530    3.53110    3.76730   72.20170    0.17830    0.07040   12.42860    0.19160    3.19130    3.02550  -11.51180    0.07040    2.58960   12.42860    3.41530   72.20170    0.19160  -11.51180  306.65400    0.17830    3.53110    3.76730
 7000.00000  422.76430    2.56450    2.97100    3.20420   71.15190    0.14260    0.09780   11.94730    0.20790    3.18110    2.83970  -11.41170    0.09780    2.54280   11.94730    2.56450   71.15190    0.20790  -11.41170  422.76430    0.14260    2.97100    3.20420
 7050.00000  208.07680    4.03830    4.52600    6.53280   66.83510    0.11470    0.05700   11.12030    0.17640    5.28160    4.76340  -16.88740    0.05700    2.61250   11.12030    4.03830   66.83510    0.17640  -16.88740  208.07680    0.11470    4.52600    6.53280
 7100.00000  419.23460    2.11110    2.42020    2.69600   70.91760    0.20780    0.26920   11.42110    0.24630    1.70470    1.25180  -20.36900    0.26920    2.24970   11.42110    2.11110   70.91760    0.24630  -20.36900  419.23460    0.20780    2.42020    2.69600
 7150.00000  264.48170    3.79080    3.91230    3.95490   52.37350    0.02950    0.04660   12.17940    0.15860    4.23800    4.16190  -26.26660    0.04660    2.63030   12.17940    3.79080   52.37350    0.15860  -26.26660  264.48170    0.02950    3.91230    3.95490
 7200.00000  504.06670    2.08840    2.08070    2.63840   71.38410    0.14570    0.14130   11.64660    0.25700    1.94980    1.55370  -19.21430    0.14130    2.46840   11.64660    2.08840   71.38410    0.25700  -19.21430  504.06670    0.14570    2.08070    2.63840
 7250.00000  346.51760    2.52330    2.93920    2.90780   72.66720    0.18140    0.15230   10.69180    0.27620    1.91930    1.48510  -19.69690    0.15230    2.44960   10.69180    2.52330   72.66720    0.27620  -19.69690  346.51760    0.18140    2.93920    2.90780
 7300.00000  526.08620    1.87440    1.86790    3.16990   61.35430    0.10540    0.15540   11.60150    0.25890    4.82860   15.68920  -21.97860    0.15540    2.44430   11.60150    1.87440   61.35430    0.25890  -21.97860  526.08620    0.10540    1.86790    3.16990
 7350.00000  481.70730    2.21630    2.25420    2.90760   66.25240    0.06980    0.04330   11.94740    0.22710    2.21630    2.24680  -20.04190    0.04330    2.63600   11.94740    2.21630   66.25240    0.22710  -20.04190  481.70730    0.06980    2.25420    2.90760
 7400.00000  581.98900    1.67780    1.69500    2.24400   71.15090    0.16750    0.05570   14.06770    0.23040    1.78220    1.73650  -19.91780    0.05570    2.61480   14.06770    1.67780   71.15090    0.23040  -19.91780  581.98900    0.16750    1.69500    2.24400
 7450.00000  693.29120    1.39240    1.42100    2.18430   71.61780    0.12870    0.07830   14.75190    0.26210    1.37090    1.16520  -22.20140    0.07830    2.57610   14.75190    1.39240   71.61780    0.26210  -22.20140  693.29120    0.12870    1.42100    2.18430
 7500.00000  558.94510    1.83430    1.92930    3.20420   59.48680    0.25110    0.29630   12.63860    0.24580    3.47300    4.49350  -20.87200    0.29630    2.20330   12.63860    1.83430   59.48680    0.24580  -20.87200  558.94510    0.25110    1.92930    3.20420
 7550.00000  715.44820    1.35520    1.49710    2.02540   65.90200    0.11940    0.13830   12.46730    0.26820    1.39700    1.14240  -14.12180    0.13830    2.47350   12.46730    1.35520   65.90200    0.26820  -14.12180  715.44820    0.11940    1.49710    2.02540
 7600.00000   67.07320   13.40690   14.83700   12.75610    -999.25    -999.25    -999.25   10.22430    -999.25    -999.25    -999.25  -27.24730    -999.25    -999.25   10.22430   13.40690    -999.25    -999.25  -27.24730   67.07320    -999.25   14.83700   12.75610
 7650.00000   84.34960   10.28720   10.96720   10.67510    -999.25    -999.25    -999.25   10.97240    -999.25    -999.25    -999.25  -13.56950    -999.25    -999.25   10.97240   10.28720    -999.25    -999.25  -13.56950   84.34960    -999.25   10.96720   10.67510
 7700.00000   99.08540   10.56910   13.03450    9.84500    -999.25    -999.25    -999.25   10.62410    -999.25    -999.25    -999.25  -13.38160    -999.25    -999.25   10.62410   10.56910    -999.25    -999.25  -13.38160   99.08540    -999.25   13.03450    9.84500
 7750.00000   79.26830   13.11990   13.39090   14.28700    -999.25    -999.25    -999.25   10.58650    -999.25    -999.25    -999.25  -21.27110    -999.25    -999.25   10.58650   13.11990    -999.25    -999.25  -21.27110   79.26830    -999.25   13.39090   14.28700
 7800.00000   39.63410   25.92270   26.86300   26.28940    -999.25    -999.25    -999.25   10.77440    -999.25    -999.25    -999.25  -36.91260    -999.25    -999.25   10.77440   25.92270    -999.25    -999.25  -36.91260   39.63410    -999.25   26.86300   26.28940
 7850.00000   34.29880   24.96320   27.89720   47.60090    -999.25    -999.25    -999.25   10.64660    -999.25    -999.25    -999.25  -22.29430    -999.25    -999.25   10.64660   24.96320    -999.25    -999.25  -22.29430   34.29880    -999.25   27.89720   47.60090
 7900.00000   64.02440   13.55240   13.74980   14.36420    -999.25    -999.25    -999.25   10.56390    -999.25    -999.25    -999.25  -10.90790    -999.25    -999.25   10.56390   13.55240    -999.25    -999.25  -10.90790   64.02440    -999.25   13.74980   14.36420
 7950.00000   29.72560   35.02530   36.53860   39.19480    -999.25    -999.25    -999.25   10.41350    -999.25    -999.25    -999.25  -30.71770    -999.25    -999.25   10.41350   35.02530    -999.25    -999.25  -30.71770   29.72560    -999.25   36.53860   39.19480
 8000.00000   36.58540   32.53130   35.18380   56.37140    -999.25    -999.25    -999.25   10.39860    -999.25    -999.25    -999.25  -26.31970    -999.25    -999.25   10.39860   32.53130    -999.25    -999.25  -26.31970   36.58540    -999.25   35.18380   56.37140
 8050.00000   45.73170   20.43740   22.84770   24.50900    -999.25    -999.25    -999.25   10.57140    -999.25    -999.25    -999.25  -13.78610    -999.25    -999.25   10.57140   20.43740    -999.25    -999.25  -13.78610   45.73170    -999.25   22.84770   24.50900
 8100.00000   28.45530   26.20580   26.00710   35.95150    -999.25    -999.25    -999.25   10.21810    -999.25    -999.25    -999.25  -42.81990    -999.25    -999.25   10.21810   26.20580    -999.25    -999.25  -42.81990   28.45530    -999.25   26.00710   35.95150
 8150.00000   72.15610   10.70320   12.69940   13.03440    -999.25    -999.25    -999.25   10.08270    -999.25    -999.25    -999.25  -17.94140    -999.25    -999.25   10.08270   10.70320    -999.25    -999.25  -17.94140   72.15610    -999.25   12.69940   13.03440
 8200.00000  282.52200    3.36040    3.64730    4.19670    -999.25    -999.25    -999.25   12.74440    -999.25    -999.25    -999.25  -13.84490    -999.25    -999.25   12.74440    3.36040    -999.25    -999.25  -13.84490  282.52200    -999.25    3.64730    4.19670
 8250.00000   36.58540   23.14270   29.76380   29.92500    -999.25    -999.25    -999.25   10.74440    -999.25    -999.25    -999.25  -16.67300    -999.25    -999.25   10.74440   23.14270    -999.25    -999.25  -16.67300   36.58540    -999.25   29.76380   29.92500
