~Version ---------------------------------------------------
VERS. 2.0 : CWLS log ASCII Standard -VERSION 2.0
WRAP.  NO : ONE LINE PER DEPTH STEP
~Well ------------------------------------------------------
STRT.F                    3400.0 : START DEPTH
STOP.F                    8650.0 : STOP DEPTH
STEP.F                  50.00000 : STEP LENGTH
NULL.                    -999.25 : NULL VALUE
COMP. CHAMPLIN PETROLEUM COMPANY : COMPANY
WELL.              E M DANSBY #2 : WELL
FLD .             BRYAN WOODBINE : FIELD
LOC .                            : LOCATION
CNTY.                     BRAZOS : COUNTY
STAT.                      TEXAS : STATE
CTRY.   UNITED STATES OF AMERICA : COUNTRY
SRVC.              Dresser Atlas : SERVICE COMPANY
DATE.                14-Jan-1983 : LOGDATE
API .             42041308650000 : API NUMBER
UWI .             42041308650000 : UNIQUE WELL ID
SLAT.WGS84         30.6976768619 : SURFACE LATITUDE
SLON.WGS84        -96.3909915206 : SURFACE LONGITUDE
~Curve Information -----------------------------------------
DEPT   .F    0   1   0  0 : 1 MEASURED DEPTH
GRR    .GAPI 07 310 01 00 : GAMMA RAY FROM RESISTIVITY LOG
SPR    .MV   07 010 01 00 : SPONTANEOUS POTENTIAL FROM RESISTIVITY LOG
RFOC   .OHMM 07 220 01 00 : SHALLOW FOCUSED LOG RESISTIVITY
RILD   .OHMM 07 120 46 00 : INDUCTION DEEP RESISTIVITY
RILM   .OHMM 07 120 44 00 : INDUCTION MEDIUM RESISTIVITY
CALR   .IN   07 280 01 00 : CALIPER FROM RESISTIVITY LOG
PORD_SS.DEC  45 890 12 00 : DENSITY POROSITY [SANDSTONE]
CN_SS  .DEC  42 890 03 00 : COMPENSATED NEUTRON POROSITY SANDSTONE
CORR   .G/C3 45 356 01 00 : DENSITY CORRECTION
DEN    .G/C3 45 350 01 00 : COMPENSATED BULK DENSITY
~Params ----------------------------------------------------
PD  .                     GL : PERMANENT DATUM
EPD .FT                  318 : ELEVATION PERMANENT DATUM
LMF .                     KB : LOG MEASURED FROM
DAPD.FT                   16 : FEET ABOVE PERMANENT DATUM
DMF .                     KB : DRILLING MEASURED FROM
EKB .FT                  334 : KELLY BUSHING
EDF .FT                  333 : DRILLING FLOOR
EGL .FT                  318 : GROUND LEVEL
DATE.               01/14/83 : RUN DATE
RUN .                      1 : RUN NUMBER
DD  .FT                 8717 : DEPTH DRILLER
DL  .FT                 8665 : DEPTH LOGGER
BLI .FT                 8663 : BOTTOM LOG INTERVAL
TLI .FT                 3424 : TOP LOG INTERVAL
CS  .IN                9.625 : CASING SIZE
CBD .FT                 3420 : CASING BOTTOM DRILLER
CBL .FT                 3424 : CASING BOTTOM LOGGER
BS  .IN                 8.75 : BIT SIZE
BSD .FT                 8717 : BIT SIZE AT DEPTH
DFT .                  BENEX : DRILLING FLUID TYPE
DFD .                    9.2 : DRILLING FLUID DENSITY
DFV .                     36 : DRILLING FLUID VISCOSITY
DFPH.                     10 : DRILLING FLUID PH
DFL .                      9 : DRILLING FLUID LOSS
MSS .                   TANK : MUD SAMPLE SOURCE
RMS .OHMM               3.16 : RESISTIVITY MUD SAMPLE
MST .DEGF                 75 : MUD SAMPLE TEMPERATURE
RMF .OHMM               2.46 : RESISTIVITY MUD FILTRATE SAMPLE
MFST.DEGF                 75 : MUD FILTRATE SAMPLE TEMPERATURE
RMC .OHMM               4.01 : RESISTIVITY MUD CAKE
MCST.DEGF                 75 : MUD CAKE SAMPLE TEMPERATURE
MFSS.                   CALC : MUD FILTRATE SAMPLE SOURCE
MCSS.                   CALC : MUD CAKE SAMPLE SOURCE
RMB .OHMM               1.31 : RESISTIVITY MUD AT BHT
TCS .HRS                   7 : TIME CIRCULATED STOPPED
LUN .                   6309 : LOGGING UNIT NUMBER
LUL .                  BRYAN : LOGGING UNIT LOCATION
ENGI.                   KIRK : RECORDING ENGINEER
WITN.                  VODAK : WITNESSED BY
CLNT.                A2DTECH : CLIENT CODE
ORIG.            2" 5" PRINT : ORIGIN OF DATA
UWI .         42041308650000 : UNIQUE WELL ID
DICO. A2D Technologies, Inc. : DIGITIZING COMPANY
~Other -----------------------------------------------------
~ASCII -----------------------------------------------------
# ...
 6700.00000   88.82010   -4.34160    1.61870    1.19790    1.23230   11.81440    -999.25    -999.25    -999.25    -999.25
 6750.00000   87.78640   -5.33230    1.77830    1.42860    1.46930   12.39570    -999.25    -999.25    -999.25    -999.25
 6800.00000   80.67490   -7.34750    1.72460    1.29480    1.33120   12.96980    -999.25    -999.25    -999.25    -999.25
 6850.00000   81.14810   -5.18190    1.83230    1.36680    1.40490   13.15010    -999.25    -999.25    -999.25    -999.25
 6900.00000   72.10030   -4.50260    1.80910    1.39960    1.44010   12.91400    -999.25    -999.25    -999.25    -999.25
 6950.00000   73.79140   -4.61440    2.52960    2.27890    2.40630   11.39730    -999.25    -999.25    -999.25    -999.25
 7000.00000   78.06370   -4.56090    2.71020    2.36150    2.43640   10.98020    -999.25    -999.25    -999.25    -999.25
 7050.00000   78.33080   -3.91260    1.89410    1.23370    1.35280   12.91020    -999.25    -999.25    -999.25    -999.25
 7100.00000   74.02050   -3.30990    2.09990    1.75190    1.83320   12.75000    -999.25    -999.25    -999.25    -999.25
 7150.00000   76.12370   -3.95360    1.89850    1.51610    1.53990   12.93440    -999.25    -999.25    -999.25    -999.25
 7200.00000   71.41920   -0.16800    2.08460    1.65310    1.73340   13.58090    -999.25    -999.25    -999.25    -999.25
 7250.00000   81.07970    0.29210    2.03650    1.64800    1.73370   12.30410    -999.25    -999.25    -999.25    -999.25
 7300.00000   82.87620   -0.85390    2.10380    1.70480    1.81260   12.31180    -999.25    -999.25    -999.25    -999.25
 7350.00000   79.57580   -0.42520    1.85250    1.35320    1.44210   14.75460    -999.25    -999.25    -999.25    -999.25
 7400.00000   76.58690   -5.90850    1.97070    1.47880    1.55850   14.62310    -999.25    -999.25    -999.25    -999.25
 7450.00000   75.10930   -8.18340    1.84580    1.34330    1.42740   15.40260    -999.25    -999.25    -999.25    -999.25
 7500.00000   75.38430   -8.23930    1.88800    1.46320    1.53330   15.61890    -999.25    -999.25    -999.25    -999.25
 7550.00000   71.44540   -7.26070    1.96610    1.47940    1.61440   15.56610    -999.25    -999.25    -999.25    -999.25
 7600.00000   75.61410   -8.33840    1.93630    1.42690    1.53370   14.21860    -999.25    -999.25    -999.25    -999.25
 7650.00000   65.84190   -7.41770    2.90770    2.37720    2.51500   11.81290    -999.25    -999.25    -999.25    -999.25
 7700.00000   68.75480   -9.60100    2.57470    2.11420    2.27980   15.54120    -999.25    -999.25    0.08140    2.46670
 7750.00000   44.82530  -11.94390    5.08000    5.36110    5.72510   11.02620    -999.25    -999.25    0.00140    2.58110
 7800.00000   35.89840  -18.96230    4.85730    5.26920    5.63490   11.29250    0.07890    -999.25   -0.01630    2.57390
 7850.00000   31.12160  -28.30280    7.52390    8.68800    9.37950   11.04470    0.13920    -999.25    0.01380    2.47260
 7900.00000   46.29310  -18.61630    4.18260    5.60140    6.10320   11.21130    0.06060    -999.25    0.19780    2.61750
 7950.00000   39.20060  -22.30940    8.66650    8.67810    9.36820   10.44750    0.06780    -999.25   -0.00580    2.59390
 8000.00000   60.53030  -19.52190    5.02390    5.73330    6.25060   10.49570    0.07680    0.20880    0.01910    2.58060
 8050.00000   50.92620  -21.00050    9.64940    2.82740    3.79980   11.93550    0.31410    0.15150    0.11470    2.17470
 8100.00000   68.83940   -6.89020    1.73040    1.17630    1.19670   15.61440    0.36780    0.32840    0.11360    2.08320
 8150.00000   66.71280   -8.47990    1.82410    1.26180    1.29710   15.60240    0.35170    0.26640    0.14610    2.11440
 8200.00000   77.14150   -6.80060    1.70550    1.19900    1.23440   15.39890    0.23430    0.27170    0.16770    2.30740
 8250.00000   76.99590  -13.00860    1.81770    1.24310    1.28910   15.27530    0.42000    0.35900    0.10250    2.01730
 8300.00000   66.76670   -8.46840    2.33530    1.81080    1.59770   15.40610    0.47460    0.33360    0.09290    1.95500
 8350.00000   82.56800   -8.68080    2.32050    1.66070    1.65800   14.39530    0.10260    0.24610    0.18110    2.54380
 8400.00000   79.29820  -11.89040    3.11580    2.30370    2.42750   14.68240    0.09820    0.25780    0.13720    2.54990
 8450.00000   84.18140   -7.39200    3.55800    2.43050    2.60260   12.25000    0.13240    0.26160    0.24500    2.47770
 8500.00000  114.20670   -7.75340    6.81410    7.43690    7.86920   11.31550    0.09970    0.19530    0.09770    2.53970
 8550.00000   70.46840   -9.24490    3.03970    2.32090    2.15030   15.52050    0.19410    0.31330    0.20820    2.37820
 8600.00000   48.35470  -17.72490    4.57480    4.56680    5.00660   11.65470    0.06460    0.09500    0.08400    2.60240
 8650.00000   14.46830  -66.60810   33.98630   47.79750   50.76370   10.54420    0.04280    0.02230    0.08810    2.63790
