~Version ---------------------------------------------------
VERS. 2.0 : CWLS log ASCII Standard -VERSION 2.0
WRAP. YES : MULTIPLE LINES PER DEPTH STEP
~Well ------------------------------------------------------
STRT.FT                  2000.0 : START DEPTH
STOP.FT                  6400.0 : STOP DEPTH
STEP.FT                50.00000 : STEP LENGTH
NULL.                   -999.25 : NULL VALUE
COMP. EVERGREEN OIL CORPORATION : COMPANY
WELL.        D. B. LITTLETON #1 : WELL
FLD .                      COST : FIELD
LOC .                           : LOCATION
CNTY.                  GONZALES : COUNTY
STAT.                     TEXAS : STATE
CTRY.  UNITED STATES OF AMERICA : COUNTRY
SRVC.              Schlumberger : SERVICE COMPANY
DATE.               22-Feb-1981 : LOGDATE
API .            42177308270000 : API NUMBER
UWI .            42177308270000 : UNIQUE WELL ID
SLAT.WGS84         29.469226813 : SURFACE LATITUDE
SLON.WGS84       -97.5735228913 : SURFACE LONGITUDE
~Curve Information -----------------------------------------
DEPT    .FT    : DEPTH FEET
CALRED  .IN    : CALIPER FROM RESISTIVITY LOG
CALWS   .IN    : CALIPER [DCALED+BITED]
CONDWS  .MMHO  : CONDUCTIVITY [1000/DRESWS]
DCALED  .IN    : DIFFERENTIAL CALIPER FROM DENSITY LOG
DCORWS  .G/C3  : DENSITY CORRECTION [DRHOED]
DENWS   .G/C3  : BULK DENSITY [M=2.68 F=1.0] [CALCULATED FROM DPOWS]
DPHISSED.V/V   : DENSITY POROSITY [M=2.68 F=1.0] FROM DENSITY LOG
DPOWS   .V/V   : DENSITY POROSITY [M=2.68 F=1.0] [DPHISSED]
DRESWS  .OHMM  : DEEP RESISTIVITY [ILDED]
DRHOED  .G/C3  : DENSITY CORRECTION FROM DENSITY LOG
GRRED   .GAPI  : GAMMA RAY FROM RESISTIVITY LOG
GRWS    .GAPI  : GAMMA RAY [GRRED]
ILDED   .OHMM  : INDUCTION LOG DEEP RESISTIVITY
ILMED   .OHMM  : INDUCTION LOG MEDIUM RESISTIVITY
MRESWS  .OHMM  : MEDIUM RESISTIVITY [ILMED]
NPHISSED.V/V   : NEUTRON POROSITY SANDSTONE FROM DENSITY LOG
NPOWS   .V/V   : NEUTRON POROSITY SANDSTONE [NPHISSED]
SFLUED  .OHMM  : SPHERICALLY FOCUSED LOG RESISTIVITY
SPRED   .MV    : SPONTANEOUS POTENTIAL FROM RESISTIVITY LOG
SPWS    .MV    : SPONTANEOUS POTENTIAL [BASELINE 0 MV] [SPRED]
SRESWS  .OHMM  : SHALLOW RESISTIVITY [SFLUED]
TENRED  .LBF   : TENSION FROM RESISTIVITY LOG
~Params ----------------------------------------------------
PD  .                     GL : PERMANENT DATUM
EPD .FT                  387 : ELEVATION PERMANENT DATUM
LMF .                     KB : LOG MEASURED FROM
DAPD.FT                   12 : FEET ABOVE PERMANENT DATUM
DMF .                     KB : DRILLING MEASURED FROM
EKB .FT                  399 : KELLY BUSHING
EDF .FT                  398 : DRILLING FLOOR
EGL .FT                  387 : GROUND LEVEL
DATE.               02/22/81 : RUN DATE
RUN .                      1 : RUN NUMBER
DD  .FT                 6394 : DEPTH DRILLER
DL  .FT                 6394 : DEPTH LOGGER
BLI .FT                 6384 : BOTTOM LOG INTERVAL
TLI .FT                 2069 : TOP LOG INTERVAL
CS  .IN                8.625 : CASING SIZE
CBD .FT                 2067 : CASING BOTTOM DRILLER
CBL .FT                 2069 : CASING BOTTOM LOGGER
BS  .IN                7.875 : BIT SIZE
BSD .FT                 6394 : BIT SIZE AT DEPTH
DFT .   POLYMER ASTROUISIC V : DRILLING FLUID TYPE
DFD .                    9.2 : DRILLING FLUID DENSITY
DFV .                     35 : DRILLING FLUID VISCOSITY
DFPH.                    9.7 : DRILLING FLUID PH
DFL .                    8.6 : DRILLING FLUID LOSS
MSS .               CIRC PIT : MUD SAMPLE SOURCE
RMS .OHMM               2.31 : RESISTIVITY MUD SAMPLE
MST .DEGF                 94 : MUD SAMPLE TEMPERATURE
RMF .OHMM                2.4 : RESISTIVITY MUD FILTRATE SAMPLE
MFST.DEGF                 72 : MUD FILTRATE SAMPLE TEMPERATURE
RMC .OHMM               3.46 : RESISTIVITY MUD CAKE
MCST.DEGF                 94 : MUD CAKE SAMPLE TEMPERATURE
MFSS.                      M : MUD FILTRATE SAMPLE SOURCE
MCSS.                      C : MUD CAKE SAMPLE SOURCE
RMB .OHMM               1.09 : RESISTIVITY MUD AT BHT
TCS .HRS                2000 : TIME CIRCULATED STOPPED
TLAB.HRS                 100 : TIME LOGGER AT BOTTOM
LUN .                   8011 : LOGGING UNIT NUMBER
LUL .               VICTORIA : LOGGING UNIT LOCATION
ENGI.                   SHEA : RECORDING ENGINEER
WITN.                  EVANS : WITNESSED BY
CLNT.                A2DTECH : CLIENT CODE
ORIG.        0.5" 2.5" PRINT : ORIGIN OF DATA
UWI .         42177308270000 : UNIQUE WELL ID
DICO. A2D Technologies, Inc. : DIGITIZING COMPANY
~Other -----------------------------------------------------
~ASCII -----------------------------------------------------
# ...
 3600.00000    -999.25    7.97750  264.13800    0.10250    0.01870    2.19350    0.28960    0.28960    3.78590    0.01870   63.40320   63.40320    3.78590    4.22820    4.22820    0.35370    0.35370    8.38460  -13.13560  -21.54650    8.38460 1786.63230
 3650.00000    -999.25    8.94170  522.02970    1.06670    0.09960    2.32060    0.21390    0.21390    1.91560    0.09960   95.43390   95.43390    1.91560    1.93730    1.93730    0.42580    0.42580    2.25450    6.12280   -2.91830    2.25450 1803.30130
 3700.00000    -999.25    8.79110  434.32940    0.91610    0.06900    2.36180    0.18940    0.18940    2.30240    0.06900  100.55450  100.55450    2.30240    2.27240    2.27240    0.42670    0.42670    2.50520    5.43200   -4.01910    2.50520 1848.47740
 3750.00000    -999.25    9.18420  431.64850    1.30920    0.09660    2.42770    0.15020    0.15020    2.31670    0.09660   98.81530   98.81530    2.31670    2.29730    2.29730    0.35980    0.35980    2.55160    6.39160   -3.46950    2.55160 1845.07780
 3800.00000    -999.25    9.51930  502.86630    1.64430    0.09390    2.43760    0.14430    0.14430    1.98860    0.09390  105.71370  105.71370    1.98860    2.06240    2.06240    0.39330    0.39330    2.10800    6.28620   -3.98490    2.10800 1907.35130
 3850.00000    -999.25    9.41370  638.73270    1.53870    0.07590    2.39050    0.17230    0.17230    1.56560    0.07590  107.00500  107.00500    1.56560    1.53430    1.53430    0.41520    0.41520    1.74230    6.57900   -4.10220    1.74230 1878.28940
 3900.00000    -999.25    9.33370  669.79240    1.45870    0.09930    2.42230    0.15340    0.15340    1.49300    0.09930  109.11680  109.11680    1.49300    1.51000    1.51000    0.44170    0.44170    1.70810    7.47120   -3.62000    1.70810 1913.63920
 3950.00000    -999.25    9.33220  686.95470    1.45720    -999.25    2.39960    0.16690    0.16690    1.45570    -999.25  107.66700  107.66700    1.45570    1.48910    1.48910    0.40480    0.40480    1.72840   10.17040   -1.33080    1.72840 1925.79520
 4000.00000    -999.25    9.48130  741.83970    1.60630    0.09670    2.36920    0.18500    0.18500    1.34800    0.09670  113.14830  113.14830    1.34800    1.36420    1.36420    0.46620    0.46620    1.53210   11.39850   -0.43600    1.53210 1921.96020
 4050.00000    -999.25    9.42750  755.85790    1.55250    -999.25    2.35860    0.19130    0.19130    1.32300    -999.25  107.70030  107.70030    1.32300    1.33820    1.33820    0.40500    0.40500    1.45350    4.74370   -6.91030    1.45350 1929.79360
 4100.00000    -999.25    9.46530  846.02370    1.59030    0.09700    2.37790    0.17980    0.17980    1.18200    0.09700   97.16360   97.16360    1.18200    1.19590    1.19590    0.43900    0.43900    1.38650    3.50390   -7.96960    1.38650 1932.50700
 4150.00000    -999.25    8.46370  548.06530    0.58870    0.05210    2.42980    0.14890    0.14890    1.82460    0.05210   98.33900   98.33900    1.82460    1.84540    1.84540    0.34290    0.34290    1.92380    4.43220   -6.86080    1.92380 1963.08690
 4200.00000    -999.25    8.47080  723.27500    0.59580    0.07590    2.37880    0.17930    0.17930    1.38260    0.07590   94.36690   94.36690    1.38260    1.42080    1.42080    0.37420    0.37420    1.45320    6.69410   -4.41840    1.45320 2033.63440
 4250.00000    -999.25    9.16080  948.49670    1.28580    0.10110    2.41100    0.16010    0.16010    1.05430    0.10110  107.51020  107.51020    1.05430    1.06950    1.06950    0.42630    0.42630    1.34560    6.03590   -4.89610    1.34560 2007.85140
 4300.00000    -999.25    7.93420  417.18810    0.05920    0.02430    2.46600    0.12740    0.12740    2.39700    0.02430   96.16950   96.16950    2.39700    2.42740    2.42740    0.32070    0.32070    2.61740    6.75550   -3.99600    2.61740 2003.46460
 4350.00000    -999.25    8.77840  588.58150    0.90340    -999.25    2.41150    0.15980    0.15980    1.69900    -999.25   89.87730   89.87730    1.69900    1.73060    1.73060    0.37250    0.37250    1.83490    6.27410   -4.29690    1.83490 2031.66110
 4400.00000    -999.25    8.99550  552.57780    1.12050    -999.25    2.42780    0.15010    0.15010    1.80970    -999.25   92.02410   92.02410    1.80970    1.83160    1.83160    0.40180    0.40180    1.97350    5.88160   -4.50890    1.97350 2151.73970
 4450.00000    -999.25    8.05530  472.79090    0.18030    0.09720    2.47030    0.12480    0.12480    2.11510    0.09720   72.04420   72.04420    2.11510    2.20910    2.20910    0.31510    0.31510    1.91890    2.08240   -8.12760    1.91890 2098.53520
 4500.00000    -999.25    9.07130  666.13380    1.19630    -999.25    2.37710    0.18030    0.18030    1.50120    -999.25   85.02030   85.02030    1.50120    1.52320    1.52320    0.40170    0.40170    1.72130    7.18270   -2.84680    1.72130 2098.41310
 4550.00000    -999.25    8.15740  539.72360    0.28240    -999.25    2.43510    0.14580    0.14580    1.85280    -999.25   82.48480   82.48480    1.85280    1.88170    1.88170    0.38490    0.38490    2.19400    6.82960   -3.01940    2.19400 2091.02710
 4600.00000    -999.25    9.44400  695.60380    1.56900    -999.25    2.37560    0.18120    0.18120    1.43760    -999.25   88.08690   88.08690    1.43760    1.45500    1.45500    0.41550    0.41550    1.56240    7.71390   -1.96110    1.56240 2078.98390
 4650.00000    -999.25    9.23240  676.81900    1.35740    -999.25    2.32820    0.20940    0.20940    1.47750    -999.25   88.27780   88.27780    1.47750    1.49570    1.49570    0.40470    0.40470    1.66260    2.07240   -7.74540    1.66260 2104.05880
 4700.00000    -999.25    8.73910  600.81710    0.86410    -999.25    2.43640    0.14500    0.14500    1.66440    -999.25   84.78030   84.78030    1.66440    1.68560    1.68560    0.40690    0.40690    2.01890    1.30380   -8.65690    2.01890 2143.00150
 4750.00000    -999.25    9.04010  661.63820    1.16510    -999.25    2.46280    0.12930    0.12930    1.51140    -999.25   82.33120   82.33120    1.51140    1.52960    1.52960    0.42580    0.42580    1.85000    0.97350   -9.13000    1.85000 2168.67020
 4800.00000    -999.25    8.04250  505.68900    0.16750    -999.25    2.45570    0.13350    0.13350    1.97750    -999.25   80.70650   80.70650    1.97750    2.00430    2.00430    0.39060    0.39060    2.12870    2.28950   -7.95680    2.12870 2165.72950
 4850.00000    -999.25    9.00720  688.46810    1.13220    -999.25    2.45710    0.13270    0.13270    1.45250    -999.25   94.36320   94.36320    1.45250    1.47070    1.47070    0.41670    0.41670    1.74720    1.53460   -8.85460    1.74720 2215.42700
 4900.00000    -999.25    7.94540  456.55850    0.07040    0.02370    2.51990    0.09530    0.09530    2.19030    0.02370   84.14390   84.14390    2.19030    2.22060    2.22060    0.33100    0.33100    2.49650    4.92880   -5.60320    2.49650 2206.34790
 4950.00000    -999.25    8.41570  692.71260    0.54070    -999.25    2.45470    0.13410    0.13410    1.44360    -999.25   84.10630   84.10630    1.44360    1.46210    1.46210    0.39020    0.39020    1.81040    4.19750   -6.47730    1.81040 2222.00370
 5000.00000    -999.25    8.23850  555.33960    0.36350    0.04380    2.48650    0.11520    0.11520    1.80070    0.04380   92.58600   92.58600    1.80070    1.84350    1.84350    0.26200    0.26200    2.24450    7.32830   -3.48940    2.24450 2286.92700
 5050.00000    -999.25   10.78040  899.03800    2.90540    -999.25    2.32800    0.20950    0.20950    1.11230    -999.25  103.28990  103.28990    1.11230    1.12760    1.12760    0.42050    0.42050    1.05370    7.21770   -3.74280    1.05370 2245.33670
 5100.00000    -999.25   10.30010  789.88940    2.42510    -999.25    2.47070    0.12460    0.12460    1.26600    -999.25   98.39680   98.39680    1.26600    1.28140    1.28140    0.37900    0.37900    1.38600    6.73420   -4.36910    1.38600 2271.24780
 5150.00000    -999.25   10.49700  976.08590    2.62200    -999.25    2.32080    0.21380    0.21380    1.02450    -999.25  110.03200  110.03200    1.02450    1.03700    1.03700    0.44330    0.44330    1.19350    7.94050   -3.30570    1.19350 2273.38330
