~Version ---------------------------------------------------
VERS. 2.0 : CWLS log ASCII Standard -VERSION 2.0
WRAP. YES : MULTIPLE LINES PER DEPTH STEP
~Well ------------------------------------------------------
STRT.FT                   3850.0 : START DEPTH
STOP.FT                   8300.0 : STOP DEPTH
STEP.FT                 50.00000 : STEP LENGTH
NULL.                    -999.25 : NULL VALUE
COMP. CHAMPLIN PETROLEUM COMPANY : COMPANY
WELL.          J. F. GOODSON  #2 : WELL
FLD .                   GIDDINGS : FIELD
LOC .                            : LOCATION
CNTY.                   BURLESON : COUNTY
STAT.                      TEXAS : STATE
CTRY.   UNITED STATES OF AMERICA : COUNTRY
SRVC.               Schlumberger : SERVICE COMPANY
DATE.                15-May-1980 : LOGDATE
API .             42051306970000 : API NUMBER
UWI .             42051306970000 : UNIQUE WELL ID
SLAT.WGS84         30.4460373097 : SURFACE LATITUDE
SLON.WGS84        -96.6864923933 : SURFACE LONGITUDE
~Curve Information -----------------------------------------
DEPT    .FT    : DEPTH FEET
CALDED  .IN    : CALIPER FROM COMPENSATED NEUTRON FORMATION DENSITY
CALWS   .IN    : CALIPER [CALDED]
CONDWS  .MMHO  : CONDUCTIVITY [1000/DRESWS]
DCORWS  .G/C3  : DENSITY CORRECTION [DRHOED]
DENWS   .G/C3  : BULK DENSITY [M=2.71 F=1.0] [RHOBED]
DPHILSED.V/V   : DENSITY POROSITY [M=2.71 F=1.0] FROM CNFD LOG
DPHISSED.V/V   : DENSITY POROSITY [M=2.65 F=1.0] FROM CNFD LOG
DPOWS   .V/V   : DENSITY POROSITY [M=2.71 F=1.0] [CALCULATED FROM DENWS]
DRESWS  .OHMM  : DEEP RESISTIVITY [ILDED]
DRHOED  .G/C3  : DENSITY CORRECTION FROM COMPENSATED NEUTRON FORMATION DENSITY
DTED    .US/F  : DELTA TIME FROM DUAL INDUCTION-SFL-SONIC LOG
DTWS    .US/F  : DELTA TIME [DTED]
GRDED   .GAPI  : GAMMA RAY FROM COMPENSATED NEUTRON FORMATION DENSITY
GRRED   .GAPI  : GAMMA RAY FROM DUAL INDUCTION-SFL-SONIC LOG
GRWS    .GAPI  : GAMMA RAY [GRDED]
ILDED   .OHMM  : INDUCTION LOG DEEP RESISTIVITY FROM DUAL INDUCTION-SFL-SONIC LOG
ILMED   .OHMM  : INDUCTION LOG MEDIUM RESISTIVITY FROM DUAL INDUCTION-SFL-SONIC LOG
MRESWS  .OHMM  : MEDIUM RESISTIVITY [ILMED]
NPHILSED.V/V   : NEUTRON POROSITY LIMESTONE FROM COMPENSATED NEUTRON FORMATION DENSITY
NPHISSED.V/V   : NEUTRON POROSITY SANDSTONE FROM COMPENSATED NEUTRON FORMATION DENSITY
NPOWS   .V/V   : NEUTRON POROSITY [SPLICED NPHISSED CONVERTED TO LS/NPHILSED AT 6500']
RHOBED  .G/C3  : BULK DENSITY FROM DENSITY LOG
SFLUED  .OHMM  : SPHERICALLY FOCUSED LOG RESISTIVITY FROM DUAL INDUCTION-SFL-SONIC LOG
SPHIED  .V/V   : SONIC POROSITY FROM DENSITY SONIC LOG
SPOWS   .V/V   : SONIC POROSITY [SPHIED]
SPRED   .MV    : SPONTANEOUS POTENTIAL FROM DUAL INDUCTION-SFL-SONIC LOG
SPWS    .MV    : SPONTANEOUS POTENTIAL [BASELINE 0 MV] [SPRED]
SRESWS  .OHMM  : SHALLOW RESISTIVITY [SFLUED]
~Params ----------------------------------------------------
PD  .                     GL : PERMANENT DATUM
EPD .FT                  316 : ELEVATION PERMANENT DATUM
LMF .                     KB : LOG MEASURED FROM
DAPD.FT                   16 : FEET ABOVE PERMANENT DATUM
DMF .                     KB : DRILLING MEASURED FROM
EKB .FT                  232 : KELLY BUSHING
EDF .FT                  327 : DRILLING FLOOR
EGL .FT                  316 : GROUND LEVEL
DATE.               05/15/80 : RUN DATE
RUN .                      1 : RUN NUMBER
DD  .FT                 8301 : DEPTH DRILLER
DL  .FT                 8302 : DEPTH LOGGER
BLI .FT                 8296 : BOTTOM LOG INTERVAL
TLI .FT                 3870 : TOP LOG INTERVAL
CS  .IN                9.625 : CASING SIZE
CBD .FT                 3881 : CASING BOTTOM DRILLER
CBL .FT                 3870 : CASING BOTTOM LOGGER
BS  .IN                 8.75 : BIT SIZE
BSD .FT                 8301 : BIT SIZE AT DEPTH
DFT .                 BEN EX : DRILLING FLUID TYPE
DFD .                    9.7 : DRILLING FLUID DENSITY
DFV .                     49 : DRILLING FLUID VISCOSITY
DFPH.                    8.5 : DRILLING FLUID PH
DFL .                    6.4 : DRILLING FLUID LOSS
MSS .                   TANK : MUD SAMPLE SOURCE
RMS .OHMM               2.38 : RESISTIVITY MUD SAMPLE
MST .DEGF                102 : MUD SAMPLE TEMPERATURE
RMF .OHMM               1.79 : RESISTIVITY MUD FILTRATE SAMPLE
MFST.DEGF                102 : MUD FILTRATE SAMPLE TEMPERATURE
RMC .OHMM               3.58 : RESISTIVITY MUD CAKE
MCST.DEGF                102 : MUD CAKE SAMPLE TEMPERATURE
MFSS.                      M : MUD FILTRATE SAMPLE SOURCE
MCSS.                      C : MUD CAKE SAMPLE SOURCE
RMB .OHMM               1.28 : RESISTIVITY MUD AT BHT
TCS .HRS                 900 : TIME CIRCULATED STOPPED
TLAB.HRS                1530 : TIME LOGGER AT BOTTOM
LUN .                   8101 : LOGGING UNIT NUMBER
LUL .                   BREN : LOGGING UNIT LOCATION
ENGI.              GILLILAND : RECORDING ENGINEER
WITN.                  DAVIS : WITNESSED BY
CLNT.                A2DTECH : CLIENT CODE
ORIG.          1" 2.5" PRINT : ORIGIN OF DATA
UWI .         42051306970000 : UNIQUE WELL ID
DICO. A2D Technologies, Inc. : DIGITIZING COMPANY
~Other -----------------------------------------------------
~ASCII -----------------------------------------------------
# ...
 6350.00000   11.31620   11.31620  511.87550    0.16480    2.53520    -999.25    0.06710    0.10220    1.95360    0.16480   93.91940   93.91940  104.32900  136.71500  136.71500    1.95360    1.84200    1.84200    -999.25    0.29790    0.29790    2.53520    2.24570    -999.25    -999.25  -14.28300   -5.06700    2.24570
 6400.00000   12.03480   12.03480  650.74510    0.13540    2.48850    -999.25    0.09750    0.12950    1.53670    0.13540   98.05880   98.05880   98.97740  124.29950  124.29950    1.53670    1.58880    1.58880    -999.25    0.31720    0.31720    2.48850    1.78750    -999.25    -999.25  -20.46590  -11.31980    1.78750
 6450.00000   12.34350   12.34350  747.21660    0.11160    2.46030    -999.25    0.11080    0.14600    1.33830    0.11160   99.95490   99.95490  121.99030  128.59930  128.59930    1.33830    1.38220    1.38220    -999.25    0.37350    0.37350    2.46030    1.57540    -999.25    -999.25  -13.01170   -3.93550    1.57540
 6500.00000   11.28200   11.28200  608.45760    0.09230    2.51790    -999.25    0.07800    0.11230    1.64350    0.09230   94.50260   94.50260  102.31460  123.07830  123.07830    1.64350    1.69880    1.69880    -999.25    0.27840    0.27840    2.51790    1.81290    -999.25    -999.25  -11.99630   -2.99000    1.81290
 6550.00000   11.43350   11.43350  647.50060    0.17860    2.51850    0.10880    -999.25    0.11200    1.54440    0.17860   95.65240   95.65240   93.21150  114.30210  114.30210    1.54440    1.49220    1.49220    0.27040    -999.25    0.27410    2.51850    1.77800    -999.25    -999.25  -13.06430   -4.12790    1.77800
 6600.00000    9.50630    9.50630  317.01750    0.03860    2.62350    0.04780    -999.25    0.05060    3.15440    0.03860   78.94200   78.94200   64.19710   81.43170   81.43170    3.15440    3.03310    3.03310    0.14120    -999.25    0.14260    2.62350    3.48060    -999.25    -999.25   -8.81130    0.05520    3.48060
 6650.00000    9.60300    9.60300  279.61080    0.02110    2.58010    0.07270    -999.25    0.07600    3.57640    0.02110   76.22020   76.22020   56.57940   83.49310   83.49310    3.57640    3.42660    3.42660    0.12900    -999.25    0.12050    2.58010    3.85580    -999.25    -999.25  -11.41760   -2.62110    3.85580
 6700.00000    9.60170    9.60170  239.01140    0.03620    2.61540    0.05390    -999.25    0.05530    4.18390    0.03620   77.14530   77.14530   79.82100  102.80840  102.80840    4.18390    4.01220    4.01220    0.13980    -999.25    0.12580    2.61540    3.67270    -999.25    -999.25  -14.56300   -5.83640    3.67270
 6750.00000    9.75150    9.75150  404.31810    0.11830    2.62710    0.04850    -999.25    0.04850    2.47330    0.11830   81.01250   81.01250   86.63020  113.68120  113.68120    2.47330    2.38880    2.38880    0.16930    -999.25    0.16510    2.62710    3.82630    -999.25    -999.25  -10.93500   -2.27830    3.82630
 6800.00000    9.98470    9.98470  327.49300    0.02480    2.56710    0.07910    -999.25    0.08360    3.05350    0.02480   80.47880   80.47880   83.66630  116.22930  116.22930    3.05350    2.94280    2.94280    0.13040    -999.25    0.12900    2.56710    3.81620    -999.25    -999.25  -11.20510   -2.61830    3.81620
 6850.00000    9.74130    9.74130  314.15920    0.05760    2.59740    0.06830    -999.25    0.06580    3.18310    0.05760   81.73690   81.73690  100.20890  114.04420  114.04420    3.18310    3.07410    3.07410    0.15610    -999.25    0.15880    2.59740    3.29000    -999.25    -999.25  -11.94690   -3.43000    3.29000
 6900.00000   10.03150   10.03150  425.31470    0.08720    2.55510    0.08840    -999.25    0.09060    2.35120    0.08720   86.12130   86.12130  100.23940  124.37070  124.37070    2.35120    2.27190    2.27190    0.19700    -999.25    0.19480    2.55510    2.68230    -999.25    -999.25  -12.25780   -3.81080    2.68230
 6950.00000    9.72070    9.72070  334.97470    0.04610    2.61960    0.04930    -999.25    0.05290    2.98530    0.04610   81.43580   81.43580   88.21200  106.10110  106.10110    2.98530    2.88360    2.88360    0.16460    -999.25    0.16490    2.61960    3.42580    -999.25    -999.25   -9.31780   -0.94070    3.42580
 7000.00000    9.65440    9.65440  281.53950    0.04360    2.63630    0.04060    -999.25    0.04310    3.55190    0.04360   78.23780   78.23780   77.13810   86.76150   86.76150    3.55190    3.42970    3.42970    0.16160    -999.25    0.15520    2.63630    4.59000    -999.25    -999.25   -9.69510   -1.38790    4.59000
 7050.00000   10.27700   10.27700  463.09160    0.20880    2.58420    0.07250    -999.25    0.07360    2.15940    0.20880   88.98520   88.98520   95.34210  110.95230  110.95230    2.15940    2.08460    2.08460    0.24610    -999.25    0.24440    2.58420    2.75560    -999.25    -999.25  -12.52430   -3.68680    2.75560
 7100.00000   11.83670   11.83670  633.79390    0.20870    2.54180    0.09580    -999.25    0.09840    1.57780    0.20870   95.42110   95.42110  108.94510  131.05000  131.05000    1.57780    1.62840    1.62840    0.30700    -999.25    0.29520    2.54180    1.92540    -999.25    -999.25  -13.51400   -3.86360    1.92540
 7150.00000   12.03550   12.03550  666.80000    0.19470    2.53270    0.10000    -999.25    0.10370    1.49970    0.19470   94.38500   94.38500   93.78060  115.68280  115.68280    1.49970    1.54790    1.54790    0.37660    -999.25    0.37100    2.53270    1.93600    -999.25    -999.25  -12.11580   -3.51620    1.93600
 7200.00000   12.44580   12.44580  609.08760    0.19490    2.52000    0.10620    -999.25    0.11110    1.64180    0.19490   94.05020   94.05020   94.01620  116.19450  116.19450    1.64180    1.69510    1.69510    0.33990    -999.25    0.35570    2.52000    2.11400    -999.25    -999.25  -14.85440   -6.56960    2.11400
 7250.00000   11.85990   11.85990  527.92740    0.17400    2.57170    0.07840    -999.25    0.08090    1.89420    0.17400   92.90750   92.90750   96.33810  129.32430  129.32430    1.89420    1.95770    1.95770    0.30920    -999.25    0.28760    2.57170    2.32330    -999.25    -999.25  -12.90550   -4.62070    2.32330
 7300.00000   11.72780   11.72780  547.52520    0.13770    2.55500    0.08780    -999.25    0.09060    1.82640    0.13770   92.16970   92.16970   95.76620  115.30470  115.30470    1.82640    1.88530    1.88530    0.27350    -999.25    0.27040    2.55500    2.32400    -999.25    -999.25  -11.81450   -3.52970    2.32400
 7350.00000   11.85370   11.85370  547.43530    0.13870    2.54200    0.09440    -999.25    0.09820    1.82670    0.13870   92.56420   92.56420   96.99080  116.66310  116.66310    1.82670    1.88520    1.88520    0.30260    -999.25    0.29320    2.54200    2.33800    -999.25    -999.25  -13.83760   -5.55280    2.33800
 7400.00000   12.85230   12.85230  550.81240    0.18020    2.60050    0.05990    -999.25    0.06400    1.81550    0.18020   92.56510   92.56510   94.50530  118.82910  118.82910    1.81550    1.87390    1.87390    0.30090    -999.25    0.29620    2.60050    2.26330    -999.25    -999.25  -12.66550   -4.38070    2.26330
 7450.00000   12.03530   12.03530  521.02330    0.18520    2.57860    0.07580    -999.25    0.07680    1.91930    0.18520   91.68510   91.68510   97.31470  121.63670  121.63670    1.91930    1.98100    1.98100    0.26920    -999.25    0.25720    2.57860    2.35520    0.26620    0.26620  -10.20780   -1.92300    2.35520
 7500.00000    9.96050    9.96050  107.15820    0.04400    2.68310    0.01220    -999.25    0.01570    9.33200    0.04400   62.94140   62.94140   36.50180   56.85120   56.85120    9.33200    9.65100    9.65100    0.06110    -999.25    0.05530    2.68310   10.34660    0.04940    0.04940  -11.09900   -2.87180   10.34660
 7550.00000   10.61010   10.61010  101.05090    0.01390    2.63940    0.03670    -999.25    0.04130    9.89600    0.01390   60.69590   60.69590   33.54480   54.18990   54.18990    9.89600    9.55680    9.55680    0.04450    -999.25    0.05250    2.63940   11.51000    0.02900    0.02900  -13.28980   -5.24850   11.51000
