~Version ---------------------------------------------------
VERS. 2.0 : CWLS log ASCII Standard -VERSION 2.0
WRAP. YES : MULTIPLE LINES PER DEPTH STEP
~Well ------------------------------------------------------
STRT.FT                  300.0 : START DEPTH
STOP.FT                14400.0 : STOP DEPTH
STEP.FT               50.00000 : STEP LENGTH
NULL.                  -999.25 : NULL VALUE
COMP.              CONOCO INC. : COMPANY
WELL.       JACQUELYN WOODS #1 : WELL
FLD .                  WILDCAT : FIELD
LOC .                          : LOCATION
CNTY.                ROBERTSON : COUNTY
STAT.                    TEXAS : STATE
CTRY. UNITED STATES OF AMERICA : COUNTRY
SRVC.                          : SERVICE COMPANY
DATE.                          : LOGDATE
API .           42395302880000 : API NUMBER
UWI .           42395302880000 : UNIQUE WELL ID
SLAT.WGS84       31.0997639251 : SURFACE LATITUDE
SLON.WGS84      -96.4923364329 : SURFACE LONGITUDE
~Curve Information -----------------------------------------
DEPT  .FT    : DEPTH
ACED  .US/F  : DELTA TIME
CALRED.IN    : CALIPER FROM RESISTIVITY LOG
RILMED.OHMM  : MEDIUM INDUCTION RESISTIVITY
RFOCED.OHMM  : SHALLOW FOCUSED RESISTIVITY
RILDED.OHMM  : DEEP INDUCTION RESISTIVITY
GRRED .GAPI  : GAMMA RAY FROM RESISTIVITY LOG
TENRED.LBS   : TENSION FROM RESISTIVITY LOG
SFLUED.OHMM  : SPHERICALLY FOCUSED RESISTIVITY
GRDED .GAPI  : GAMMA RAY FROM DENSITY LOG
CALDED.IN    : CALIPER FROM DENSITY LOG
DRHOED.G/C3  : DENSITY CORRECTION
NPHIED.V/V   : NEUTRON POROSITY
RHOBED.G/C3  : BULK DENSITY
TENDED.LBS   : TENSION FROM DENSITY LOG
SRESWS.OHMM  : SHALLOW RESISTIVITY (RFOC+SFLU)
CALWS .IN    : CALIPER
SPED  .MV    : SPONTANEOUS POTENTIAL (BASELINE -10 MV)
SPWS  .MV    : SPONTANEOUS POTENTIAL (BASELINE -10 MV)
DCORWS.G/C3  : DENSITY CORRECTION
GRWS  .GAPI  : GAMMA RAY
DRESWS.OHMM  : DEEP RESISTIVITY (RILD)
MRESWS.OHMM  : MEDIUM RESISTIVITY (RILM)
CONDWS.MMHO  : CONDUCTIVITY FROM DEEP RESISTIVITY
DENWS .G/C3  : BULK DENSITY
DPOWS .V/V   : DENSITY POROSITY (M=2.71 F=1)
NPOWS .V/V   : NEUTRON POROSITY
DTWS  .V/V   : DELTA TIME
~Params ----------------------------------------------------
EKB .F                 513.38 : KELLY BUSHING
EGL .F                 483.38 : ELEVATION GROUND LEVEL
EDF .F                 512.38 : ELEVATION DERRICK FLOOR
EPD .F                 483.38 : ELEVATION PERMANENT DATUM
TD  .F                12197.0 : TOTAL DEPTH
DATE.             17-MAR-1984 : DATE LOGGED
CLNT.                 A2DTECH : CLIENT CODE
SL  . 3400' FNEL & 3500' FNWL : SURFACE LOCATION
PD  .                      GL : PERMANENT DATUM
LMF .                      KB : LOG MEASURED FROM
DMF .                      KB : DRILLING MEASURED FROM
DAPD.F                     30 : FEET ABOVE PERMANENT DATUM
DD  .F                  12195 : DEPTH DRILLER
DL  .F                  12197 : DEPTH LOGGER
BLI .F                  12195 : BOTTOM LOG INTERVAL
TLI .F                  11950 : TOP LOG INTERVAL
CS1 .IN                13.375 : CASING SIZE
CBD1.         13.375" @ 5096' : CASING DRILLER 1
BS1 .IN                 12.25 : BIT SIZE
BSD1.F                  12195 : DEPTH DRILLED WITH BIT1
DFT .             GEL/CAUSTIC : TYPE FLUID IN HOLE
DFD .                     9.8 : DENSITY
DFV .                      44 : VISCOSITY
DFPH.                      11 : PH
DFL .                    11.2 : FLUID LOSS
MSS .                    TANK : SOURCE OF SAMPLE
RMS .OHMM                1.95 : RM
RMF .OHMM                1.35 : RMF
RMC .OHMM                2.53 : RMC
MFSS.                    MEAS : SOURCE RMF.
MCSS.                    MEAS : SOURCE RMC.
RMB .OHMM                0.59 : RM. AT BHT
BHT .F                    246 : BHT.
TCS .HRS                    6 : TIME CIRC. STOPPED
TLAB.HRS                    - : TIME LOGGER AT BOTTOM
LUN .                 HL 6304 : LOGGING UNIT NUMBER
LUL .                   BRYAN : LOGGING UNIT LOCATION
ENGI.               R.R. KIRK : RECORDED BY
WITN.            GALE CLAYTOR : WITNESSED BY
ORIG.                5" PRINT : ORIGIN OF DATA
UWI .          42395302880000 : UNIQUE WELL ID
DICO.  A2D TECHNOLOGIES, INC. : DIGITIZING COMPANY
~Other -----------------------------------------------------
# NPHI 890 01 (LIMESTONE)
~ASCII -----------------------------------------------------
  300.00000  146.42800   16.33700    7.06500    6.56300    7.61700   54.90500    -999.25    -999.25    -999.25    -999.25    -999.25    -999.25    -999.25    -999.25    6.56300   16.33700  -19.68520  -19.68520    -999.25   54.90500    7.61700    7.06500  131.28530    -999.25    -999.25    -999.25  146.42800
  350.00000  149.67500   16.27800   11.95100   10.41000   14.22300   47.22100    -999.25    -999.25    -999.25    -999.25    -999.25    -999.25    -999.25    -999.25   10.41000   16.27800  -27.79290  -27.79290    -999.25   47.22100   14.22300   11.95100   70.30870    -999.25    -999.25    -999.25  149.67500
  400.00000  149.18300   16.24400    6.02400    6.35500    6.65200   51.52400    -999.25    -999.25    -999.25    -999.25    -999.25    -999.25    -999.25    -999.25    6.35500   16.24400  -23.89660  -23.89660    -999.25   51.52400    6.65200    6.02400  150.33070    -999.25    -999.25    -999.25  149.18300
  450.00000  153.13600   16.25000    7.16400    6.72700    7.46700   51.53500    0.00000    -999.25    -999.25    -999.25    -999.25    -999.25    -999.25    -999.25    6.72700   16.25000  -20.94530  -20.94530    -999.25   51.53500    7.46700    7.16400  133.92260    -999.25    -999.25    -999.25  153.13600
  500.00000  139.76200   16.19700   10.76000    9.58100   12.37700   50.20400   13.04200    -999.25    -999.25    -999.25    -999.25    -999.25    -999.25    -999.25    9.58100   16.19700  -28.26500  -28.26500    -999.25   50.20400   12.37700   10.76000   80.79500    -999.25    -999.25    -999.25  139.76200
  550.00000  132.63500   16.07400    8.87800    8.45800   10.06200   49.19300   10.27900    -999.25    -999.25    -999.25    -999.25    -999.25    -999.25    -999.25    8.45800   16.07400  -23.07070  -23.07070    -999.25   49.19300   10.06200    8.87800   99.38380    -999.25    -999.25    -999.25  132.63500
  600.00000  156.51600   16.01200    9.44900   12.05100   14.11700   33.68700    3.68500    -999.25    -999.25    -999.25    -999.25    -999.25    -999.25    -999.25   12.05100   16.01200  -21.65980  -21.65980    -999.25   33.68700   14.11700    9.44900   70.83660    -999.25    -999.25    -999.25  156.51600
  650.00000  121.91400   16.23100    6.08800    6.64400    6.15200   61.67900    9.11500    -999.25    -999.25    -999.25    -999.25    -999.25    -999.25    -999.25    6.64400   16.23100  -11.35650  -11.35650    -999.25   61.67900    6.15200    6.08800  162.54880    -999.25    -999.25    -999.25  121.91400
  700.00000  129.10000   16.23700    8.31000    7.49900    8.65000   59.59900    0.00000    -999.25    -999.25    -999.25    -999.25    -999.25    -999.25    -999.25    7.49900   16.23700  -18.21030  -18.21030    -999.25   59.59900    8.65000    8.31000  115.60690    -999.25    -999.25    -999.25  129.10000
  750.00000  131.07400   15.71900   30.64800   22.60100   42.62400   40.49300   16.11100    -999.25    -999.25    -999.25    -999.25    -999.25    -999.25    -999.25   22.60100   15.71900  -44.79110  -44.79110    -999.25   40.49300   42.62400   30.64800   23.46100    -999.25    -999.25    -999.25  131.07400
  800.00000  139.26500   16.26900   17.08200   15.41300   28.75100   37.58200    5.39400    -999.25    -999.25    -999.25    -999.25    -999.25    -999.25    -999.25   15.41300   16.26900  -42.08580  -42.08580    -999.25   37.58200   28.75100   17.08200   34.78140    -999.25    -999.25    -999.25  139.26500
  850.00000  125.31900   16.18800    5.90200    8.00300    6.23800   59.31300   16.02900    -999.25    -999.25    -999.25    -999.25    -999.25    -999.25    -999.25    8.00300   16.18800  -15.61760  -15.61760    -999.25   59.31300    6.23800    5.90200  160.30780    -999.25    -999.25    -999.25  125.31900
  900.00000  129.73400   16.23500   20.75200   17.18100   22.93000   46.01500   30.63500    -999.25    -999.25    -999.25    -999.25    -999.25    -999.25    -999.25   17.18100   16.23500  -38.04540  -38.04540    -999.25   46.01500   22.93000   20.75200   43.61100    -999.25    -999.25    -999.25  129.73400
  950.00000  130.69700   16.20000    7.06500    8.59600    7.85100   63.68000   29.08300    -999.25    -999.25    -999.25    -999.25    -999.25    -999.25    -999.25    8.59600   16.20000  -14.85720  -14.85720    -999.25   63.68000    7.85100    7.06500  127.37230    -999.25    -999.25    -999.25  130.69700
 1000.00000  130.81000   16.19700   37.59600   26.68900   66.65800   40.12500    7.17900    -999.25    -999.25    -999.25    -999.25    -999.25    -999.25    -999.25   26.68900   16.19700  -42.29490  -42.29490    -999.25   40.12500   66.65800   37.59600   15.00200    -999.25    -999.25    -999.25  130.81000
 1050.00000  131.08900   16.25300    8.04100    7.51000    8.03700   62.20500   13.71200    -999.25    -999.25    -999.25    -999.25    -999.25    -999.25    -999.25    7.51000   16.25300  -18.53470  -18.53470    -999.25   62.20500    8.03700    8.04100  124.42450    -999.25    -999.25    -999.25  131.08900
 1100.00000  125.78600   16.22400   12.63700    9.98700   14.11700   54.80800    5.29100    -999.25    -999.25    -999.25    -999.25    -999.25    -999.25    -999.25    9.98700   16.22400  -25.97050  -25.97050    -999.25   54.80800   14.11700   12.63700   70.83660    -999.25    -999.25    -999.25  125.78600
 1150.00000  128.73300   16.19700   18.94100   14.19000   26.68600   47.67100   14.79300    -999.25    -999.25    -999.25    -999.25    -999.25    -999.25    -999.25   14.19000   16.19700  -31.66020  -31.66020    -999.25   47.67100   26.68600   18.94100   37.47280    -999.25    -999.25    -999.25  128.73300
 1200.00000  129.69500   16.22300   20.78500   14.38600   30.22700   46.30200   32.83200    -999.25    -999.25    -999.25    -999.25    -999.25    -999.25    -999.25   14.38600   16.22300  -33.28000  -33.28000    -999.25   46.30200   30.22700   20.78500   33.08300    -999.25    -999.25    -999.25  129.69500
 1250.00000  130.42100   16.15400    5.90200    5.99200    6.06600   59.13100   18.72000    -999.25    -999.25    -999.25    -999.25    -999.25    -999.25    -999.25    5.99200   16.15400  -22.87780  -22.87780    -999.25   59.13100    6.06600    5.90200  164.85330    -999.25    -999.25    -999.25  130.42100
 1300.00000  122.99900   16.19700   20.49000   13.62100   30.22700   42.69700   39.06200    -999.25    -999.25    -999.25    -999.25    -999.25    -999.25    -999.25   13.62100   16.19700  -28.90850  -28.90850    -999.25   42.69700   30.22700   20.49000   33.08300    -999.25    -999.25    -999.25  122.99900
 1350.00000  125.20200   16.22900    7.46700    6.74600    8.18500   58.97900   22.56300    -999.25    -999.25    -999.25    -999.25    -999.25    -999.25    -999.25    6.74600   16.22900  -33.79630  -33.79630    -999.25   58.97900    8.18500    7.46700  122.17470    -999.25    -999.25    -999.25  125.20200
 1400.00000  126.58800   16.14100    2.71400    3.74900    2.83500   62.05600    9.15800    -999.25    -999.25    -999.25    -999.25    -999.25    -999.25    -999.25    3.74900   16.14100  -22.34310  -22.34310    -999.25   62.05600    2.83500    2.71400  352.73370    -999.25    -999.25    -999.25  126.58800
 1450.00000  130.04200   16.19700    2.54600    3.36300    2.42500   62.66700    0.00000    -999.25    -999.25    -999.25    -999.25    -999.25    -999.25    -999.25    3.36300   16.19700  -20.19980  -20.19980    -999.25   62.66700    2.42500    2.54600  412.37120    -999.25    -999.25    -999.25  130.04200
 1500.00000  130.06600   16.19700    2.64200    3.47400    2.71700   60.48400   23.43100    -999.25    -999.25    -999.25    -999.25    -999.25    -999.25    -999.25    3.47400   16.19700  -20.26560  -20.26560    -999.25   60.48400    2.71700    2.64200  368.05300    -999.25    -999.25    -999.25  130.06600
 1550.00000  125.41900   16.19700    3.20800    3.75300    3.19200   55.38000   14.79300    -999.25    -999.25    -999.25    -999.25    -999.25    -999.25    -999.25    3.75300   16.19700  -21.34640  -21.34640    -999.25   55.38000    3.19200    3.20800  313.28320    -999.25    -999.25    -999.25  125.41900
