~Version ---------------------------------------------------
VERS. 2.0 : CWLS log ASCII Standard -VERSION 2.0
WRAP. YES : MULTIPLE LINES PER DEPTH STEP
~Well ------------------------------------------------------
STRT.FT                   1650.0 : START DEPTH
STOP.FT                   8150.0 : STOP DEPTH
STEP.FT                 50.00000 : STEP LENGTH
NULL.                    -999.25 : NULL VALUE
COMP. CHAMPLIN PETROLEUM COMPANY : COMPANY
WELL. STEDMAN RANCH BETTY ANN #1 : WELL
FLD .                    WILDCAT : FIELD
LOC .                            : LOCATION
CNTY.                     DIMMIT : COUNTY
STAT.                      TEXAS : STATE
CTRY.   UNITED STATES OF AMERICA : COUNTRY
SRVC.               Schlumberger : SERVICE COMPANY
DATE.                02-May-1978 : LOGDATE
API .             42127316900000 : API NUMBER
UWI .             42127316900000 : UNIQUE WELL ID
SLAT.WGS84         28.2409522221 : SURFACE LATITUDE
SLON.WGS84        -99.9298835912 : SURFACE LONGITUDE
~Curve Information -----------------------------------------
DEPT  .FT    : DEPTH FEET
SPWS  .MV    : SPONTANEOUS POTENTIAL [BASELINE 0 MV] [SPRED.  REVERSED IN SHALLOW SECTION]
CALWS .IN    : CALIPER [CALDED]
DCORWS.G/C3  : DENSITY CORRECTION [CORRED]
GRWS  .GAPI  : GAMMA RAY [GRDED]
SRESWS.OHMM  : SHALLOW RESISTIVITY [LL8ED]
MRESWS.OHMM  : MEDIUM RESISTIVITY [ILMED]
SPRED .MV    : SPONTANEOUS POTENTIAL FROM RESISTIVITY LOG
DTED  .US/F  : DELTA TIME FROM SONIC LOG
LL8ED .OHMM  : 8 INCH LATEROLOG RESISTIVITY
ILDED .OHMM  : INDUCTION LOG DEEP RESISTIVITY
ILMED .OHMM  : INDUCTION LOG MEDIUM RESISTIVITY
NPHIED.V/V   : NEUTRON POROSITY SANDSTONE AND LIMESTONE FROM DENSITY LOG [MATRIX CHANGE AT 5822 TO LIMESTONE] [DEPTH SHIFTED TO RES.]
CALDED.IN    : CALIPER FROM DENSITY LOG [DEPTH SHIFTED TO RES.]
CORRED.G/C3  : DENSITY CORRECTION FROM DENSITY LOG [DEPTH SHIFTED TO RES.]
DRESWS.OHMM  : DEEP RESISTIVITY [ILDED]
GRDED .GAPI  : GAMMA RAY FROM DENSITY LOG [DEPTH SHIFTED TO RES.]
RHOBED.G/C3  : BULK DENSITY FROM DENSITY LOG [DEPTH SHIFTED TO RES.]
CONDWS.MMHO  : CONDUCTIVITY [1000/DRESws]
NPOWS .V/V   : NEUTRON POROSITY SANDSTONE AND LIMESTONE [NPHIED.  MATRIX CHANGE TO LIMESTONE AT 5822]
DENWS .G/C3  : BULK DENSITY [M=2.68 F=1.0 TO 5838 FEET, THEN 2.71, 1 TO TD] [RHOBED]
DPOWS .V/V   : DENSITY POROSITY [M=2.68 F=1.0 TO 5838 FEET, THEN 2.71, 1 TO TD] [CALCULATED FROM DENws]
DTWS  .US/F  : DELTA TIME [DTED]
~Params ----------------------------------------------------
PD  .                     GL : PERMANENT DATUM
EPD .FT                  821 : ELEVATION PERMANENT DATUM
LMF .                     KB : LOG MEASURED FROM
DAPD.FT                  9.7 : FEET ABOVE PERMANENT DATUM
DMF .                     KB : DRILLING MEASURED FROM
EKB .FT                830.7 : KELLY BUSHING
EDF .FT                829.7 : DRILLING FLOOR
EGL .FT                821.0 : GROUND LEVEL
DATE.               05/02/78 : RUN DATE
RUN .                      1 : RUN NUMBER
DD  .FT                 8186 : DEPTH DRILLER
DL  .FT                 8167 : DEPTH LOGGER
BLI .FT                 8166 : BOTTOM LOG INTERVAL
TLI .FT                 1612 : TOP LOG INTERVAL
CS  .IN                8.625 : CASING SIZE
CBD .FT                 1610 : CASING BOTTOM DRILLER
CBL .FT                 1612 : CASING BOTTOM LOGGER
BS  .IN                7.875 : BIT SIZE
BSD .FT                 8186 : BIT SIZE AT DEPTH
DFT .   SPER GEL  SALT WATER : DRILLING FLUID TYPE
DFD .                    9.5 : DRILLING FLUID DENSITY
DFV .                     45 : DRILLING FLUID VISCOSITY
DFPH.                    8.5 : DRILLING FLUID PH
MSS .               FLOWLINE : MUD SAMPLE SOURCE
RMS .OHMM              0.456 : RESISTIVITY MUD SAMPLE
MST .FT                   86 : MUD SAMPLE TEMPERATURE
RMF .OHMM                378 : RESISTIVITY MUD FILTRATE SAMPLE
MFST.FT                   86 : MUD FILTRATE SAMPLE TEMPERATURE
RMC .OHMM               0.41 : RESISTIVITY MUD CAKE
MCST.FT                   86 : MUD CAKE SAMPLE TEMPERATURE
MFSS.                      M : MUD FILTRATE SAMPLE SOURCE
MCSS.                      C : MUD CAKE SAMPLE SOURCE
RMB .OHMM               0.24 : RESISTIVITY MUD AT BHT
TCS .HRS                 100 : TIME CURCULATED STOPPED
TLAB.HRS                 700 : TIME LOGGER AT BOTTOM
LUN .                   7769 : LOGGING UNIT NUMBER
LUL .                 LAREDO : LOGGING UNIT LOCATION
ENGI.                  FOGAL : RECORDING ENGINEER
WITN.                 PONDER : WITNESSED BY
CLNT.                A2DTECH : CLIENT CODE
ORIG.               5" PRINT : ORIGIN OF DATA
UWI .         42127316900000 : UNIQUE WELL ID
DICO. A2D Technologies, Inc. : DIGITIZING COMPANY
~Other -----------------------------------------------------
~ASCII -----------------------------------------------------
 1650.00000    1.23480   10.17210    0.03160   58.38100    5.39090    4.92050  -30.55510   94.39620    5.39090    5.15890    4.92050    0.35980   10.17210    0.03160    5.15890   58.38100    2.29300  193.83980    0.35980    2.29300    0.23040   94.39620
 1700.00000    5.07930    9.12670    0.02530   79.32100    6.05540    4.77860  -26.59360   91.82700    6.05540    5.36050    4.77860    0.31700    9.12670    0.02530    5.36050   79.32100    2.32660  186.54980    0.31700    2.32660    0.21040   91.82700
 1750.00000    4.96240    9.10010    0.08400   77.23210    5.97420    6.11110  -26.59360   89.87640    5.97420    5.73170    6.11110    0.31770    9.10010    0.08400    5.73170   77.23210    2.36080  174.46830    0.31770    2.36080    0.19000   89.87640
 1800.00000    9.34430    8.95860    0.07360   53.02580    4.94430    4.72920  -22.09470   89.89530    4.94430    4.55910    4.72920    0.32070    8.95860    0.07360    4.55910   53.02580    2.30120  219.34150    0.32070    2.30120    0.22550   89.89530
 1850.00000   11.67000    8.85350    0.05570   51.90750    5.32690    4.93450  -19.65210   91.19170    5.32690    4.67020    4.93450    0.31050    8.85350    0.05570    4.67020   51.90750    2.28650  214.12360    0.31050    2.28650    0.23420   91.19170
 1900.00000    9.59350    8.55420    0.07460   53.99930    4.89350    5.11100  -21.61160   89.21340    4.89350    4.61190    5.11100    0.32010    8.55420    0.07460    4.61190   53.99930    2.28050  216.83040    0.32010    2.28050    0.23780   89.21340
 1950.00000    1.01120    9.51460    0.00810  112.94640    7.42960    6.85120  -30.07450   85.22950    7.42960    7.23740    6.85120    0.30090    9.51460    0.00810    7.23740  112.94640    2.46980  138.17120    0.30090    2.46980    0.12510   85.22950
 2000.00000    1.34650   10.37540    0.02090   92.70830    7.40210    6.12460  -29.58170   91.67470    7.40210    6.51070    6.12460    0.36670   10.37540    0.02090    6.51070   92.70830    2.42870  153.59330    0.36670    2.42870    0.14960   91.67470
 2050.00000    0.82430   14.36240    0.09840  102.18250    4.90560    4.28220  -29.94640   90.16570    4.90560    4.58810    4.28220    0.33280   14.36240    0.09840    4.58810  102.18250    2.33630  217.95520    0.33280    2.33630    0.20460   90.16570
 2100.00000    1.12450   14.51020    0.13580  101.95620    3.79070    3.34100  -28.69890   94.14180    3.79070    3.59340    3.34100    0.32550   14.51020    0.13580    3.59340  101.95620    2.30340  278.28800    0.32550    2.30340    0.22420   94.14180
 2150.00000    0.07800   11.17660    0.02900  103.12500    4.04760    3.50400  -28.57540   95.23360    4.04760    3.83120    3.50400    0.34400   11.17660    0.02900    3.83120  103.12500    2.42550  261.01480    0.34400    2.42550    0.15150   95.23360
 2200.00000   -0.77200   11.30750    0.19190   76.74110    4.80540    3.75270  -28.25530   89.44250    4.80540    4.24970    3.75270    0.31250   11.30750    0.19190    4.24970   76.74110    2.30430  235.31070    0.31250    2.30430    0.22360   89.44250
 2250.00000   -1.66660   10.75940    0.03180   87.53350    6.82080    4.55070  -27.97980   84.83410    6.82080    4.97760    4.55070    0.26210   10.75940    0.03180    4.97760   87.53350    2.35840  200.90000    0.26210    2.35840    0.19140   84.83410
 2300.00000   -2.28680   14.53820    0.20660   97.73750    2.91110    3.01960  -27.42990   96.61390    2.91110    3.09020    3.01960    0.30450   14.53820    0.20660    3.09020   97.73750    2.10230  323.60370    0.30450    2.10230    0.34390   96.61390
 2350.00000   -1.62470   14.22420    0.12920   93.60120    2.33680    1.85360  -26.88600  110.27230    2.33680    2.18470    1.85360    0.42670   14.22420    0.12920    2.18470   93.60120    1.98260  457.72880    0.42670    1.98260    0.41510  110.27230
 2400.00000   -2.84360   10.93190    0.06520   81.84030    4.64810    4.12240  -28.41560   91.21760    4.64810    4.64200    4.12240    0.26740   10.93190    0.06520    4.64200   81.84030    2.47810  215.42440    0.26740    2.47810    0.12020   91.21760
 2450.00000  -15.65120    9.75500    0.04340   31.23810   10.29820    8.68120  -41.53390   74.21820   10.29820    9.65890    8.68120    0.19850    9.75500    0.04340    9.65890   31.23810    2.41790  103.53150    0.19850    2.41790    0.15600   74.21820
 2500.00000   -6.97390   10.91560    0.01950   43.21510   10.19220    9.23730  -33.16730   74.64090   10.19220    9.99570    9.23730    0.17020   10.91560    0.01950    9.99570   43.21510    2.53920  100.04300    0.17020    2.53920    0.08380   74.64090
 2550.00000   -9.18520   10.30180    0.01520   43.66570   14.32370   13.64840  -35.68930   69.45580   14.32370   13.60110   13.64840    0.13210   10.30180    0.01520   13.60110   43.66570    2.54210   73.52350    0.13210    2.54210    0.08210   69.45580
 2600.00000   -2.06710   10.44730    0.01050   61.45560    9.29660    8.11670  -28.88190   75.24000    9.29660    8.58920    8.11670    0.18340   10.44730    0.01050    8.58920   61.45560    2.57120  116.42530    0.18340    2.57120    0.06480   75.24000
 2650.00000   -6.13800    9.86710    0.05810   54.05420    7.79080    7.07520  -33.26340   77.54370    7.79080    7.33910    7.07520    0.21940    9.86710    0.05810    7.33910   54.05420    2.38230  136.25650    0.21940    2.38230    0.17720   77.54370
 2700.00000   -0.75590   10.37650    0.03370   57.80020   17.00560   11.28550  -28.19200   74.65070   17.00560   10.16020   11.28550    0.17670   10.37650    0.03370   10.16020   57.80020    2.60630   98.42330    0.17670    2.60630    0.04390   74.65070
 2750.00000   -1.72040    9.83820    0.00390   57.02380    9.17370    8.32480  -29.20240   75.62880    9.17370    9.25230    8.32480    0.21650    9.83820    0.00390    9.25230   57.02380    2.57700  108.08120    0.21650    2.57700    0.06130   75.62880
 2800.00000   -5.98350    9.38370    0.01850   73.50360    6.75860    7.01070  -33.43680   85.43160    6.75860    5.83770    7.01070    0.26280    9.38370    0.01850    5.83770   73.50360    2.57860  171.30030    0.26280    2.57860    0.06040   85.43160
 2850.00000   -1.01720   10.51830    0.01310   73.36310    6.78030    6.33760  -28.44170   81.52640    6.78030    5.88800    6.33760    0.22630   10.51830    0.01310    5.88800   73.36310    2.59010  169.83700    0.22630    2.59010    0.05350   81.52640
 2900.00000   -1.59170   10.82440    0.01410   74.85120    7.55760    6.66890  -28.98740   78.87260    7.55760    7.03320    6.66890    0.21850   10.82440    0.01410    7.03320   74.85120    2.58940  142.18280    0.21850    2.58940    0.05390   78.87260
 2950.00000   -4.27760   10.08930    0.00420   73.02630    7.94680    5.83470  -31.64460   78.25120    7.94680    6.19030    5.83470    0.22550   10.08930    0.00420    6.19030   73.02630    2.60330  161.54310    0.22550    2.60330    0.04570   78.25120
 3000.00000   -1.81140    9.68130    0.00940   73.95830    8.34270    7.03440  -29.14960   79.93980    8.34270    6.87150    7.03440    0.23490    9.68130    0.00940    6.87150   73.95830    2.57530  145.52860    0.23490    2.57530    0.06230   79.93980
 3050.00000   -1.18530   10.10850    0.00820   69.06150    8.61440    7.39760  -28.49470   76.86120    8.61440    8.04110    7.39760    0.19710   10.10850    0.00820    8.04110   69.06150    2.59240  124.36110    0.19710    2.59240    0.05210   76.86120
 3100.00000   -1.43430   10.28690    0.01250   78.33330    7.01590    6.08850  -28.71490   80.38900    7.01590    6.30660    6.08850    0.21830   10.28690    0.01250    6.30660   78.33330    2.56180  158.56400    0.21830    2.56180    0.07040   80.38900
 3150.00000   -0.87710   11.27780    0.17100   79.82140    6.64470    4.65200  -28.12900   81.03790    6.64470    5.27840    4.65200    0.25180   11.27780    0.17100    5.27840   79.82140    2.43440  189.45140    0.25180    2.43440    0.14620   81.03790
 3200.00000   -0.91990   12.51790    0.18890   84.01120    3.94710    3.72740  -28.14300   91.01800    3.94710    3.90200    3.72740    0.32410   12.51790    0.18890    3.90200   84.01120    2.15840  256.27880    0.32410    2.15840    0.31050   91.01800
