~Version ---------------------------------------------------
VERS.      2.0 : CWLS log ASCII Standard -VERSION 2.0
WRAP.      YES : Multiple lines per depth step
CREA. 01/04/18 : LAS Creation Date
~Well ------------------------------------------------------
STRT.FT                         3450.0 : START DEPTH
STOP.FT                        13850.0 : STOP DEPTH
STEP.FT                       50.00000 : STEP LENGTH
NULL.                          -999.25 : NULL VALUE
COMP.          TORCH OPERATING COMPANY : COMPANY
WELL.           CAROLYN WARMKE UNIT #1 : WELL
FLD .                          WILDCAT : FIELD
LOC .                                  : LOCATION
CNTY.                          FAYETTE : COUNTY
STAT.                            TEXAS : STATE
CTRY.         UNITED STATES OF AMERICA : COUNTRY
SRVC. HALLIBURTON LOGGING SERVICES INC : SERVICE COMPANY
DATE.                      31-Dec-1991 : LOGDATE
API .                   42149325050000 : API NUMBER
UWI .                   42149325050000 : UNIQUE WELL ID
SLAT.WGS84               30.0718798257 : SURFACE LATITUDE
SLON.WGS84              -96.6577022662 : SURFACE LONGITUDE
~Curve Information -----------------------------------------
DEPT    .FT    : DEPTH FEET
CALRED  .IN    : CALIPER FROM DIL/SDL/DSN LOG
CALWS   .IN    : CALIPER [TOP DCALRD+BIT 13316' CALRED]
CONDWS  .MMHO  : DEEP CONDUCTIVITY [1000/DRESWS]
CORRED  .G/C3  : DENSITY CORRECTION FROM DIL/SDL/DSN LOG
DCALED  .IN    : DIFFERENTIAL CALIPER FROM DENSITY LOG
DENWS   .G/C3  : BULK DENSITY [CALC. FROM DPOLSWS]
DPHILSED.V/V   : DENSITY POROSITY (LS) [M=2.71 F=1.0] FROM DIL/SDL/DSN LOG
DPOLSWS .V/V   : DENSITY POROSITY LIMESTONE [M=2.71 F=1.0] [DPHILSED]
DRESWS  .OHMM  : DEEP RESISTIVITY [ILDED]
DTED    .US/F  : DELTA TIME FROM DIL/LSS LOG
DTWS    .US/F  : DELTA TIME COMPRESSIONAL [DTED]
GRRED   .GAPI  : GAMMA RAY FROM RESISTIVITY LOG
GRWS    .GAPI  : GAMMA RAY [GRRED]
ILDED   .OHMM  : INDUCTION LOG DEEP RESISTIVITY
ILMED   .OHMM  : INDUCTION LOG MEDIUM RESISTIVITY
MRESWS  .OHMM  : MEDIUM RESISTIVITY [ILMED]
NPHILSED.V/V   : NEUTRON POROSITY LIMESTONE FROM DIL/SDL/DSN LOG
NPOLSWS .V/V   : NEUTRON POROSITY LIMESTONE [NPHILSED]
SGUARDED.OHMM  : SHORT GUARD RESISTIVITY
SNED    .OHMM  : 16 INCH SHORT NORMAL RESISTIVITY FROM IEL LOG
SPRED   .MV    : SPONTANEOUS POTENTIAL FROM RESISTIVITY LOG
SPWS    .MV    : SPONTANEOUS POTENTIAL [BASELINE 0 MV] [SPRED]
SRESWS  .OHMM  : SHALLOW RESISTIVITY [TOP SGUARDED 13320' SNED]
TENRED  .LBF   : TENSION FROM RESISTIVITY LOG
~Params ----------------------------------------------------
PD  .                     GL : PERMANENT DATUM
EPD .FT                  387 : ELEVATION PERMANENT DATUM
LMF .                    TKB : LOG MEASURED FROM
DAPD.FT                 22.1 : FEET ABOVE PERMANENT DATUM
DMF .                    TKB : DRILLING MEASURED FROM
EKB .FT                409.1 : KELLY BUSHING
EDF .FT                407.8 : DRILLING FLOOR
EGL .FT                  387 : GROUND LEVEL
DATE.             12/31/1991 : RUN DATE
RUN .                      2 : RUN NUMBER
DD  .FT                13866 : DEPTH DRILLER
DL  .FT                13790 : DEPTH LOGGER
BLI .FT                13788 : BOTTOM LOG INTERVAL
TLI .FT                13316 : TOP LOG INTERVAL
CS  .IN                  6.5 : CASING SIZE
CBD .FT                13316 : CASING BOTTOM DRILLER
CBL .FT                13316 : CASING BOTTOM LOGGER
BS  .IN                 4.75 : BIT SIZE
BSD .FT                13866 : BIT SIZE AT DEPTH
DFT .                    CLS : DRILLING FLUID TYPE
DFD .                   10.6 : DRILLING FLUID DENSITY
DFV .                     45 : DRILLING FLUID VISCOSITY
DFPH.                    9.9 : DRILLING FLUID PH
DFL .                    6.2 : DRILLING FLUID LOSS
MSS .               FLOWLINE : MUD SAMPLE SOURCE
RMS .OHMM               0.86 : RESISTIVITY MUD SAMPLE
MST .DEGF                 75 : MUD SAMPLE TEMPERATURE
RMF .OHMM               0.72 : RESISTIVITY MUD FILTRATE SAMPLE
MFST.DEGF                 75 : MUD FILTRATE SAMPLE TEMPERATURE
RMC .OHMM                1.1 : RESISTIVITY MUD CAKE
MCST.DEGF                 75 : MUD CAKE SAMPLE TEMPERATURE
MFSS.                   MEAS : MUD FILTRATE SAMPLE SOURCE
MCSS.                   MEAS : MUD CAKE SAMPLE SOURCE
RMB .OHMM              0.241 : RESISTIVITY MUD AT BHT
TCS .HRS                1630 : TIME CIRCULATED STOPPED
TLAB.HRS                2324 : TIME LOGGER AT BOTTOM
LUN .                   7678 : LOGGING UNIT NUMBER
LUL .                   VICT : LOGGING UNIT LOCATION
ENGI.         STAPP ROBINSON : RECORDING ENGINEER
WITN.                HOLLIER : WITNESSED BY
CLNT.                A2DTECH : CLIENT CODE
ORIG.               5" PRINT : ORIGIN OF DATA
UWI .         42149325050000 : UNIQUE WELL ID
DICO. A2D Technologies, Inc. : DIGITIZING COMPANY
~Other -----------------------------------------------------
DIL/SDL/DSN PRESENTD FROM TD TO 10600'; DIL/LSS FROM 10600' TO CASING.
ALL POROSITY LOGS RAN ON LIMESTONE MATRIX.
DID NOT RACH TO TD WITH IEL.
LOGS WERE RAN SEPARATELY THEN MURGED TOGETHER.
~ASCII -----------------------------------------------------
# ...
 9250.00000    -999.25   16.72500  487.56700    -999.25    6.85000    -999.25    -999.25    -999.25    2.05100   96.75900   96.75900   81.10410   81.10410    2.05100    2.05600    2.05600    -999.25    -999.25    2.22700    -999.25  -49.23900   -5.30110    2.22700 3565.92550
 9300.00000    -999.25   18.11200  521.92070    -999.25    8.23700    -999.25    -999.25    -999.25    1.91600   82.59400   82.59400   82.63710   82.63710    1.91600    1.92600    1.92600    -999.25    -999.25    2.16000    -999.25  -48.49100   -4.58880    2.16000 3568.60520
 9350.00000    -999.25   18.43800  515.19840    -999.25    8.56300    -999.25    -999.25    -999.25    1.94100   89.45300   89.45300   81.56200   81.56200    1.94100    1.90100    1.90100    -999.25    -999.25    1.96800    -999.25  -49.09000   -5.22340    1.96800 3682.35960
 9400.00000    -999.25   19.17400  559.28410    -999.25    9.29900    -999.25    -999.25    -999.25    1.78800   99.34400   99.34400   76.33920   76.33920    1.78800    1.79400    1.79400    -999.25    -999.25    1.98000    -999.25  -47.75200   -3.92110    1.98000 3661.25460
 9450.00000    -999.25   17.83700  562.11350    -999.25    7.96200    -999.25    -999.25    -999.25    1.77900   98.98700   98.98700   87.26540   87.26540    1.77900    1.78900    1.78900    -999.25    -999.25    1.80600    -999.25  -47.21900   -3.42370    1.80600 3676.65720
 9500.00000    -999.25   16.68600  567.21500    -999.25    6.81100    -999.25    -999.25    -999.25    1.76300  131.59300  131.59300   79.16180   79.16180    1.76300    1.78800    1.78800    -999.25    -999.25    1.76600    -999.25  -47.96520   -4.20560    1.76600 3671.88600
 9550.00000    -999.25   16.11600  610.12810    -999.25    6.24100    -999.25    -999.25    -999.25    1.63900  103.32000  103.32000   56.07080   56.07080    1.63900    1.43500    1.43500    -999.25    -999.25    1.47500    -999.25  -46.83600   -3.11210    1.47500 3730.80620
 9600.00000    -999.25   11.50400  252.20680    -999.25    1.62900    -999.25    -999.25    -999.25    3.96500   74.33900   74.33900   67.88300   67.88300    3.96500    4.36500    4.36500    -999.25    -999.25    4.24700    -999.25  -53.99300  -10.30470    4.24700 3707.94090
 9650.00000    -999.25   10.52800  382.70190    -999.25    0.65300    -999.25    -999.25    -999.25    2.61300   84.91400   84.91400   71.12300   71.12300    2.61300    2.66200    2.66200    -999.25    -999.25    3.30300    -999.25  -50.03200   -6.37940    3.30300 3661.21780
 9700.00000    -999.25   11.90200  494.31540    -999.25    2.02700    -999.25    -999.25    -999.25    2.02300   90.00000   90.00000   77.87960   77.87960    2.02300    2.10100    2.10100    -999.25    -999.25    2.43200    -999.25  -46.95400   -3.33700    2.43200 3659.05030
 9750.00000    -999.25   12.07800  455.16610    -999.25    2.20300    -999.25    -999.25    -999.25    2.19700   84.46100   84.46100   67.53890   67.53890    2.19700    2.33700    2.33700    -999.25    -999.25    2.58100    -999.25  -49.06700   -5.48570    2.58100 3637.93850
 9800.00000    -999.25   12.45000  668.44920    -999.25    2.57500    -999.25    -999.25    -999.25    1.49600  101.49200  101.49200   63.65470   63.65470    1.49600    1.48600    1.48600    -999.25    -999.25    1.71600    -999.25  -45.66600   -2.12030    1.71600 3764.63180
 9850.00000    -999.25   12.41400  695.41030    -999.25    2.53900    -999.25    -999.25    -999.25    1.43800  100.13900  100.13900   62.02310   62.02310    1.43800    1.45400    1.45400    -999.25    -999.25    1.55800    -999.25  -45.60800   -2.09800    1.55800 3803.40750
 9900.00000    -999.25   14.26700  648.92930    -999.25    4.39200    -999.25    -999.25    -999.25    1.54100  220.66000  220.66000   58.10220   58.10220    1.54100    1.50000    1.50000    -999.25    -999.25    1.86300    -999.25  -46.92400   -3.44970    1.86300 3860.03590
 9950.00000    -999.25   14.93300  641.84850    -999.25    5.05800    -999.25    -999.25    -999.25    1.55800  102.58600  102.58600   67.10430   67.10430    1.55800    1.57300    1.57300    -999.25    -999.25    1.68200    -999.25  -47.33100   -3.89230    1.68200 3976.14750
 10000.00000    -999.25   14.97800  598.44400    -999.25    5.10300    -999.25    -999.25    -999.25    1.67100  239.90900  239.90900   63.18130   63.18130    1.67100    1.65700    1.65700    -999.25    -999.25    1.68700    -999.25  -48.10400   -4.70100    1.68700 3920.70000
 10050.00000    -999.25   12.88900  703.72980    -999.25    3.01400    -999.25    -999.25    -999.25    1.42100  104.31400  104.31400   64.91480   64.91480    1.42100    1.38400    1.38400    -999.25    -999.25    1.39600    -999.25  -47.35600   -3.98860    1.39600 3832.71120
 10100.00000    -999.25   12.30800  418.06020    -999.25    2.43300    -999.25    -999.25    -999.25    2.39200  112.08700  112.08700   72.54160   72.54160    2.39200    2.55500    2.55500    -999.25    -999.25    2.68100    -999.25  -52.97100   -9.63930    2.68100 3877.36250
 10150.00000    -999.25   10.08300  575.04310    -999.25    0.20800    -999.25    -999.25    -999.25    1.73900   77.32600   77.32600   71.50920   71.50920    1.73900    1.94400    1.94400    -999.25    -999.25    1.78800    -999.25  -51.46500   -8.16890    1.78800 3965.83860
 10200.00000    -999.25   10.20400  436.87200    -999.25    0.32900    -999.25    -999.25    -999.25    2.28900   76.08300   76.08300   69.65190   69.65190    2.28900    2.32500    2.32500    -999.25    -999.25    2.55600    -999.25  -51.62100   -8.36060    2.55600 3973.20290
 10250.00000    -999.25   11.65000  582.75060    -999.25    1.77500    -999.25    -999.25    -999.25    1.71600   91.27200   91.27200   82.30020   82.30020    1.71600    1.69200    1.69200    -999.25    -999.25    2.06100    -999.25  -46.41000   -3.18530    2.06100 3965.06150
 10300.00000    -999.25   11.73600  677.96610    -999.25    1.86100    -999.25    -999.25    -999.25    1.47500   92.08800   92.08800   99.04750   99.04750    1.47500    1.54000    1.54000    -999.25    -999.25    1.75600    -999.25  -44.67300   -1.48390    1.75600 3953.62040
 10350.00000    -999.25   12.13900  473.03690    -999.25    2.26400    -999.25    -999.25    -999.25    2.11400   83.26000   83.26000   77.76750   77.76750    2.11400    2.25800    2.25800    -999.25    -999.25    2.30300    -999.25  -46.16800   -3.01460    2.30300 4052.77370
 10400.00000    -999.25   12.03300  425.71310    -999.25    2.15800    -999.25    -999.25    -999.25    2.34900   82.64400   82.64400   71.27920   71.27920    2.34900    2.46900    2.46900    -999.25    -999.25    2.61700    -999.25  -48.21400   -5.09620    2.61700 3893.54980
 10450.00000    -999.25   14.23400  464.68400    -999.25    4.35900    -999.25    -999.25    -999.25    2.15200   85.23000   85.23000   76.37710   76.37710    2.15200    2.07900    2.07900    -999.25    -999.25    1.94200    -999.25  -45.39500   -2.31290    1.94200 3914.85060
 10500.00000    -999.25   15.86600  641.43680    -999.25    5.99100    -999.25    -999.25    -999.25    1.55900   99.68700   99.68700   80.83970   80.83970    1.55900    1.56400    1.56400    -999.25    -999.25    1.65900    -999.25  -45.29300   -2.24660    1.65900 3947.63160
 10550.00000    -999.25   17.29300  632.91140    -999.25    7.41800    -999.25    -999.25    -999.25    1.58000   93.08200   93.08200   70.81530   70.81530    1.58000    1.59000    1.59000    -999.25    -999.25    1.71600    -999.25  -43.88000   -0.86920    1.71600 3914.75950
 10600.00000    -999.25   17.24900  632.91140    0.06580    7.37400    2.30990    0.23400    0.23400    1.58000  104.91100  104.91100   76.04840   76.04840    1.58000    1.56600    1.56600    0.29240    0.29240    1.62800    -999.25  -52.99100   -9.70520    1.62800 3894.37720
 10650.00000    -999.25   17.56600  706.21470    0.09000    7.69100    2.37480    0.19600    0.19600    1.41600    -999.25    -999.25   79.38540   79.38540    1.41600    1.47500    1.47500    0.27780    0.27780    1.53200    -999.25  -54.82600  -10.63450    1.53200 3933.67550
