~Version ---------------------------------------------------
VERS. 2.0 : CWLS log ASCII Standard -VERSION 2.0
WRAP.  NO : ONE LINE PER DEPTH STEP
~Well ------------------------------------------------------
STRT.F                  2600.0 : START DEPTH
STOP.F                 10950.0 : STOP DEPTH
STEP.F                50.00000 : STEP LENGTH
NULL.                  -999.25 : NULL VALUE
COMP.        PRIMARY FUELS INC : COMPANY
WELL.               COURAND #1 : WELL
FLD .                  WILDCAT : FIELD
LOC .                          : LOCATION
CNTY.                 ATASCOSA : COUNTY
STAT.                    TEXAS : STATE
CTRY. UNITED STATES OF AMERICA : COUNTRY
SRVC.             Schlumberger : SERVICE COMPANY
DATE.              04-May-1985 : LOGDATE
API .           42013332560000 : API NUMBER
UWI .           42013332560000 : UNIQUE WELL ID
SLAT.WGS84       28.9073224722 : SURFACE LATITUDE
SLON.WGS84      -98.4483829135 : SURFACE LONGITUDE
~Curve Information -----------------------------------------
DEPT.F                 : 
RHOB.G/C3 45 350 01 00 : BULK DENSITY
DRHO.G/C3 45 356 01 00 : DENSITY CORRECTION
NPHI.DEC  42 890 03 00 : NEUTRON POROSITY SANDSTONE
DPHI.DEC  45 890 12 00 : DENSITY POROSITY SANDSTONE
DCAL.IN   07 280 30 00 : DIFFERENTIAL CALIPER
DT  .US/F 60 520 00 00 : INTERVAL TRANSIT TIME
GRR .GAPI 07 310 01 00 : GAMMA RAY
ILD .OHMM 07 120 46 00 : INDUCTION LOG DEEP
ILM .OHMM 07 120 44 00 : INDUCTION LOG MEDIUM
SFLU.OHMM 07 220 01 00 : SPHERICALLY FOCUSED LOG UNAVERAGED RESISTIVITY
SPR .MV   07 010 01 00 : SPONTANEOUS POTENTIAL FROM RES. LOG
~Params ----------------------------------------------------
PD  .                     GL : PERMANENT DATUM
EPD .F                   397 : ELEVATION PERMANENT DATUM
LMF .                    RKB : LOG MEASURED FROM
DAPD.F                    18 : FEET ABOVE PERMANENT DATUM
DMF .                    RKB : DRILLING MEASURED FROM
EKB .F                   415 : KELLING BUSHING
EDF .F                   414 : DRILLING FLOOR
EGL .F                   397 : GROUND LEVEL
DATE.               05/04/85 : RUN DATE
RUN .                      1 : RUN NUMBER
DD  .F                 11008 : DEPTH DRILLER
DL  .F                 10974 : DEPTH LOGGER
BLI .F                 10974 : BOTTOM LOG INTERVAL
TLI .F                  2642 : TOP LOG INTERVAL
CS  .IN                9.625 : CASING SIZE
CBD .F                  2600 : CASING BOTTOM DRILLER
CBL .F                  2642 : CASING BOTTOM LOGGER
BS  .IN                 8.75 : BIT SIZE
BSD .F                 11008 : BIT SIZE AT DEPTH
DFT .                 HL 100 : DRILLING FLUID TYPE
DFD .                   10.1 : DRILLING FLUID DENSITY
DFV .                     41 : DRILLING FLUID VISCOSITY
DFPH.                    8.5 : DRILLING FLUID PH
DFL .                    4.5 : DRILLING FLUID LOSS
MSS .              CIRC TANK : MUD SAMPLE SOURCE
RMS .OHMM              0.961 : RESISTIVITY MUD SAMPLE
MST .F                    75 : MUD SAMPLE TEMPERATURE
RMF .OHMM              0.843 : RESISTIVITY MUD FILTRATE SAMPLE
MFST.F                    75 : MUD FILTRATE SAMPLE TEMPERATURE
RMC .OHMM               1.27 : RESISTIVITY MUD CAKE
MCST.F                    75 : MUD CAKE SAMPLE TEMPERATURE
MFSS.                   CALC : MUD FILTRATE SAMPLE SOURCE
MCSS.                   CALC : MUD CAKE SAMPLE SOURCE
RMB .OHMM              0.488 : RESISTIVITY MUD AT BHT
TCS .HRS                 210 : TIME CURCULATED STOPPED
TLAB.HRS                 915 : TIME LOGGER AT BOTTOM
LUN .                   8258 : LOGGING UNIT NUMBER
LUL .             PLEASANTON : LOGGING UNIT LOCATION
ENGI.              GARY SHAW : RECORDING ENGINEER
WITN.        LEE TIM MAGUIRE : WITNESSED BY
CLNT.                A2DTECH : CLIENT CODE
ORIG.               5" PRINT : ORIGIN OF DATA
UWI .         42013332560000 : UNIQUE WELL ID
DICO. A2D Technologies, Inc. : DIGITIZING COMPANY
~Other -----------------------------------------------------
~ASCII -----------------------------------------------------
 2600.00000    -999.25    -999.25    -999.25    -999.25    -999.25    -999.25   47.81850    -999.25    -999.25    -999.25    -999.25
 2650.00000    -999.25    -999.25    -999.25    -999.25    1.80740  108.81540   47.26400   11.40550    7.22080    8.16580   17.24400
 2700.00000    -999.25    -999.25    -999.25    -999.25    1.63100  110.56280   68.22970    7.41110    5.64810    6.13360    1.39760
 2750.00000    -999.25    -999.25    -999.25    -999.25    1.30070  112.63590   46.08580   16.93040    8.32760   10.75970   18.32680
 2800.00000    -999.25    -999.25    -999.25    -999.25    1.24360  113.76140   60.79880    6.08680    4.87100    5.89680    1.80280
 2850.00000    -999.25    -999.25    -999.25    -999.25    1.27410  113.25930   75.44380    4.58640    3.91850    4.51450   -5.88580
 2900.00000    -999.25    -999.25    -999.25    -999.25    1.09640  111.33190   49.70410    7.17550    4.80350    6.58880    1.79130
 2950.00000    -999.25    -999.25    -999.25    -999.25    1.27410  114.19090   80.10350    6.10300    4.65890    4.56040    1.59450
 3000.00000    -999.25    -999.25    -999.25    -999.25    1.33100  108.40520   73.85150    4.97850    4.29670    4.42290   -5.15730
 3050.00000    -999.25    -999.25    -999.25    -999.25    1.63010  115.33920   86.54020    4.23260    3.67620    3.99320   -7.16510
 3100.00000    -999.25    -999.25    -999.25    -999.25    0.85960  109.61330   59.46920    7.56210    5.54490    6.07090    7.49960
 3150.00000    -999.25    -999.25    -999.25    -999.25    1.51160  114.39100   77.81320    4.17110    3.57450    3.71770   -9.36980
 3200.00000    -999.25    -999.25    -999.25    -999.25    1.80740  120.11690   76.99700    3.41140    3.03710    3.26250   -7.06690
 3250.00000    -999.25    -999.25    -999.25    -999.25    0.97300  109.46600   82.23030    3.17630    3.03700    3.72400  -10.21650
 3300.00000    -999.25    -999.25    -999.25    -999.25    1.95600  114.01030   78.32840    2.51220    2.47710    2.47030   -7.26380
 3350.00000    -999.25    -999.25    -999.25    -999.25    1.52110  116.56760   81.51310    2.98780    2.66030    3.23350   -9.62600
 3400.00000    -999.25    -999.25    -999.25    -999.25    1.39260  115.70300   75.88760    2.01060    1.98550    2.16300   -7.65750
 3450.00000    -999.25    -999.25    -999.25    -999.25    1.09650  102.12790   81.60710    6.88880    4.80350    4.99960    2.60150
 3500.00000    -999.25    -999.25    -999.25    -999.25    1.18520  107.95290   81.87960    4.27020    3.80050    3.83350   -3.28940
 3550.00000    -999.25    -999.25    -999.25    -999.25    1.03900  104.41930   57.28630    5.43630    4.61090    4.68980    7.19930
 3600.00000    -999.25    -999.25    -999.25    -999.25    0.94810  105.80380   48.59470    9.00070    6.24950    6.38950   13.54320
 3650.00000    -999.25    -999.25    -999.25    -999.25    1.00760   82.10060   68.84570    8.28730    7.37680   16.24760    5.80280
 3700.00000    -999.25    -999.25    -999.25    -999.25    1.14420  101.60830   58.57990    8.99250    5.88770    6.19660   13.22840
 3750.00000    -999.25    -999.25    -999.25    -999.25    1.36300  106.80470   62.79370    4.91770    3.94730    5.00840   -3.52360
 3800.00000    -999.25    -999.25    -999.25    -999.25    1.03680   99.70410   60.17750    6.42210    4.84560    6.65560    5.75540
 3850.00000    -999.25    -999.25    -999.25    -999.25    1.23480  100.12410   61.62870    5.13080    4.37310    4.48430  -12.77560
 3900.00000    -999.25    -999.25    -999.25    -999.25    1.21480  121.74560   87.86980    1.68720    1.73870    1.97280   -8.64370
 3950.00000    -999.25    -999.25    -999.25    -999.25    1.12590  100.37080   55.02820    6.06200    4.89540    4.65510    3.12990
 4000.00000    -999.25    -999.25    -999.25    -999.25    1.29710  102.38460   68.78480    3.28790    2.90270    2.60080   -8.93670
 4050.00000    -999.25    -999.25    -999.25    -999.25    1.09630   95.71010   53.84690    8.43530    6.00790    6.13330   16.89000
 4100.00000    -999.25    -999.25    -999.25    -999.25    2.04470  114.20100   77.15940    2.99160    2.75730    2.39570   -8.58280
 4150.00000    -999.25    -999.25    -999.25    -999.25    1.03780   95.85800   46.50770    8.20410    5.65010    5.75880   13.60240
 4200.00000    -999.25    -999.25    -999.25    -999.25    1.03700  100.14650   49.26090    6.16580    4.60340    4.89870    3.85830
 4250.00000    -999.25    -999.25    -999.25    -999.25    1.54330   94.67460   42.63020    9.65890    6.38950    6.45490   11.43700
 4300.00000    -999.25    -999.25    -999.25    -999.25    1.03700   94.97060   42.15960    9.46380    6.26010    6.19650   14.92140
 4350.00000    -999.25    -999.25    -999.25    -999.25    0.97800   90.97600   42.67690   10.06130    7.30040    8.41940   16.08250
 4400.00000    -999.25    -999.25    -999.25    -999.25    0.77040   98.62530   47.92900    8.18610    5.53600    5.48150   17.44170
 4450.00000    -999.25    -999.25    -999.25    -999.25    0.74070   95.26630   61.82220    8.90230    6.32500    6.45560   16.75200
 4500.00000    -999.25    -999.25    -999.25    -999.25    0.80000   97.67830   46.17870    8.63350    6.26030    5.88800   16.35830
 4550.00000    -999.25    -999.25    -999.25    -999.25    0.91850   95.26530   82.39920    3.89190    3.83430    3.68300    0.29540
 4600.00000    -999.25    -999.25    -999.25    -999.25    0.97630   87.84050   43.04970    9.85810    8.57620    8.24930   15.34690
 4650.00000    -999.25    -999.25    -999.25    -999.25    1.50120   93.23260   76.97520    4.82580    4.37240    4.43040    0.61020
 4700.00000    -999.25    -999.25    -999.25    -999.25    1.65770  104.05410   92.30770    1.94070    1.93480    1.83670    2.97240
 4750.00000    -999.25    -999.25    -999.25    -999.25    1.62990  102.26920   96.30180    2.41140    2.36450    2.29960    2.18500
 4800.00000    -999.25    -999.25    -999.25    -999.25    1.80740   93.54160   79.43570    3.78160    3.67940    3.87240   -1.35830
 4850.00000    -999.25    -999.25    -999.25    -999.25    1.68930   99.40690   86.76180    2.41140    2.46210    2.39160    1.53550
 4900.00000    -999.25    -999.25    -999.25    -999.25    1.62930   96.15390   88.31650    2.90210    2.81460    2.90910    0.72850
 4950.00000    -999.25    -999.25    -999.25    -999.25    1.83680   98.30190   89.27810    2.44480    2.54030    2.32340    1.00390
 5000.00000    -999.25    -999.25    -999.25    -999.25    1.80760   93.34320   77.66400    3.14380    2.96250    3.49650    1.59450
 5050.00000    -999.25    -999.25    -999.25    -999.25    1.86670   92.01020   85.65090    2.66730    2.51130    2.40810    2.18500
 5100.00000    -999.25    -999.25    -999.25    -999.25    1.09630  101.47830   88.75680    1.81210    1.82980    1.85570    0.80710
 5150.00000    -999.25    -999.25    -999.25    -999.25   -0.17780  108.57990   92.40360    1.60330    1.63470    1.60820    0.41340
 5200.00000    -999.25    -999.25    -999.25    -999.25    0.97800  104.14150   87.20410    1.49290    1.41640    1.56220    1.14170
 5250.00000    -999.25    -999.25    -999.25    -999.25    1.06680  103.25300   96.30180    1.53930    1.45400    1.55440    1.00390
 5300.00000    -999.25    -999.25    -999.25    -999.25    1.42220  110.69420   97.04490    1.34800    1.30490    1.36570    2.18500
 5350.00000    -999.25    -999.25    -999.25    -999.25    1.27380  111.24170   94.52790    1.34810    1.30500    1.34720    2.18500
 5400.00000    2.33600    0.04540    0.32960    0.20710    1.81900   95.85860   75.00610    1.74480    1.71540    1.77510    2.77560
 5450.00000    2.35850    0.04250    0.36020    0.19070    1.58400   97.63380   81.61750    1.53390    1.56630    1.61860    2.57870
 5500.00000    2.40340    0.08230    0.26460    0.18100    1.40640   86.24260   63.74930    2.80350    2.98100    2.58310   -8.77900
 5550.00000    2.38090    0.03340    0.33980    0.17790    1.67280   96.69710   73.01470    1.87470    1.89380    1.84880   -0.57090
 5600.00000    2.42290    0.05800    0.34250    0.15130    1.49510   94.08280   81.83790    3.42590    3.12490    2.38880   -1.16140
