~Version ---------------------------------------------------
VERS. 2.0 : CWLS log ASCII Standard -VERSION 2.0
WRAP. YES : MULTIPLE LINES PER DEPTH STEP
~Well ------------------------------------------------------
STRT.FT                        2500.0 : START DEPTH
STOP.FT                       18000.0 : STOP DEPTH
STEP.FT                      50.00000 : STEP LENGTH
NULL.                         -999.25 : NULL VALUE
COMP. UNION PACIFIC RESOURCES COMPANY : COMPANY
WELL.       UPR T-BAR-X KING COBRA #1 : WELL
FLD .                         WILDCAT : FIELD
LOC .                                 : LOCATION
CNTY.                            LEON : COUNTY
STAT.                           TEXAS : STATE
CTRY.        UNITED STATES OF AMERICA : COUNTRY
SRVC.                    Schlumberger : SERVICE COMPANY
DATE.                     05-Nov-1997 : LOGDATE
API .                  42289312660000 : API NUMBER
UWI .                  42289312660000 : UNIQUE WELL ID
SLAT.WGS84              31.2008912115 : SURFACE LATITUDE
SLON.WGS84             -96.2874133979 : SURFACE LONGITUDE
~Curve Information -----------------------------------------
DEPT    .FT    : DEPTH FEET
AT10ED  .OHMM  : 10 INCH RESISTIVITY TWO FOOT RESOLUTION FROM AIT LOG
AT20ED  .OHMM  : 20 INCH RESISTIVITY TWO FOOT RESOLUTION FROM AIT LOG
AT30ED  .OHMM  : 30 INCH RESISTIVITY TWO FOOT RESOLUTION FROM AIT LOG
AT60ED  .OHMM  : 60 INCH RESISTIVITY TWO FOOT RESOLUTION FROM AIT LOG
AT90ED  .OHMM  : 90 INCH RESISTIVITY TWO FOOT RESOLUTION FROM AIT LOG
CALDED  .IN    : CALIPER FROM DENSITY LOG [DEP ADJ TO GRRED]
CALRED  .IN    : CALIPER FROM RESISTIVITY LOG
CALWS   .IN    : CALIPER [2484 CALICAL 15888 CALRED]
CGRDED  .GAPI  : GAMMA RAY FROM DENSITY LOG [DEP ADJ TO GRRED]
CONDWS  .MMHO  : CONDUCTIVITY [1000/DRESWS]
DCALED  .IN    : DIFFERENTIAL CALIPER FROM DENSITY LOG
DCORWS  .G/C3  : DENSITY CORRECTION [2484 DRHOED 9946 DRHED 15888.5 DRHOED]
DENWS   .G/C3  : BULK DENSITY [M=2.71 F=1.0] [CALCULATED FROM DPOWS]
DPHILSED.V/V   : DENSITY POROSITY [M=2.71 F=1.0] FROM DENSITY LOG [DEP ADJ TO GRRED]
DPOLSED .V/V   : DENSITY POROSITY HIGH RESOLUTION [M=2.71 F=1.0] FROM DENSITY LOG
DPOWS   .V/V   : DENSITY POROSITY [M=2.71 F=1.0] [2484 DPHILSED 9942 DPOLSED 15888 DPHILSED]
DRESWS  .OHMM  : DEEP RESISTIVITY [A2484 AT90ED 9948.5 IDPHED 15892 LLDED]
DRHED   .G/C3  : DENSITY CORRECTION
DRHOED  .G/C3  : DENSITY CORRECTION FROM DENSITY LOG [DEP ADJ TO GRRED]
DTCOED  .US/F  : DELTA TIME COMPRESSIONAL FROM SONIC LOG [DEP ADJ TO GRRED]
DTED    .US/F  : DELTA TIME FROM SONIC LOG
DTLED   .US/F  : DELTA TIME LONG SPACING FROM SONIC LOG
DTLFED  .US/F  : DELTA TIME LONG SPACING FAR DETECTOR FROM SONIC LOG
DTLNED  .US/F  : DELTA TIME LONG SPACING NEAR DETECTOR FROM SONIC LOG
DTSMED  .US/F  : DELTA TIME SHEAR WAVE FROM SONIC LOG [DEP ADJ TO GRRED]
DTSWS   .US/F  : DELTA TIME SHEAR [DTSMED]
DTWS    .US/F  : DELTA TIME [2484 DTLNED 10155.5 DTLFED 10297.5 DTLNED 10506.5 DTLFED 10628.5 DTLNED 10694 DTLFED 10859 DTLNED 11620 DTLFED 13285.5 DTLNED 14723 DTLFED 15057 DTLNED 15798 DTLFED 15889.5 DTED 15912.5 DTCOED]
GRRED   .GAPI  : GAMMA RAY FROM RESISTIVITY LOG
GRSED   .GAPI  : GAMMA RAY FROM SONIC LOG [DEP ADJ TO GRRED]
GRWS    .GAPI  : GAMMA RAY [2484 GRRED 9881.5 GRREDNRM 9946 GRRED 15728.5 GRSEDNRM 15878 CGRDED 16070 GRRED]
IDPHED  .OHMM  : INDUCTION DEEP PHASE RESISTIVITY
IMPHED  .OHMM  : INDUCTION MEDIUM PHASE RESISTIVITY
LLDED   .OHMM  : LATEROLOG DEEP RESISTIVITY
LLSED   .OHMM  : LATEROLOG SHALLOW RESISTIVITY
MRESWS  .OHMM  : MEDIUM RESISTIVITY [2484 AT30ED 9949.5 IMPHED]
NPHILSED.V/V   : NEUTRON POROSITY LIMESTONE FROM DENSITY LOG [DEP ADJ TO GRRED]
NPOWS   .V/V   : NEUTRON POROSITY LIMESTONE [2484 NPHILSED 15780.5 NPHILNRM 15883.5 NPHILSED]
PEFED   .B/E   : PHOTOELECTRIC FACTOR FROM DENSITY LOG
PEFLED  .B/E   : PHOTOELECTRIC FACTOR FROM DENSITY LOG
PEFWS   .B/E   : PHOTOELECTRIC FACTOR [2484 PEFED 9952.5 PEFLED]
RESED   .OHMM  : SYNTHETIC RESISTIVITY
SFLUED  .OHMM  : SPHERICALLY FOCUSED LOG RESISTIVITY
SPHILSED.V/V   : SONIC POROSITY FROM SONIC LOG [DEP ADJ TO GRRED]
SPOWS   .V/V   : SONIC POROSITY [CAL FR DTWS; M= 47.6, F=189]
SPRED   .MV    : SPONTANEOUS POTENTIAL FROM RESISTIVITY LOG [SHIFTS ARE REMOVED]
SPWS    .MV    : SPONTANEOUS POTENTIAL [BASELINE 0 MV] [SPRED]
SRESWS  .OHMM  : SHALLOW RESISTIVITY [2484 AT10ED 9945.5 SFLUED 15891.5 LLSED]
TENDED  .LBF   : TENSION FROM DENSITY LOG [DEP ADJ TO GRRED]
TENRED  .LBF   : TENSION FROM RESISTIVITY LOG
~Params ----------------------------------------------------
PD  .                     GL : PERMANENT DATUM
EPD .FT                  348 : ELEVATION PERMANENT DATUM
LMF .                     KB : LOG MEASURED FROM
DAPD.FT                   28 : FEET ABOVE PERMANENT DATUM
DMF .                     KB : DRILLING MEASURED FROM
EKB .FT                  376 : KELLY BUSHING
EDF .FT                  374 : DRILLING FLOOR
EGL .FT                  348 : GROUND LEVEL
DATE.               11/05/97 : RUN DATE
RUN .                      3 : RUN NUMBER
DD  .FT                18038 : DEPTH DRILLER
DL  .FT                18024 : DEPTH LOGGER
BLI .FT                 1800 : BOTTOM LOG INTERVAL
TLI .FT                15888 : TOP LOG INTERVAL
CS  .IN                7.625 : CASING SIZE
CBD .FT                15888 : CASING BOTTOM DRILLER
CBL .FT                15888 : CASING BOTTOM LOGGER
BS  .IN                    6 : BIT SIZE
BSD .FT                18038 : BIT SIZE AT DEPTH
DFT .                POLYMER : DRILLING FLUID TYPE
DFD .                   18.2 : DRILLING FLUID DENSITY
DFV .                     40 : DRILLING FLUID VISCOSITY
DFPH.                      9 : DRILLING FLUID PH
DFL .                    5.6 : DRILLING FLUID LOSS
MSS .       CIRCULATION TANK : MUD SAMPLE SOURCE
RMS .OHMM               1.14 : RESISTIVITY MUD SAMPLE
MST .DEGF                 90 : MUD SAMPLE TEMPERATURE
RMF .OHMM              0.969 : RESISTIVITY MUD FILTRATE SAMPLE
MFST.DEGF                 90 : MUD FILTRATE SAMPLE TEMPERATURE
RMC .OHMM              1.311 : RESISTIVITY MUD CAKE
MCST.DEGF                 90 : MUD CAKE SAMPLE TEMPERATURE
MFSS.             CALCULATED : MUD FILTRATE SAMPLE SOURCE
MCSS.             CALCULATED : MUD CAKE SAMPLE SOURCE
RMB .OHMM              0.278 : RESISTIVITY MUD AT BHT
TCS .HRS                2200 : TIME CIRCULATED STOPPED
TLAB.HRS                 445 : TIME LOGGER AT BOTTOM
LUN .                   8400 : LOGGING UNIT NUMBER
LUL .                   6450 : LOGGING UNIT LOCATION
ENGI.                SKRBICH : RECORDING ENGINEER
WITN.          BLANKE WEAVER : WITNESSED BY
CLNT.                A2DTECH : CLIENT CODE
ORIG.         1" 2" 5" PRINT : ORIGIN OF DATA
UWI .         42289312660000 : UNIQUE WELL ID
DICO. A2D Technologies, Inc. : DIGITIZING COMPANY
~Other -----------------------------------------------------
~ASCII -----------------------------------------------------
# ...
 7750.00000    5.10090    8.08120    6.76240    6.32530    6.10350    -999.25    -999.25   12.42490    -999.25  163.84040    0.17490   -0.00520    2.67840    0.01850    -999.25    0.01850    6.10350    -999.25   -0.00520    -999.25    -999.25    -999.25    -999.25    -999.25    -999.25    -999.25    -999.25   44.40280    -999.25   44.40280    -999.25    -999.25    -999.25    -999.25    6.76240    0.11460    0.11460    4.90170    -999.25    4.90170    4.90170    -999.25    -999.25    -999.25  -60.93180  -11.15670    5.10090    -999.25 3133.33030
 7800.00000    1.15330    1.89780    2.20220    2.90910    2.70950    -999.25    -999.25   16.73720    -999.25  369.07180    4.48720    0.01840    -999.25    -999.25    -999.25    -999.25    2.70950    -999.25    0.01840    -999.25    -999.25    -999.25    -999.25    -999.25    -999.25    -999.25    -999.25   49.15150    -999.25   49.15150    -999.25    -999.25    -999.25    -999.25    2.20220    -999.25    -999.25    9.93960    -999.25    9.93960    9.93960    -999.25    -999.25    -999.25  -60.72180   -8.69590    1.15330    -999.25 3145.66990
 7850.00000    4.98740    7.30720    6.69730    6.06120    6.65510    -999.25    -999.25   12.56230    -999.25  150.26070    0.31230    0.00070    2.67650    0.01960    -999.25    0.01960    6.65510    -999.25    0.00070    -999.25    -999.25    -999.25    -999.25    -999.25    -999.25    -999.25    -999.25   43.90730    -999.25   43.90730    -999.25    -999.25    -999.25    -999.25    6.69730    0.08040    0.08040    5.04560    -999.25    5.04560    5.04560    -999.25    -999.25    -999.25  -66.66750  -16.82750    4.98740    -999.25 3149.38430
 7900.00000   12.73970   36.81520   40.44800   42.44060   44.49300    -999.25    -999.25   12.37060    -999.25   22.47540    0.12060    0.00110    2.69140    0.01090    -999.25    0.01090   44.49300    -999.25    0.00110    -999.25    -999.25    -999.25    -999.25    -999.25    -999.25    -999.25    -999.25   37.08810    -999.25   37.08810    -999.25    -999.25    -999.25    -999.25   40.44800    0.02930    0.02930    5.41300    -999.25    5.41300    5.41300    -999.25    -999.25    -999.25  -72.58510  -24.93100   12.73970    -999.25 3215.60500
 7950.00000   43.15660  111.52120   91.05300   62.75340   60.60880    -999.25    -999.25   12.48620    -999.25   16.49930    0.23620    0.00010    2.71770   -0.00450    -999.25   -0.00450   60.60880    -999.25    0.00010    -999.25    -999.25    -999.25    -999.25    -999.25    -999.25    -999.25    -999.25   24.01150    -999.25   24.01150    -999.25    -999.25    -999.25    -999.25   91.05300    0.00820    0.00820    5.15150    -999.25    5.15150    5.15150    -999.25    -999.25    -999.25  -77.13510  -31.66690   43.15660    -999.25 3185.32180
 8000.00000    1.81500    3.84540    2.87730    2.37500    2.25170    -999.25    -999.25   13.92060    -999.25  444.10890    1.67060   -0.04170    2.11420    0.34840    -999.25    0.34840    2.25170    -999.25   -0.04170    -999.25    -999.25    -999.25    -999.25    -999.25    -999.25    -999.25    -999.25   39.03710    -999.25   39.03710    -999.25    -999.25    -999.25    -999.25    2.87730    0.34340    0.34340    9.79170    -999.25    9.79170    9.79170    -999.25    -999.25    -999.25  -59.79290  -16.51060    1.81500    -999.25 3200.94560
 8050.00000   19.32870  130.92030   98.17160   74.04020   71.89790    -999.25    -999.25   12.33330    -999.25   13.90860    0.08330   -0.00220    2.69940    0.00620    -999.25    0.00620   71.89790    -999.25   -0.00220    -999.25    -999.25    -999.25    -999.25    -999.25    -999.25    -999.25    -999.25   20.84860    -999.25   20.84860    -999.25    -999.25    -999.25    -999.25   98.17160    0.00550    0.00550    5.56560    -999.25    5.56560    5.56560    -999.25    -999.25    -999.25  -58.07720  -16.98080   19.32870    -999.25 3233.17580
 8100.00000    1.61130    1.61250    1.85650    2.09630    2.32600    -999.25    -999.25   14.64950    -999.25  429.92260    2.39950    0.10220    2.12670    0.34110    -999.25    0.34110    2.32600    -999.25    0.10220    -999.25    -999.25    -999.25    -999.25    -999.25    -999.25    -999.25    -999.25   55.73970    -999.25   55.73970    -999.25    -999.25    -999.25    -999.25    1.85650    0.34740    0.34740    7.21180    -999.25    7.21180    7.21180    -999.25    -999.25    -999.25  -56.04250  -17.13200    1.61130    -999.25 3253.26930
 8150.00000    8.40780   25.10530   18.87260   14.46730   13.17740    -999.25    -999.25   12.32700    -999.25   75.88750    0.07700    0.00630    2.70260    0.00430    -999.25    0.00430   13.17740    -999.25    0.00630    -999.25    -999.25    -999.25    -999.25    -999.25    -999.25    -999.25    -999.25   27.10800    -999.25   27.10800    -999.25    -999.25    -999.25    -999.25   18.87260    0.03000    0.03000    5.31210    -999.25    5.31210    5.31210    -999.25    -999.25    -999.25  -56.89870  -20.17410    8.40780    -999.25 3227.02810
 8200.00000   15.85740   53.63020   48.77410   43.95560   39.08200    -999.25    -999.25   12.25140    -999.25   25.58720    0.00140   -0.00570    2.70160    0.00490    -999.25    0.00490   39.08200    -999.25   -0.00570    -999.25    -999.25    -999.25    -999.25    -999.25    -999.25    -999.25    -999.25   37.13400    -999.25   37.13400    -999.25    -999.25    -999.25    -999.25   48.77410    0.00760    0.00760    5.66480    -999.25    5.66480    5.66480    -999.25    -999.25    -999.25  -56.98100  -22.44230   15.85740    -999.25 3292.65040
 8250.00000    5.89370   10.22830    8.49070    7.17920    6.29180    -999.25    -999.25   12.36040    -999.25  158.93700    0.11040    0.01050    2.68880    0.01240    -999.25    0.01240    6.29180    -999.25    0.01050    -999.25    -999.25    -999.25    -999.25    -999.25    -999.25    -999.25    -999.25   43.97070    -999.25   43.97070    -999.25    -999.25    -999.25    -999.25    8.49070    0.10830    0.10830    4.61490    -999.25    4.61490    4.61490    -999.25    -999.25    -999.25  -43.92210  -11.56940    5.89370    -999.25 3309.16410
 8300.00000    6.87410   10.08940    8.84300    8.01300    6.76610    -999.25    -999.25   12.47080    -999.25  147.79560    0.22080    0.08620    2.58710    0.07190    -999.25    0.07190    6.76610    -999.25    0.08620    -999.25    -999.25    -999.25    -999.25    -999.25    -999.25    -999.25    -999.25   41.09860    -999.25   41.09860    -999.25    -999.25    -999.25    -999.25    8.84300    0.06970    0.06970    6.42550    -999.25    6.42550    6.42550    -999.25    -999.25    -999.25  -53.24390  -23.07710    6.87410    -999.25 3287.89600
 8350.00000   20.30430  198.79840   28.02370   16.84590   14.13780    -999.25    -999.25   12.20640    -999.25   70.73240   -0.04360    0.00190    2.71440   -0.00260    -999.25   -0.00260   14.13780    -999.25    0.00190    -999.25    -999.25    -999.25    -999.25    -999.25    -999.25    -999.25    -999.25   28.65780    -999.25   28.65780    -999.25    -999.25    -999.25    -999.25   28.02370    0.00880    0.00880    5.19390    -999.25    5.19390    5.19390    -999.25    -999.25    -999.25 -109.93530  -81.95440   20.30430    -999.25 3306.38130
 8400.00000   15.99930   36.57450   41.71770   51.19530   55.79070    -999.25    -999.25   12.34560    -999.25   17.92410    0.09560   -0.00700    2.68710    0.01340    -999.25    0.01340   55.79070    -999.25   -0.00700    -999.25    -999.25    -999.25    -999.25    -999.25    -999.25    -999.25    -999.25   16.47290    -999.25   16.47290    -999.25    -999.25    -999.25    -999.25   41.71770    0.01580    0.01580    5.95540    -999.25    5.95540    5.95540    -999.25    -999.25    -999.25  -64.59020  -38.62450   15.99930    -999.25 3337.46170
 8450.00000    7.13100    6.56640    6.00550    5.78690    5.74610    -999.25    -999.25   12.28190    -999.25  174.03110    0.03190    0.00370    2.71670   -0.00390    -999.25   -0.00390    5.74610    -999.25    0.00370    -999.25    -999.25    -999.25    -999.25    -999.25    -999.25    -999.25    -999.25   44.71220    -999.25   44.71220    -999.25    -999.25    -999.25    -999.25    6.00550    0.05050    0.05050    4.96010    -999.25    4.96010    4.96010    -999.25    -999.25    -999.25  -39.27460  -15.17280    7.13100    -999.25 3377.98560
