~Version ---------------------------------------------------
VERS. 2.0 : CWLS log ASCII Standard -VERSION 2.0
WRAP.  NO : ONE LINE PER DEPTH STEP
~Well ------------------------------------------------------
STRT.F                   750.0 : START DEPTH
STOP.F                  7050.0 : STOP DEPTH
STEP.F                50.00000 : STEP LENGTH
NULL.                  -999.25 : NULL VALUE
COMP.       GALAXY OIL COMPANY : COMPANY
WELL.   MARRS MCLEAN BOWMAN #1 : WELL
FLD . ROCKY CREEK (GEORGETOWN) : FIELD
LOC .                          : LOCATION
CNTY.                   DIMMIT : COUNTY
STAT.                    TEXAS : STATE
CTRY. UNITED STATES OF AMERICA : COUNTRY
SRVC.                  Unknown : SERVICE COMPANY
DATE.              04-Apr-1977 : LOGDATE
API .           42127312130000 : API NUMBER
UWI .           42127312130000 : UNIQUE WELL ID
SLAT.WGS84       28.5536413845 : SURFACE LATITUDE
SLON.WGS84      -99.9100445309 : SURFACE LONGITUDE
~Curve Information -----------------------------------------
DEPT.F                 : 
GRD .GAPI 45 310 01 00 : GAMMA RAY
CALD.IN   45 280 60 00 : CALIPER
NPHI.DEC  42 890 03 00 : NEUTRON POROSITY SANDSTONE.
DRHO.G/C3 45 356 01 00 : DENSITY CORRECTION
RHOB.G/C3 45 350 01 00 : BULK DENSITY
SP  .MV   99 100 00 00 : SELF POTENTIAL
LL8 .OHMM 07 220 08 00 : LATEROLOG-8 RES.
ILD .OHMM 07 120 46 00 : DEEP INDUCTION RESISTIVITY
CILD.MMHO 07 110 46 00 : CONDUCTIVITY INDUCTION LOG DEEP
~Params ----------------------------------------------------
EKB .F                684.54 : KELLY BUSHING
EGL .F                670.04 : ELEVATION GROUND LEVEL
EDF .F                683.54 : ELEVATION DERRICK FLOOR
EPD .F                670.04 : ELEVATION PERMANENT DATUM
TD  .F                7050.0 : TOTAL DEPTH
DATE.            15-APR-1977 : DATE LOGGED
CLNT.                A2DTECH : CLIENT CODE
SL  .    660' FSL & 660' FWL : SURFACE LOCATION
PD  .                     GL : PERMANENT DATUM
LMF .                     KB : LOG MEASURED FROM
DMF .                     KB : DRILLING MEASURED FROM
DAPD.F                    15 : FEET ABOVE PERMANENT DATUM
DD  .F                  7050 : DEPTH DRILLER
DL  .F                  7050 : DEPTH LOGGER
BLI .F                  7049 : BOTTOM LOG INTERVAL
TLI .F                   765 : TOP LOG INTERVAL
CS1 .IN                8.625 : CASING SIZE
CBD1.          8.625" @ 776' : CASING DRILLER 1
CBL1.F                   765 : CASING LOGGER 1
BS1 .IN                7.875 : BIT SIZE
BSD1.F                  7050 : DEPTH DRILLED WITH BIT1
DFT .        LIGHTLY TREATED : TYPE FLUID IN HOLE
DFD .                   10.4 : DENSITY
DFV .                     60 : VISCOSITY
DFPH.                      9 : PH
DFL .                      6 : FLUID LOSS
MSS .               FLOWLINE : SOURCE OF SAMPLE
RMS .OHMM               0.79 : RM
RMF .OHMM               0.61 : RMF
MFSS.                   MEAS : SOURCE RMF.
RMB .OHMM               0.37 : RM. AT BHT
BHT .F                   177 : BHT.
TCS .HRS                1030 : TIME CIRC. STOPPED
TLAB.HRS                1830 : TIME LOGGER AT BOTTOM
LUN .                   7769 : LOGGING UNIT NUMBER
LUL .                 LAREDO : LOGGING UNIT LOCATION
ENGI.         STECKER/PATTON : RECORDED BY
WITN.     ELLIOTT/MCWILLIAMS : WITNESSED BY
ORIG.             2.5" PRINT : ORIGIN OF DATA
UWI .         42127312130000 : UNIQUE WELL ID
DICO. A2D TECHNOLOGIES, INC. : DIGITIZING COMPANY
~Other -----------------------------------------------------
# NPHI 890 03 (SANDSTONE) 76-4100. NPHI 890 01 (LIMESTONE) 4100-TD.
~ASCII -----------------------------------------------------
# ...
 4400.00000   30.74270    9.78340    0.08940    0.01410    2.69520  -55.18000   10.15200    8.88400   98.21400
 4450.00000   23.51220    9.39760    0.08500    0.01120    2.58870  -55.96200   19.02400   18.83400   63.16100
 4500.00000   25.00070    9.30860    0.08750    0.00150    2.68510  -52.96200   12.72800   13.28000   81.34200
 4550.00000   18.75000    9.29380    0.05760   -0.00300    2.67960  -51.41000    3.51900    0.45400   12.89700
 4600.00000   16.96430    9.27890    0.06500    0.00000    2.68980  -53.44800   17.33900   13.77400   66.99400
 4650.00000   22.17200    9.63500    0.04690    0.02100    2.68850  -55.19800   31.20900   35.60800   28.77000
 4700.00000   22.85450    9.24930    0.06410    0.01710    2.62220  -55.65600   23.95600   32.20200   46.62700
 4750.00000   46.04340    9.32350    0.05090    0.00750    2.67730  -56.06800   29.30400   43.49300   30.25800
 4800.00000   13.97060    9.33840    0.04200   -0.01200    2.68630  -60.16400   45.43700   47.48900   22.81700
 4850.00000   16.96360    9.36800    0.05670    0.00450    2.72360  -56.91800   26.58800   25.21500   42.65900
 4900.00000   14.28720    9.27900    0.05640    0.00000    2.68430  -64.27600   33.10400   32.62400   33.59100
 4950.00000   15.69990    9.11570    0.06870    0.02540    2.66920  -65.67400   26.91500   30.16400   36.04500
 5000.00000   17.60810    9.19860    0.06200    0.00290    2.65630  -61.75400   26.02000   21.19100   52.36200
 5050.00000   28.64610    9.14550    0.08140    0.00150    2.67210  -66.73000   22.68180   20.33760   61.70600
 5100.00000   39.73220    9.11540    0.10450   -0.00300    2.62520  -65.09000   26.68660   20.81410   48.58200
 5150.00000   36.38390    9.24930    0.06920    0.00300    2.67810  -56.02800   85.71340   84.04220   17.52600
 5200.00000   37.50000    9.01820    0.08890    0.02500    2.64410  -62.80200    -999.25    -999.25   19.59300
 5250.00000   42.85710    9.41250    0.06920    0.04040    2.69520  -52.55600    -999.25    -999.25   62.50000
 5300.00000   37.49830    9.01820    0.07680    0.00530    2.63110  -55.83000    -999.25    -999.25   14.88100
 5350.00000   42.26190    9.36800    0.07140   -0.00300    2.68030  -53.99000   83.69400   62.54490   16.86500
 5400.00000   46.86770    8.98480    0.11160    0.00000    2.63240  -51.01000   67.69730   43.12090   22.32700
 5450.00000   45.08890    9.69440    0.19910    0.00370    2.66470  -48.38800   23.90480   10.87080   72.91700
 5500.00000   62.95120    8.98220    0.14020    0.01570    2.57470  -57.45600   98.45440   59.50490   25.30700
 5550.00000   69.41980    9.21960    0.19150    0.01800    2.53730  -46.39200   91.21610   51.15860   18.84900
 5600.00000   71.64350    8.94810    0.13210    0.00450    2.55960  -57.76800  134.46680   61.14980   14.95900
 5650.00000   12.20190    9.45210    0.02950    0.22310    2.66390  -50.54400    -999.25    -999.25   10.91300
 5700.00000   16.81550    9.99100    0.02400    0.15120    2.60870  -66.23800    -999.25    -999.25    5.43400
 5750.00000    9.59820    9.59050    0.01610    0.10780    2.70120  -62.55600    -999.25    -999.25    2.51300
 5800.00000   53.72020   10.82140    0.23300    0.14580    2.60280  -38.16600    4.44360    2.93660  312.50000
 5850.00000   65.17860   13.13650    0.32990    0.13170    2.45830  -40.43600    2.99460    2.62750  342.26200
 5900.00000   57.68440   12.48380    0.27860    0.16800    2.62520  -40.03200    2.93660    2.93660  383.92900
 5950.00000   59.30060   10.88130    0.24550    0.16540    2.56410  -45.30400    3.09120    3.40030  298.61100
 6000.00000   43.75000    9.16020    0.10090    0.02540    2.72950  -52.98800    8.29410    5.66680  175.80600
 6050.00000    9.37500   10.33230    0.00760    0.13020    2.66870  -62.30000    -999.25    -999.25   18.05600
 6100.00000    8.03570    9.01190    0.02410    0.00000    2.58930  -85.54800    -999.25    -999.25   10.91300
 6150.00000   19.27140    9.94670    0.01120    0.20510    2.62520  -65.72600    -999.25    -999.25   14.38500
 6200.00000   14.43450    9.30860    0.00890    0.22310    2.73290  -69.70600    -999.25    -999.25    8.92900
 6250.00000   17.33660    9.83780    0.01880    0.20360    2.60580  -62.54600    -999.25    -999.25   10.03100
 6300.00000   14.28570    8.44810    0.03720    0.12950    2.59540  -72.92000    -999.25    -999.25   13.90100
 6350.00000   14.50930    8.27010    0.02140    0.00000    2.77870  -64.76400    -999.25    -999.25   22.15600
 6400.00000   11.16110    8.27140    0.02770   -0.01030    2.68440  -73.75400    -999.25    -999.25   32.88700
 6450.00000   14.06250    8.40360    0.01610    0.02100    2.70790  -82.42000    -999.25    -999.25   14.45600
 6500.00000   17.23880   10.64280    0.01060    0.08380    2.56560  -84.11000    -999.25    -999.25    6.43900
 6550.00000    6.26850    8.47020    0.00450    0.00600    3.00370  -86.68600    -999.25    -999.25   13.88900
 6600.00000   29.32800    8.38100    0.02250    0.00000    2.84660 -100.72600    -999.25    -999.25    3.98900
 6650.00000   25.07410    8.32940    0.06430   -0.00300    2.71160  -90.41800   46.67500   35.00770   20.83300
 6700.00000   49.55320    8.59850    0.12470    0.00000    2.71460  -94.42000   15.71440   12.62240   72.78400
 6750.00000   44.86610   11.42530    0.02230    0.17220    2.51490 -110.47400   74.49770   71.50940    0.99200
 6800.00000   24.36010    9.04150    0.01250    0.16600    2.62740 -106.56400    -999.25    -999.25    6.74000
 6850.00000   53.57140    8.38880    0.02680   -0.00450    2.74660 -116.71200    -999.25    -999.25    7.63500
 6900.00000   21.87750    9.03810    0.01070    0.23050    2.70560 -138.16600    -999.25    -999.25    6.94400
 6950.00000   30.13650    8.47770    0.01340    0.00750    2.72130 -141.42000    -999.25    -999.25    3.72000
 7000.00000   25.44640    9.43710    0.00870    0.22160    2.57450 -134.39200    -999.25    -999.25    6.94400
 7050.00000    -999.25    7.94360   -0.00800    0.21710    2.63640 -126.29600    -999.25    -999.25   12.89700
