~Version ---------------------------------------------------
VERS. 2.0 : CWLS log ASCII Standard -VERSION 2.0
WRAP. YES : MULTIPLE LINES PER DEPTH STEP
~Well ------------------------------------------------------
STRT.FT                       2050.0 : START DEPTH
STOP.FT                      10550.0 : STOP DEPTH
STEP.FT                     50.00000 : STEP LENGTH
NULL.                        -999.25 : NULL VALUE
COMP. QUINTANA PETROLEUM CORPORATION : COMPANY
WELL.                       HARLE #1 : WELL
FLD .                        BUCKLEY : FIELD
LOC .                                : LOCATION
CNTY.                       LA SALLE : COUNTY
STAT.                          TEXAS : STATE
CTRY.       UNITED STATES OF AMERICA : COUNTRY
SRVC.    HALLIBURTON Sperry Drilling : SERVICE COMPANY
DATE.                    12-Nov-1991 : LOGDATE
API .                 42283314640000 : API NUMBER
UWI .                 42283314640000 : UNIQUE WELL ID
SLAT.WGS84             28.3427642272 : SURFACE LATITUDE
SLON.WGS84            -99.0284847769 : SURFACE LONGITUDE
~Curve Information -----------------------------------------
DEPT    .FT    : DEPTH FEET
CALRED  .IN    : CALIPER FROM RESISTIVITY LOG
CALWS   .IN    : CALIPER [DCALRED+8.75]
CONDWS  .MMHO  : CONDUCTIVITY [1000/DRESWS]
DCALRED .IN    : DIFFERENTIAL CALIPER FROM RESISTIVITY LOG
DCORWS  .G/C3  : DENSITY CORRECTION [DRHOED]
DENWS   .G/C3  : BULK DENSITY  [CALCULATED FROM DPOWS][M=2.65 F=1.0]<9190>[M=2.71 F=1.0]
DFLED   .OHMM  : DIGITALLY FOCUSED LATEROLOG
DPHILSED.V/V   : DENSITY POROSITY [M=2.71 F=1.0] FROM DENSITY LOG
DPHISSED.V/V   : DENSITY POROSITY [M=2.65 F=1.0] FROM DENSITY LOG
DPOWS   .V/V   : DENSITY POROSITY [DPHISSED]<9190>DPHILSED
DRESWS  .OHMM  : DEEP RESISTIVITY [HDRSED]
DRHOED  .G/C3  : DENSITY CORRECTION FROM RES. LOG, DEPTH ADJUSTED WITH [GRRED]
DTED    .US/F  : DELTA TIME FROM SONIC LOG
DTWS    .US/F  : DELTA TIME [DTED]
GRKTED  .GAPI  : GAMMA RAY KT FROM SPECTRAL LOG, DEPTH ADJUSTED WITH [GRRED]
GRKUTED .GAPI  : GAMMA RAY KUT FROM SPECTRAL LOG, DEPTH ADJUSTED WITH [GRRED]
GRR1ED  .GAPI  : GAMMA RAY FROM INDUCTION [ILDED] LOG, DEPTH ADJUSTED WITH [GRRED]
GRRED   .GAPI  : GAMMA RAY FROM RESISTIVITY LOG
GRTHED  .GAPI  : GAMMA RAY TH FROM SPECTRAL LOG, DEPTH ADJUSTED WITH [GRRED]
GRWS    .GAPI  : GAMMA RAY [GRRED]
GUARDED .OHMM  : GUARD LOG RESISTIVITY
HDRSED  .OHMM  : HRI DEEP RESISTIVITY
HMRSED  .OHMM  : HRI MEDIUM RESISTIVITY
ILDED   .OHMM  : INDUCTION LOG DEEP RESISTIVITY , DEPTH ADJUSTED WITH [GRRED]
ILMED   .OHMM  : INDUCTION LOG MEDIUM RESISTIVITY, DEPTH ADJUSTED WITH [GRRED]
MRESWS  .OHMM  : MEDIUM RESISTIVITY [HMRSED]
NPHILSED.V/V   : NEUTRON POROSITY LIMESTONE FROM DENSITY LOG
NPHISSED.V/V   : NEUTRON POROSITY SANDSTONE FROM DENSITY LOG
NPOWS   .V/V   : NEUTRON POROSITY SANDSTONE [NPHISSED]<9190>LIMESTONE [NPHILSED]
SFLED   .OHMM  : SPHERICALLY FOCUSED LOG RESISTIVITY
SPRED   .MV    : SPONTANEOUS POTENTIAL FROM RESISTIVITY LOG
SPWS    .MV    : SPONTANEOUS POTENTIAL [BASELINE 0 MV] [SPRED]
SRESWS  .OHMM  : SHALLOW RESISTIVITY [DFLED]
TENRED  .LBF   : TENSION FROM RESISTIVITY LOG
~Params ----------------------------------------------------
PD  .                     GL : PERMANENT DATUM
EPD .F                 379.7 : ELEVATION PERMANENT DATUM
LMF .                    TKB : LOG MEASURED FROM
DAPD.F                    19 : FEET ABOVE PERMANENT DATUM
DMF .                    TKB : DRILLING MEASURED FROM
EKB .F                 398.7 : KELLING BUSHING
EDF .F                 397.7 : DRILLING FLOOR
EGL .F                 379.7 : GROUND LEVEL
DATE.             11-12-1991 : RUN DATE
RUN .                      1 : RUN NUMBER
DD  .F                 10615 : DEPTH DRILLER
DL  .F                 10568 : DEPTH LOGGER
BLI .F                 10566 : BOTTOM LOG INTERVAL
TLI .F                  2010 : TOP LOG INTERVAL
CS  .IN                9.625 : CASING SIZE
CBD .F                  2012 : CASING BOTTOM DRILLER
CBL .F                  2010 : CASING BOTTOM LOGGER
BS  .IN                 8.75 : BIT SIZE
BSD .F                 10615 : BIT SIZE AT DEPTH
DFT .              LIGNO-HFI : DRILLING FLUID TYPE
DFD .                   10.3 : DRILLING FLUID DENSITY
DFV .                     42 : DRILLING FLUID VISCOSITY
DFPH.                   10.5 : DRILLING FLUID PH
DFL .                    5.7 : DRILLING FLUID LOSS
MSS .               FLOWLINE : MUD SAMPLE SOURCE
RMS .OHMM               1.31 : RESISTIVITY MUD SAMPLE
MST .F                    75 : MUD SAMPLE TEMPERATURE
RMF .OHMM               1.04 : RESISTIVITY MUD FILTRATE SAMPLE
MFST.F                    75 : MUD FILTRATE SAMPLE TEMPERATURE
RMC .OHMM                2.6 : RESISTIVITY MUD CAKE
MCST.F                    75 : MUD CAKE SAMPLE TEMPERATURE
MFSS.                   MEAS : MUD FILTRATE SAMPLE SOURCE
MCSS.                   MEAS : MUD CAKE SAMPLE SOURCE
RMB .OHMM               0.43 : RESISTIVITY MUD AT BHT
TCS .HRS                16.5 : TIME CURCULATED STOPPED
TLAB.HRS                1200 : TIME LOGGER AT BOTTOM
LUN .                  51561 : LOGGING UNIT NUMBER
LUL .                  ALICE : LOGGING UNIT LOCATION
ENGI.                MERRELL : RECORDING ENGINEER
WITN.  MR. EVANS/MR. DUCKETT : WITNESSED BY
CLNT.                A2DTECH : CLIENT CODE
ORIG.               5" PRINT : ORIGIN OF DATA
UWI .         42283314640000 : UNIQUE WELL ID
DICO. A2D Technologies, Inc. : DIGITIZING COMPANY
~Other -----------------------------------------------------
~ASCII -----------------------------------------------------
# ...
 8350.00000    -999.25   10.67910  307.46530    1.92910    -999.25    2.46270    3.40250    -999.25    0.11350    0.11350    3.25240    -999.25   80.66280   80.66280    -999.25    -999.25   82.01650   85.52300    -999.25   85.52300    3.31910    3.25240    3.25810    2.83070    3.03100    3.25810    -999.25    0.29370    0.29370    3.27620  -50.45000  -10.33390    3.40250 3581.18770
 8400.00000   12.07560   12.08340  286.65620    3.33340    -999.25    2.41120    3.12400    -999.25    0.14470    0.14470    3.48850    -999.25   82.77110   82.77110    -999.25    -999.25   84.36630   84.69990    -999.25   84.69990    3.01650    3.48850    3.49000    2.73420    2.86870    3.49000    -999.25    0.30480    0.30480    3.14760  -50.75050  -10.33280    3.12400 3623.38380
 8450.00000   11.51520   11.45350  371.29170    2.70350    0.16990    2.39460    2.91840    -999.25    0.15480    0.15480    2.69330    0.16990   85.03010   85.03010   80.83840   99.09740   87.62580   86.71670   38.91530   86.71670    2.77660    2.69330    2.65090    2.28670    2.42880    2.65090    -999.25    0.34480    0.34480    2.59920  -51.05110  -10.33170    2.91840 3488.48950
 8500.00000   11.13190   10.94830  298.76610    2.19830    0.08570    2.52210    3.60280    -999.25    0.07750    0.07750    3.34710    0.08570   80.81320   80.81320   74.00710   96.32100   84.98090   85.54790   33.35680   85.54790    3.34240    3.34710    3.28060    2.88810    3.11420    3.28060    -999.25    0.26360    0.26360    3.37850  -51.05110  -10.03010    3.60280 3533.94850
 8550.00000   12.18010   12.14240  347.94710    3.39240    0.13070    2.51190    3.09650    -999.25    0.08370    0.08370    2.87400    0.13070   83.07560   83.07560   82.42990  105.91610   92.88880   93.96860   44.86700   93.96860    3.01610    2.87400    2.87900    2.43360    2.66070    2.87900    -999.25    0.28880    0.28880    2.88190  -52.40360  -11.08090    3.09650 3576.17800
 8600.00000   14.61940   14.17640  470.72120    5.42640    0.18490    2.41010    2.18460    -999.25    0.14540    0.14540    2.12440    0.18490   93.16270   93.16270   96.34260  120.98240   95.50190   94.51860   45.76390   94.51860    2.19900    2.12440    2.08420    1.87650    1.94160    2.08420    -999.25    0.33840    0.33840    2.19830  -50.15140   -8.52710    2.18460 3612.91800
 8650.00000   13.91430   13.78720  348.60210    5.03720    0.14900    2.49010    3.01240    -999.25    0.09690    0.09690    2.86860    0.14900   84.03340   84.03340  105.41640  124.86370  102.24310   98.80610   59.99210   98.80610    2.64810    2.86860    2.72490    2.40100    2.50190    2.72490    -999.25    0.30000    0.30000    2.68440  -50.75080   -8.82490    3.01240 3539.55980
 8700.00000   14.12280   13.87700  322.28960    5.12700    0.13690    2.47760    3.09320    -999.25    0.10450    0.10450    3.10280    0.13690   82.16840   82.16840   94.59860  116.91020   94.16380   95.70400   47.61800   95.70400    3.01850    3.10280    3.04170    2.66170    2.93020    3.04170    -999.25    0.26950    0.26950    2.86580  -47.49340   -5.26580    3.09320 3634.60860
 8750.00000   15.28650   15.14340  386.98190    6.39340    0.14600    2.45220    2.58910    -999.25    0.11990    0.11990    2.58410    0.14600   88.19300   88.19300   92.52210  121.40170   92.81890   92.53260   47.21830   92.53260    2.56670    2.58410    2.57910    2.16690    2.34020    2.57910    -999.25    0.28100    0.28100    2.63740  -48.24820   -5.71900    2.58910 3578.86570
 8800.00000   17.49810   17.34690  441.01430    8.59690    0.18830    2.44770    2.26740    -999.25    0.12260    0.12260    2.26750    0.18830   91.09790   91.09790   91.85450  122.65920   91.39880   90.09660   40.85030   90.09660    2.31710    2.26750    2.31060    1.96830    2.06790    2.31060    -999.25    0.30290    0.30290    2.31140  -48.04900   -5.21810    2.26740 3655.40090
 8850.00000   18.75090   18.54080  337.23400    9.79080    0.17950    2.45910    3.01240    -999.25    0.11570    0.11570    2.96530    0.17950   86.30590   86.30590   93.56340  135.34130   97.05250   87.55450   48.79990   87.55450    2.73260    2.96530    2.95920    2.57290    2.66960    2.95920    -999.25    0.24230    0.24230    2.75600  -46.54940   -4.07140    3.01240 3747.41410
 8900.00000   17.41140   17.40990  358.66720    8.65990    0.20000    2.29180    2.81240    -999.25    0.21710    0.21710    2.78810    0.20000   88.84730   88.84730   74.11460  112.03180   84.24240   85.28490   33.57130   85.28490    2.62430    2.78810    2.83970    2.45360    2.49130    2.83970    -999.25    0.29880    0.29880    2.72200  -46.85020   -5.17990    2.81240 3630.43040
 8950.00000   14.84300   14.76450  379.07500    6.01450    0.20000    2.21390    2.60960    -999.25    0.26430    0.26430    2.63800    0.20000   88.18660   88.18660   87.94460  109.94300   87.89250   85.68000   38.63380   85.68000    2.59060    2.63800    2.61490    2.30920    2.41030    2.61490    -999.25    0.34100    0.34100    2.59550  -48.05090   -7.18820    2.60960 3642.13400
 9000.00000   10.62720   10.49570  265.09030    1.74570    0.07440    2.54980    4.01730    -999.25    0.06070    0.06070    3.77230    0.07440   78.74020   78.74020   70.59010   91.75470   83.58460   89.09070   32.86750   89.09070    3.92500    3.77230    3.58710    3.24730    3.70690    3.58710    -999.25    0.23780    0.23780    3.66810  -48.64860   -8.59360    4.01730 3649.85380
 9050.00000   10.74780   10.67070  182.59170    1.92070    0.05920    2.55480    5.67470    -999.25    0.05770    0.05770    5.47670    0.05920   72.64720   72.64720   74.01140   92.29390   81.08830   79.19610   32.82600   79.19610    4.49800    5.47670    5.49340    3.71400    4.20700    5.49340    -999.25    0.20140    0.20140    0.48310  -49.54950  -10.30220    5.67470 3990.82570
 9100.00000   12.25550   12.04350  341.67010    3.29350    0.20000    2.39390    3.33150    -999.25    0.15520    0.15520    2.92680    0.20000   82.94620   82.94620   85.39060  100.94460   85.11350   87.23660   37.96690   87.23660    3.01900    2.92680    2.63280    2.56200    2.65200    2.63280    -999.25    0.30820    0.30820    0.30280  -49.54980  -11.11020    3.33150 3794.90840
 9150.00000   11.53160   11.41920  254.82900    2.66920    0.04090    2.56070    4.25000    -999.25    0.05410    0.05410    3.92420    0.04090   76.54120   76.54120   73.68860   92.14650   80.46100   80.97260   33.85050   80.97260    3.99800    3.92420    3.97680    3.32400    3.66000    3.97680    -999.25    0.21990    0.21990    0.39000  -50.14920  -12.51720    4.25000 3811.96970
 9200.00000   12.10220   12.10420  285.06270    3.35420    0.12770    2.34510    4.12030    0.21340    -999.25    0.21340    3.50800    0.12770   77.72690   77.72690   81.04940  101.98250   88.18020   89.08020   33.87190   89.08020    3.16600    3.50800    3.61190    2.59700    2.97900    3.61190    0.22310    -999.25    0.22310    0.37540  -49.84990  -13.02560    4.12030 3730.31840
 9250.00000   10.99820   10.79140  233.00790    2.04140   -0.00750    2.33680    4.72860    0.21830    -999.25    0.21830    4.29170   -0.00750   79.97300   79.97300   62.49920   86.63160   78.75760   81.62650   23.37170   81.62650    3.58000    4.29170    4.11590    3.08100    3.34700    4.11590    0.21570    -999.25    0.21570    0.44220  -50.75080  -14.73420    4.72860 3789.87110
 9300.00000   11.03830   10.73420  117.12210    1.98420    0.02310    2.45080    8.93460    0.15160    -999.25    0.15160    8.53810    0.02310   70.97870   70.97870   76.99510  100.71150   73.89780   75.99830   36.78680   75.99830    7.46200    8.53810    7.55020    5.41200    6.03300    7.55020    0.21570    -999.25    0.21570    0.62000  -48.04660  -12.83770    8.93460 4123.65870
 9350.00000   11.65080   11.50320  249.04120    2.75320    0.06160    2.59470    4.20630    0.06740    -999.25    0.06740    4.01540    0.06160   78.50250   78.50250   66.44850   80.66770   71.15920   74.49570   25.79970   74.49570    4.36900    4.01540    4.11590    3.97200    4.08300    4.11590    0.15960    -999.25    0.15960    0.48980  -49.54950  -15.14820    4.20630 3957.96900
