~Version ---------------------------------------------------
VERS. 2.0 : CWLS log ASCII Standard -VERSION 2.0
WRAP.  NO : ONE LINE PER DEPTH STEP
~Well ------------------------------------------------------
STRT.F                   300.0 : START DEPTH
STOP.F                 16100.0 : STOP DEPTH
STEP.F                50.00000 : STEP LENGTH
NULL.                  -999.25 : NULL VALUE
COMP.    MOBIL OIL CORPORATION : COMPANY
WELL.     DAISY BRICE BRYNE #1 : WELL
FLD .                  WILDCAT : FIELD
LOC .                          : LOCATION
CNTY.                   ZAVALA : COUNTY
STAT.                    TEXAS : STATE
CTRY. UNITED STATES OF AMERICA : COUNTRY
SRVC.             Schlumberger : SERVICE COMPANY
DATE.              30-Jun-1968 : LOGDATE
API .           42507007550000 : API NUMBER
UWI .           42507007550000 : UNIQUE WELL ID
SLAT.WGS84       28.7751642991 : SURFACE LATITUDE
SLON.WGS84      -99.5625449173 : SURFACE LONGITUDE
~Curve Information -----------------------------------------
DEPT.F                 : 
SPR .MV   05 010 01 00 : SPONTANEOUS POTENTIAL
GRR .GAPI 05 310 01 00 : GAMMA RAY FROM RES.
CALS.IN   60 280 50 00 : CALIPER FROM SONIC LOG
DT  .US/F 60 520 00 00 : ACOUSTIC TRANSIT TIME SLOWNESS, DELTA T
ILD .OHMM 05 120 46 00 : INDUCTION LOG DEEP
ASN .OHMM 05 041 16 00 : AMPLIFIED SHORT NORMAL 16"
~Params ----------------------------------------------------
EKB .F                 748.0 : KELLY BUSHING
EGL .F                   730 : ELEVATION GROUND LEVEL
EDF .F                   0.0 : DRILLING FLOOR
EPD .F                   730 : ELEVATION PERMANENT DATUM
TD  .F               16152.0 : TOTAL DEPTH
DATE.            30-JUN-1968 : DATE LOGGED
CLNT.                A2DTECH : CLIENT CODE
PD  .                     GL : PERMANENT DATUM
LMF .                     KB : LOG MEASURED FROM
DMF .                     KB : DRILLING MEASURED FROM
DAPD.F                    18 : FEET ABOVE PERMANENT DATUM
DD  .F                 16152 : DEPTH DRILLER
DL  .F                 16100 : DEPTH LOGGER
BLI .F                 16090 : BOTTOM LOG INTERVAL
TLI .F                 15700 : TOP LOG INTERVAL
CS1 .IN                7.625 : CASING SIZE
CBD1.        7.625" @ 15700' : CASING DRILLER 1
CBL1.F                 15700 : CASING LOGGER 1
BS1 .IN                  6.5 : BIT SIZE
DFT .                CAUSTIC : TYPE FLUID IN HOLE
DFD .                   11.3 : DENSITY
DFV .                     44 : VISCOSITY
DFPH.                     12 : PH
DFL .                   14.6 : FLUID LOSS
MSS .               FLOWLINE : SOURCE OF SAMPLE
RMS .OHMM               0.24 : RM
RMF .OHMM               0.17 : RMF
MFSS.                   MEAS : SOURCE RMF.
RMC .OHMM               0.21 : RMC
MCSS.                   CALC : SOURCE RMC.
RMB .OHMM               0.07 : RM. AT BHT
BHT .F                   280 : BHT.
TCS .HRS                   6 : TIME CIRC. STOPPED
LUN .                   4540 : LOGGING UNIT NUMBER
LUL .                  PLEAS : LOGGING UNIT LOCATION
ENGI.         MATYEAR-HAMMAR : RECORDED BY
WITN.                 BISHOP : WITNESSED BY
ORIG.          1" & 5" PRINT : ORIGIN OF DATA
UWI .         42507007550000 : UNIQUE WELL ID
DICO. A2D TECHNOLOGIES, INC. : DIGITIZING COMPANY
~Other -----------------------------------------------------
~ASCII -----------------------------------------------------
  300.00000  -20.55210    -999.25   15.93480  146.34060    4.65840    2.99690
  350.00000  -17.06290    -999.25   14.52110  132.47670    3.10560    2.90370
  400.00000  -19.32520    -999.25   15.88260  147.90720    4.58070    2.98140
  450.00000  -19.86200    -999.25   15.66350  128.88760    3.02800    2.55440
  500.00000  -19.17180    -999.25   15.75740  140.99800    2.48450    2.32920
  550.00000  -29.21830    -999.25   15.95440  117.34810    4.73600    4.30900
  600.00000  -22.85280    -999.25   16.01580  119.06160    4.34780    3.50930
  650.00000  -18.48160    -999.25   15.75740  106.30830    5.04660    3.72670
  700.00000  -18.55840    -999.25   15.50700  128.53070    4.73600    3.26090
  750.00000  -20.16870    -999.25   15.76000  126.06410    4.77480    3.61800
  800.00000  -30.06130    -999.25   15.88250  104.86120    5.59010    7.42240
  850.00000  -32.66870    -999.25   15.78870  131.46420    4.38660    3.99070
  900.00000  -68.55830    -999.25   14.47680  113.08410   12.34470   13.04350
  950.00000  -35.65950    -999.25   15.82000  142.90630    2.95030    2.37190
 1000.00000  -34.66260    -999.25   15.60080  121.41710    3.88200    3.54040
 1050.00000  -44.40180    -999.25   15.92960  115.57630    5.78400    5.50470
 1100.00000  -54.44790    -999.25   16.05540  112.40850   17.85710   12.68630
 1150.00000  -35.04600    -999.25   16.05450  140.04010    4.25080    3.96740
 1200.00000  -34.66260    -999.25   16.01850  159.34580    3.57140    4.03730
 1250.00000  -30.06130    -999.25   15.71040  101.33020    8.17160    6.92550
 1300.00000  -46.08850    -999.25   16.02350  111.79900   30.28060   18.91300
 1350.00000  -44.17180    -999.25   15.42880  105.27650   23.09760   20.13980
 1400.00000  -38.19020    -999.25   16.00780  102.02520   26.63040   13.36960
 1450.00000  -47.54600    -999.25   16.02480  102.87510   43.84890   23.12890
 1500.00000  -50.61350    -999.25   16.00550  100.63600   77.01840   28.40060
 1550.00000  -39.26380    -999.25   16.01900   99.76630   41.42070   20.47360
 1600.00000  -57.05520    -999.25   15.77310  104.81570   49.53420   27.06520
 1650.00000  -14.57060    -999.25   15.99820  121.16420    5.74530    6.31210
 1700.00000  -30.36800    -999.25   16.09930  103.34260   48.60250   20.29500
 1750.00000  -38.99540    -999.25   16.01020   97.27410   32.45340   27.31760
 1800.00000  -41.87120    -999.25   16.02210  101.55750   51.97750   30.18630
 1850.00000  -26.09280    -999.25   16.06190   97.27480   14.16930   12.86490
 1900.00000  -15.03070    -999.25   16.03830  100.03890   11.10250    6.78570
 1950.00000  -26.22730    -999.25   16.01970  100.07790   15.64440   10.89280
 2000.00000  -18.40490    -999.25   16.00760  103.27100    8.69570    7.82610
 2050.00000  -29.40950    -999.25   16.02340   99.14310   20.10870   16.91770
 2100.00000  -16.10430    -999.25   16.10980  107.20400    4.77480    4.27020
 2150.00000  -22.00920    -999.25   16.04900   96.02810   10.40370    8.54810
 2200.00000  -43.25150    -999.25   16.05010   98.20860   20.18630   16.42860
 2250.00000  -39.95400    -999.25   16.05110  101.57050   17.46890   14.73600
 2300.00000  -29.14110    -999.25   16.06520   96.09300    8.88980    7.15840
 2350.00000  -37.19330    -999.25   16.07540   97.11770   16.84750   13.32690
 2400.00000  -20.55210    -999.25   16.08550  122.50980   22.20500    8.07450
 2450.00000  -27.26210    -999.25   16.09570  114.35620   15.91610   10.21790
 2500.00000  -20.55220    -999.25   16.10590   99.54530    5.90060    6.47520
 2550.00000  -43.17480    -999.25   15.96090   99.22160   20.10870   15.65990
 2600.00000  -23.00610    -999.25   15.15100  137.85100   12.11180   17.40440
 2650.00000  -19.47850    -999.25   14.81850   95.48200    5.43480    3.72670
 2700.00000  -21.16560    -999.25   15.07280   93.84740    5.12430    4.87580
 2750.00000  -19.78530    -999.25   15.54100   93.84740    4.11490    3.57530
 2800.00000  -19.93870    -999.25   15.66880  109.19000    2.79500    2.37580
 2850.00000  -18.94170    -999.25   15.53840  121.72900    3.80430    3.61030
 2900.00000  -17.63800    -999.25   15.74180   93.45790    3.35790    2.99690
 2950.00000  -20.32210    -999.25   15.79270   96.19030    2.21270    2.20890
 3000.00000  -19.01840    -999.25   16.02930   99.88300    2.63980    2.51550
 3050.00000  -31.13490    -999.25   16.00470   90.18690    6.05590    4.47980
 3100.00000  -28.83440    -999.25   15.96870   84.46260    8.50160    6.79350
 3150.00000  -21.08900    -999.25   16.07060   82.16510    6.23060    5.93560
 3200.00000  -25.46010    -999.25   16.02350   76.42790   10.55900    8.13660
 3250.00000  -23.61950    -999.25   16.04430  101.40190    4.71670    4.28570
 3300.00000  -15.87400    -999.25   14.74540   82.57430    4.65840    5.48120
 3350.00000  -18.63500    -999.25   14.99840   70.08040    8.77310    7.77560
 3400.00000  -19.32520    -999.25   15.06890   73.66940    7.29810    8.63350
 3450.00000  -17.02450    -999.25   15.58530   83.87850    6.52170    5.12810
 3500.00000  -19.32610    -999.25   15.67570   87.69470    3.76560    3.58700
 3550.00000  -18.55830    -999.25   15.41310   84.94940    5.62870    4.80200
 3600.00000  -21.16560    -999.25   15.85910   87.46110    4.50310    4.09940
 3650.00000  -19.93870    -999.25   15.31010   81.98970    5.08540    4.96890
 3700.00000  -21.77980    -999.25   15.90600  100.15600    3.57140    2.90370
 3750.00000  -19.01840    -999.25   16.05480   90.45950    3.72670    3.27640
 3800.00000  -20.24540    -999.25   16.03910   96.40450    3.26090    2.90370
 3850.00000  -20.10480    -999.25   15.96960   94.99610    3.37730    3.00470
 3900.00000  -21.31900    -999.25   16.06520   94.58730    2.87230    2.93480
 3950.00000  -20.78220    -999.25   16.03910   96.49500    2.98910    2.80280
 4000.00000  -20.24540    -999.25   15.75740   97.19630    3.10560    3.02800
 4050.00000  -20.09200    -999.25   15.83310   98.08540    2.52320    2.56990
 4100.00000  -70.85890    -999.25   15.52270   87.35720    3.95960    6.78570
 4150.00000  -30.52120    -999.25   15.78870   88.05820    4.93010    3.94020
 4200.00000  -57.05520    -999.25   15.74180   92.83510    2.01860    4.26070
 4250.00000  -17.94450    -999.25   15.39360   80.42580    4.54180    3.70780
 4300.00000  -27.91410    -999.25   15.31920   86.96760    3.33850    3.04350
 4350.00000  -20.09200    -999.25   15.52250  102.02490    1.66930    2.26710
 4400.00000  -20.85890    -999.25   15.80440   82.52860    2.01860    3.33850
 4450.00000  -19.55520    -999.25   15.83570  101.27210    1.97970    1.93320
 4500.00000  -18.25150    -999.25   15.85120   94.67200    2.40680    2.22050
 4550.00000  -17.86800    -999.25   15.86700   99.84420    2.05740    2.11180
 4600.00000  -17.48470    -999.25   15.53820   86.29280    3.10560    2.76400
 4650.00000  -19.40200    -999.25   15.72610   90.09600    2.52330    2.40300
 4700.00000  -17.94480    -999.25   15.92960   93.14640    2.87270    2.43780
 4750.00000  -13.08800    -999.25   15.91390   93.62020    2.91150    2.36800
 4800.00000  -18.09820    -999.25   15.82000   80.97740    4.84820    4.16150
 4850.00000  -22.16270    -999.25   15.85130   82.96340    4.23140    3.88980
 4900.00000  -20.39880    -999.25   16.07990   84.52770    3.64910    3.82760
 4950.00000  -23.54290    -999.25   15.75740   86.16290    3.99840    3.62580
 5000.00000    -999.25    -999.25    -999.25   97.92230    -999.25    -999.25
 5050.00000  -26.30370    -999.25   16.05290   77.42430    3.16360    3.94740
 5100.00000  -21.28070    -999.25   15.96080   69.63690    3.85800    3.40560
 5150.00000  -20.62880    -999.25   16.03900  110.71620    2.39200    2.55420
 5200.00000  -23.31290    -999.25   15.63340   68.09700    8.02470    7.55420
 5250.00000  -20.78220    -999.25   15.83620   71.89110    4.78400    4.97680
 5300.00000  -21.01230    -999.25   15.55540   71.48250    8.02470    7.04340
 5350.00000  -21.24280    -999.25   15.02490   71.49420    6.94430    9.19500
 5400.00000  -22.08590    -999.25   14.90010   60.84880    7.71600    7.58510
