~Version ---------------------------------------------------
VERS. 2.0 : CWLS log ASCII Standard -VERSION 2.0
WRAP. YES : MULTIPLE LINES PER DEPTH STEP
~Well ------------------------------------------------------
STRT.FT                 2050.0 : START DEPTH
STOP.FT                15100.0 : STOP DEPTH
STEP.FT               50.00000 : STEP LENGTH
NULL.                  -999.25 : NULL VALUE
COMP. BUTTES RESOURCES COMPANY : COMPANY
WELL.             KING GAIL #1 : WELL
FLD .                  WILDCAT : FIELD
LOC .                          : LOCATION
CNTY.                     LEON : COUNTY
STAT.                    TEXAS : STATE
CTRY. UNITED STATES OF AMERICA : COUNTRY
SRVC.             Schlumberger : SERVICE COMPANY
DATE.              13-Apr-1977 : LOGDATE
API .           42289301060000 : API NUMBER
UWI .           42289301060000 : UNIQUE WELL ID
SLAT.WGS84        31.383896527 : SURFACE LATITUDE
SLON.WGS84      -96.2493859425 : SURFACE LONGITUDE
~Curve Information -----------------------------------------
DEPT    .FT    : DEPTH FEET
CALDED  .IN    : CALIPER FROM DENSITY LOG [AJD TO ILDED]
CALWS   .IN    : CALIPER [CALDED]
CONDWS  .MMHO  : CONDUCTIVITY [1000/DRESWS]
CORRED  .G/C3  : DENSITY CORRECTION FROM DENSITY LOG [AJD TO ILDED]
DCORWS  .G/C3  : DENSITY CORRECTION [CORRED]
DENWS   .G/C3  : BULK DENSITY [M=2.71 F=1.0] [CALCULATED FROM DPOWS]
DPHILSED.V/V   : DENSITY POROSITY [M=2.71 F=1.0] FROM DENSITY LOG [AJD TO ILDED]
DPOWS   .V/V   : DENSITY POROSITY [M=2.71 F=1.0] [DPHILSED]
DRESWS  .OHMM  : DEEP RESISTIVITY [ILDED]
DRHOED  .G/C3  : DENSITY CORRECTION FROM DENSITY LOG [AJD TO ILDED]
DTED    .US/F  : DELTA TIME FROM SONIC LOG [AJD TO RHOBED]
DTWS    .US/F  : DELTA TIME [DTED]
GRDED   .GAPI  : GAMMA RAY FROM DENSITY LOG [AJD TO ILDED]
GRWS    .GAPI  : GAMMA RAY [GRDED]
ILDED   .OHMM  : INDUCTION LOG DEEP RESISTIVITY
ILMED   .OHMM  : INDUCTION LOG MEDIUM RESISTIVITY
LL8ED   .OHMM  : 8 INCH LATEROLOG RESISTIVITY
MCALED  .IN    : CALIPER MICROLOG [AJD TO SPRED]
MRESWS  .OHMM  : MEDIUM RESISTIVITY [ILMED]
NPHILSED.V/V   : NEUTRON POROSITY LIMESTONE FROM DENSITY LOG [AJD TO ILDED]
NPOWS   .V/V   : NEUTRON POROSITY LIMESTONE [NPHILSED]
RHOBED  .G/C3  : BULK DENSITY FROM DENSITY LOG [AJD TO ILDED]
SFLED   .OHMM  : SPHERICALLY FOCUSED LOG RESISTIVITY [AJD TO ILDED]
SPMED   .MV    : SPONTANEOUS POTENTIAL FROM MICROLOGLOG [AJD TO SPRED]
SPRED   .MV    : SPONTANEOUS POTENTIAL FROM RESISTIVITY LOG
SPWS    .MV    : SPONTANEOUS POTENTIAL [BASELINE 0 MV] [SPRED]
SRESWS  .OHMM  : SHALLOW RESISTIVITY [SPL SFLED <14485> LL8ED]
TENDED  .LBF   : TENSION FROM DENSITY LOG
~Params ----------------------------------------------------
PD  .                     GL : PERMANENT DATUM
EPD .FT                  503 : ELEVATION PERMANENT DATUM
LMF .                     KB : LOG MEASURED FROM
DAPD.FT                   18 : FEET ABOVE PERMANENT DATUM
DMF .                     KB : DRILLING MEASURED FROM
EKB .FT                  521 : KELLY BUSHING
EDF .FT                  520 : DRILLING FLOOR
EGL .FT                  503 : GROUND LEVEL
DATE.               04/13/77 : RUN DATE
RUN .                      1 : RUN NUMBER
DD  .FT                15147 : DEPTH DRILLER
DL  .FT                15148 : DEPTH LOGGER
BLI .FT                15147 : BOTTOM LOG INTERVAL
TLI .FT                13098 : TOP LOG INTERVAL
CS  .IN                    7 : CASING SIZE
CBD .FT                13097 : CASING BOTTOM DRILLER
CBL .FT                13098 : CASING BOTTOM LOGGER
BS  .IN                    6 : BIT SIZE
BSD .FT                15147 : BIT SIZE AT DEPTH
DFT .               LOW LIME : DRILLING FLUID TYPE
DFD .                   15.7 : DRILLING FLUID DENSITY
DFV .                     48 : DRILLING FLUID VISCOSITY
DFPH.                   12.5 : DRILLING FLUID PH
DFL .                   10.8 : DRILLING FLUID LOSS
MSS .                    PIT : MUD SAMPLE SOURCE
RMS .OHMM               0.89 : RESISTIVITY MUD SAMPLE
MST .DEGF                 75 : MUD SAMPLE TEMPERATURE
RMF .OHMM               0.67 : RESISTIVITY MUD FILTRATE SAMPLE
MFST.DEGF                 75 : MUD FILTRATE SAMPLE TEMPERATURE
RMC .OHMM               0.34 : RESISTIVITY MUD CAKE
MCST.DEGF                 75 : MUD CAKE SAMPLE TEMPERATURE
MFSS.                      M : MUD FILTRATE SAMPLE SOURCE
MCSS.                      C : MUD CAKE SAMPLE SOURCE
RMB .OHMM               0.21 : RESISTIVITY MUD AT BHT
TCS .HRS                2000 : TIME CIRCULATED STOPPED
TLAB.HRS                 300 : TIME LOGGER AT BOTTOM
LUN .                   7659 : LOGGING UNIT NUMBER
LUL .                 DAYTON : LOGGING UNIT LOCATION
ENGI.          CHENAULT EAST : RECORDING ENGINEER
WITN.                  MILES : WITNESSED BY
CLNT.                A2DTECH : CLIENT CODE
ORIG.            2" 5" PRINT : ORIGIN OF DATA
UWI .         42289301060000 : UNIQUE WELL ID
DICO. A2D Technologies, Inc. : DIGITIZING COMPANY
~Other -----------------------------------------------------
~ASCII -----------------------------------------------------
# ...
 13300.00000    6.38090    6.38090  123.00120    -999.25    0.01140    2.64260    0.03940    0.03940    8.13000    0.01140   65.27210   65.27210   55.91900   55.91900    8.13000    7.86320    8.73510    -999.25    7.86320    0.08140    0.08140    2.65380    9.79420    -999.25 -101.17560  -89.63160    9.79420    -999.25
 13350.00000    6.36010    6.36010   87.88580    -999.25   -0.06620    2.47010    0.14030    0.14030   11.37840   -0.06620   70.50090   70.50090   32.51180   32.51180   11.37840    9.91590   10.29180    -999.25    9.91590    0.08090    0.08090    2.47210   16.59410    -999.25  -30.05390  -18.39100   16.59410    -999.25
 13400.00000    6.23840    6.23840  118.57190    -999.25   -0.07840    2.63490    0.04390    0.04390    8.43370   -0.07840   73.76930   73.76930   84.84930   84.84930    8.43370    7.73520    8.90580    -999.25    7.73520    0.17600    0.17600    2.65410   12.42070    -999.25  -14.31870   -2.53700   12.42070    -999.25
 13450.00000    6.52640    6.52640  127.86420    -999.25   -0.10890    2.64040    0.04070    0.04070    7.82080   -0.10890   77.00570   77.00570   93.06460   93.06460    7.82080    6.26360    5.41060    -999.25    6.26360    0.18500    0.18500    2.65860    8.56220    -999.25  -15.97290   -4.07230    8.56220    -999.25
 13500.00000    6.68280    6.68280  180.51190    -999.25   -0.07820    2.64640    0.03720    0.03720    5.53980   -0.07820   77.63520   77.63520   91.00940   91.00940    5.53980    4.98870    5.61230    -999.25    4.98870    0.21050    0.21050    2.66700    8.08150    -999.25  -15.42580   -3.40640    8.08150    -999.25
 13550.00000    6.86860    6.86860  136.70170    -999.25   -0.11890    2.61440    0.05590    0.05590    7.31520   -0.11890   77.55710   77.55710   86.26990   86.26990    7.31520    6.71180    9.33750    -999.25    6.71180    0.20460    0.20460    2.62020    9.52850    -999.25  -14.88460   -2.74630    9.52850    -999.25
 13600.00000    6.94160    6.94160  165.10100    -999.25   -0.11340    2.63950    0.04120    0.04120    6.05690   -0.11340   76.28520   76.28520   78.18680   78.18680    6.05690    5.20980    6.12590    -999.25    5.20980    0.19890    0.19890    2.65060    9.79630    -999.25  -14.01690   -1.75970    9.79630    -999.25
 13650.00000    6.57760    6.57760  113.68290    -999.25   -0.02570    2.61360    0.05640    0.05640    8.79640   -0.02570   61.45870   61.45870   43.20640   43.20640    8.79640    7.91570    7.51620    -999.25    7.91570    0.06520    0.06520    2.62510   16.44740    -999.25  -31.94520  -19.56920   16.44740    -999.25
 13700.00000    7.93630    7.93630  158.20780    -999.25   -0.06730    2.45090    0.15150    0.15150    6.32080   -0.06730   81.30950   81.30950   73.69550   73.69550    6.32080    5.34600    9.03530    -999.25    5.34600    0.22280    0.22280    2.45830   12.25450    -999.25  -16.24710   -3.75220   12.25450    -999.25
 13750.00000    7.69140    7.69140  106.74640    -999.25   -0.02890    2.58820    0.07120    0.07120    9.36800   -0.02890   76.19510   76.19510   70.04070   70.04070    9.36800    6.99810   12.12860    -999.25    6.99810    0.15790    0.15790    2.59000   12.65600    -999.25  -14.13080   -1.51710   12.65600    -999.25
 13800.00000    7.57250    7.57250   89.67890    -999.25   -0.00130    2.61250    0.05700    0.05700   11.15090   -0.00130   77.31860   77.31860   81.55600   81.55600   11.15090    8.91830   12.61970    -999.25    8.91830    0.15620    0.15620    2.62260   53.88170    -999.25  -15.46110   -2.72850   53.88170    -999.25
 13850.00000    8.03910    8.03910  120.36300    -999.25   -0.08200    2.41060    0.17510    0.17510    8.30820   -0.08200   86.73700   86.73700   75.91970   75.91970    8.30820    7.82430   13.10540    -999.25    7.82430    0.25610    0.25610    2.40840   16.48980    -999.25  -15.95140   -3.09990   16.48980    -999.25
 13900.00000    8.12650    8.12650   82.29500    -999.25   -0.12450    2.33890    0.21700    0.21700   12.15140   -0.12450   90.83890   90.83890   76.11730   76.11730   12.15140   11.11800   18.05380    -999.25   11.11800    0.24160    0.24160    2.34210   28.26120    -999.25  -16.91030   -3.94000   28.26120    -999.25
 13950.00000    8.90110    8.90110   50.49540    -999.25   -0.15800    2.28750    0.24710    0.24710   19.80380   -0.15800   89.68530   89.68530   65.87710   65.87710   19.80380   18.28270   35.07820    -999.25   18.28270    0.28240    0.28240    2.28990   43.09740    -999.25  -15.34140   -2.10510   43.09740    -999.25
 14000.00000    8.48670    8.48670  194.04660    -999.25   -0.14590    2.28180    0.25040    0.25040    5.15340   -0.14590   93.67190   93.67190   71.90900   71.90900    5.15340    5.43230    7.06560    -999.25    5.43230    0.27420    0.27420    2.28330    9.49160    -999.25  -18.33720   -4.06280    9.49160    -999.25
 14050.00000    8.72330    8.72330  208.65500    -999.25   -0.15240    2.28460    0.24880    0.24880    4.79260   -0.15240   95.17370   95.17370   59.16450   59.16450    4.79260    4.23950    5.61730    -999.25    4.23950    0.30400    0.30400    2.28270    8.06210    -999.25  -18.47620   -3.16370    8.06210    -999.25
 14100.00000    8.80580    8.80580  133.06720    -999.25   -0.08420    2.36100    0.20410    0.20410    7.51500   -0.08420   95.65450   95.65450   70.25650   70.25650    7.51500    7.10320   10.19430    -999.25    7.10320    0.24150    0.24150    2.36210   13.81680    -999.25  -19.07000   -2.71940   13.81680    -999.25
 14150.00000    8.74030    8.74030  135.98970    -999.25   -0.03440    2.49030    0.12850    0.12850    7.35350   -0.03440  100.71040  100.71040   85.12850   85.12850    7.35350    6.98050    9.32620    -999.25    6.98050    0.23770    0.23770    2.49240   12.70670    -999.25  -22.43690   -5.04820   12.70670    -999.25
 14200.00000    7.81890    7.81890  140.34300    -999.25    0.00360    2.58240    0.07460    0.07460    7.12540    0.00360   93.75500   93.75500   93.62600   93.62600    7.12540    6.50660   10.78530    -999.25    6.50660    0.20930    0.20930    2.58490   11.47520    -999.25  -22.01100   -3.58420   11.47520    -999.25
 14250.00000    8.58690    8.58690  121.92150    -999.25   -0.00450    2.56260    0.08620    0.08620    8.20200   -0.00450   94.50080   94.50080   95.78160   95.78160    8.20200    7.12460   10.88050    -999.25    7.12460    0.23430    0.23430    2.57400   12.22750    -999.25  -24.00990   -4.54500   12.22750    -999.25
 14300.00000    8.26660    8.26660  178.15790    -999.25    0.00560    2.60400    0.06200    0.06200    5.61300    0.00560   89.67310   89.67310   99.33220   99.33220    5.61300    5.38380    9.12350    -999.25    5.38380    0.21750    0.21750    2.62060    8.79090    -999.25  -26.34740   -5.84440    8.79090    -999.25
 14350.00000    7.47310    7.47310  106.26650    -999.25    0.00630    2.67020    0.02330    0.02330    9.41030    0.00630   79.62680   79.62680   89.13220   89.13220    9.41030    8.67260   18.95240    -999.25    8.67260    0.23760    0.23760    2.68800   19.69930    -999.25  -24.52180   -2.98070   19.69930    -999.25
 14400.00000    7.66470    7.66470  128.13780    -999.25   -0.00280    2.64280    0.03930    0.03930    7.80410   -0.00280   88.15700   88.15700  108.04820  108.04820    7.80410    7.36850   10.18810    -999.25    7.36850    0.22490    0.22490    2.65570   12.34820    -999.25  -28.00470   -8.65100   12.34820    -999.25
 14450.00000    8.02720    8.02720  196.67620    -999.25    0.01340    2.61300    0.05670    0.05670    5.08450    0.01340   93.56720   93.56720  106.56940  106.56940    5.08450    4.57120   11.95450    -999.25    4.57120    0.19560    0.19560    2.62240    6.74440    -999.25  -25.77460   -9.92560    6.74440    -999.25
 14500.00000    7.71660    7.71660  222.24690    -999.25   -0.00050    2.62330    0.05070    0.05070    4.49950   -0.00050   91.75450   91.75450  114.91270  114.91270    4.49950    4.42020    5.80590    -999.25    4.42020    0.21510    0.21510    2.62810    -999.25    -999.25  -20.21770   -7.87350    5.80590    -999.25
