~Version ---------------------------------------------------
VERS. 2.0 : CWLS log ASCII Standard -VERSION 2.0
WRAP. YES : MULTIPLE LINES PER DEPTH STEP
~Well ------------------------------------------------------
STRT.FT                  300.0 : START DEPTH
STOP.FT                14400.0 : STOP DEPTH
STEP.FT               50.00000 : STEP LENGTH
NULL.                  -999.25 : NULL VALUE
COMP.              CONOCO INC. : COMPANY
WELL.       JACQUELYN WOODS #1 : WELL
FLD .                  WILDCAT : FIELD
LOC .                          : LOCATION
CNTY.                ROBERTSON : COUNTY
STAT.                    TEXAS : STATE
CTRY. UNITED STATES OF AMERICA : COUNTRY
SRVC.                          : SERVICE COMPANY
DATE.                          : LOGDATE
API .           42395302880000 : API NUMBER
UWI .           42395302880000 : UNIQUE WELL ID
SLAT.WGS84       31.0997639251 : SURFACE LATITUDE
SLON.WGS84      -96.4923364329 : SURFACE LONGITUDE
~Curve Information -----------------------------------------
DEPT  .FT    : DEPTH
ACED  .US/F  : DELTA TIME
CALRED.IN    : CALIPER FROM RESISTIVITY LOG
RILMED.OHMM  : MEDIUM INDUCTION RESISTIVITY
RFOCED.OHMM  : SHALLOW FOCUSED RESISTIVITY
RILDED.OHMM  : DEEP INDUCTION RESISTIVITY
GRRED .GAPI  : GAMMA RAY FROM RESISTIVITY LOG
TENRED.LBS   : TENSION FROM RESISTIVITY LOG
SFLUED.OHMM  : SPHERICALLY FOCUSED RESISTIVITY
GRDED .GAPI  : GAMMA RAY FROM DENSITY LOG
CALDED.IN    : CALIPER FROM DENSITY LOG
DRHOED.G/C3  : DENSITY CORRECTION
NPHIED.V/V   : NEUTRON POROSITY
RHOBED.G/C3  : BULK DENSITY
TENDED.LBS   : TENSION FROM DENSITY LOG
SRESWS.OHMM  : SHALLOW RESISTIVITY (RFOC+SFLU)
CALWS .IN    : CALIPER
SPED  .MV    : SPONTANEOUS POTENTIAL (BASELINE -10 MV)
SPWS  .MV    : SPONTANEOUS POTENTIAL (BASELINE -10 MV)
DCORWS.G/C3  : DENSITY CORRECTION
GRWS  .GAPI  : GAMMA RAY
DRESWS.OHMM  : DEEP RESISTIVITY (RILD)
MRESWS.OHMM  : MEDIUM RESISTIVITY (RILM)
CONDWS.MMHO  : CONDUCTIVITY FROM DEEP RESISTIVITY
DENWS .G/C3  : BULK DENSITY
DPOWS .V/V   : DENSITY POROSITY (M=2.71 F=1)
NPOWS .V/V   : NEUTRON POROSITY
DTWS  .V/V   : DELTA TIME
~Params ----------------------------------------------------
EKB .F                 513.38 : KELLY BUSHING
EGL .F                 483.38 : ELEVATION GROUND LEVEL
EDF .F                 512.38 : ELEVATION DERRICK FLOOR
EPD .F                 483.38 : ELEVATION PERMANENT DATUM
TD  .F                12197.0 : TOTAL DEPTH
DATE.             17-MAR-1984 : DATE LOGGED
CLNT.                 A2DTECH : CLIENT CODE
SL  . 3400' FNEL & 3500' FNWL : SURFACE LOCATION
PD  .                      GL : PERMANENT DATUM
LMF .                      KB : LOG MEASURED FROM
DMF .                      KB : DRILLING MEASURED FROM
DAPD.F                     30 : FEET ABOVE PERMANENT DATUM
DD  .F                  12195 : DEPTH DRILLER
DL  .F                  12197 : DEPTH LOGGER
BLI .F                  12195 : BOTTOM LOG INTERVAL
TLI .F                  11950 : TOP LOG INTERVAL
CS1 .IN                13.375 : CASING SIZE
CBD1.         13.375" @ 5096' : CASING DRILLER 1
BS1 .IN                 12.25 : BIT SIZE
BSD1.F                  12195 : DEPTH DRILLED WITH BIT1
DFT .             GEL/CAUSTIC : TYPE FLUID IN HOLE
DFD .                     9.8 : DENSITY
DFV .                      44 : VISCOSITY
DFPH.                      11 : PH
DFL .                    11.2 : FLUID LOSS
MSS .                    TANK : SOURCE OF SAMPLE
RMS .OHMM                1.95 : RM
RMF .OHMM                1.35 : RMF
RMC .OHMM                2.53 : RMC
MFSS.                    MEAS : SOURCE RMF.
MCSS.                    MEAS : SOURCE RMC.
RMB .OHMM                0.59 : RM. AT BHT
BHT .F                    246 : BHT.
TCS .HRS                    6 : TIME CIRC. STOPPED
TLAB.HRS                    - : TIME LOGGER AT BOTTOM
LUN .                 HL 6304 : LOGGING UNIT NUMBER
LUL .                   BRYAN : LOGGING UNIT LOCATION
ENGI.               R.R. KIRK : RECORDED BY
WITN.            GALE CLAYTOR : WITNESSED BY
ORIG.                5" PRINT : ORIGIN OF DATA
UWI .          42395302880000 : UNIQUE WELL ID
DICO.  A2D TECHNOLOGIES, INC. : DIGITIZING COMPANY
~Other -----------------------------------------------------
# NPHI 890 01 (LIMESTONE)
~ASCII -----------------------------------------------------
# ...
 13300.00000   50.68010    -999.25 2024.92100    -999.25 1341.43400   18.53700 3503.64400 1444.17100   25.18400   11.69000   -0.01100   -0.00100    2.74000 3676.30200 1444.17100   11.69000  -51.39740  -51.39740   -0.01100   18.53700 1341.43400 2024.92100    0.74550    2.74000   -0.01750   -0.00100   50.68010
 13350.00000   50.37150    -999.25 1608.45300    -999.25 1977.19700   20.25300 3559.31490 1653.33400   24.38100   11.96800   -0.01800   -0.00700    2.71900 3556.93700 1653.33400   11.96800  -75.59730  -75.59730   -0.01800   20.25300 1977.19700 1608.45300    0.50580    2.71900   -0.00530   -0.00700   50.37150
 13400.00000   50.99070    -999.25 1464.78700    -999.25 1821.51700   12.95600 3577.68900 1608.47090   15.38100   11.47700   -0.01500   -0.00600    2.70800 3635.10500 1608.47090   11.47700  -70.84020  -70.84020   -0.01500   12.95600 1821.51700 1464.78700    0.54900    2.70800    0.00120   -0.00600   50.99070
 13450.00000   57.02760    -999.25  561.29700    -999.25 1820.51100   11.00400 3577.68900 1608.45300   12.94300   11.49000   -0.02100   -0.00600    2.70300 3673.96090 1608.45300   11.49000  -65.72120  -65.72120   -0.02100   11.00400 1820.51100  561.29700    0.54930    2.70300    0.00410   -0.00600   57.02760
 13500.00000   51.60900    -999.25  299.57800    -999.25  496.29400   23.32900 3577.68900  671.80800   26.87800   11.07000   -0.01100    0.00300    2.71000 3573.54000  671.80800   11.07000  -35.88410  -35.88410   -0.01100   23.32900  496.29400  299.57800    2.01490    2.71000    0.00000    0.00300   51.60900
 13550.00000   52.97440    -999.25  411.88400    -999.25  149.57900   26.37200 3577.68900  378.14500   30.18400    9.43600   -0.00800    0.00900    2.70300 3587.42700  378.14500    9.43600  -24.29400  -24.29400   -0.00800   26.37200  149.57900  411.88400    6.68540    2.70300    0.00410    0.00900   52.97440
 13600.00000   53.27050    -999.25  127.29000    -999.25  171.98700   23.46500 3577.68900  230.43400   33.38900   12.59700    0.00100    0.00900    2.75900 3760.39990  230.43400   12.59700  -30.26590  -30.26590    0.00100   23.46500  171.98700  127.29000    5.81440    2.75900   -0.02870    0.00900   53.27050
 13650.00000   54.86020    -999.25   55.42700    -999.25   66.43100   28.63700 3577.68900   84.31200   35.98900   11.64700   -0.00200    0.01900    2.70200 3705.26900   84.31200   11.64700  -39.28380  -39.28380   -0.00200   28.63700   66.43100   55.42700   15.05320    2.70200    0.00470    0.01900   54.86020
 13700.00000   50.80970    -999.25  236.93600    -999.25  248.87800   20.66000 3577.68900  472.64600   22.63200   11.47500    0.00000   -0.00100    2.72600 3694.44410  472.64600   11.47500  -45.28980  -45.28980    0.00000   20.66000  248.87800  236.93600    4.01800    2.72600   -0.00940   -0.00100   50.80970
 13750.00000   50.23600    -999.25  830.91400    -999.25  686.27000   17.81000 3617.53000  767.41500   21.40200   10.98500   -0.01100   -0.00500    2.71900 3707.94310  767.41500   10.98500  -71.59370  -71.59370   -0.01100   17.81000  686.27000  830.91400    1.45720    2.71900   -0.00530   -0.00500   50.23600
 13800.00000   57.18300    -999.25   22.82400    -999.25   21.90400    8.24700 3617.53000   42.97400   30.45600   13.08800   -0.02000    0.00900    2.63900 3821.63890   42.97400   13.08800 -113.12360 -113.12360   -0.02000    8.24700   21.90400   22.82400   45.65380    2.63900    0.04150    0.00900   57.18300
 13850.00000   50.56650    -999.25 1586.47200    -999.25  245.89200   23.63200 3643.61210 1126.68300   23.35300   10.46700   -0.01300   -0.00100    2.71900 3813.49190 1126.68300   10.46700  -36.33750  -36.33750   -0.01300   23.63200  245.89200 1586.47200    4.06680    2.71900   -0.00530   -0.00100   50.56650
 13900.00000   52.84830    -999.25  159.37700    -999.25  195.91400   27.72300 3702.43900  224.81600   27.93500   10.50400   -0.00200    0.00100    2.74500 3847.55810  224.81600   10.50400  -47.01940  -47.01940   -0.00200   27.72300  195.91400  159.37700    5.10430    2.74500   -0.02050    0.00100   52.84830
 13950.00000   52.22860    -999.25  112.12100    -999.25  175.93500   18.95700 3731.05300  120.89000   28.94300   11.98400   -0.01400   -0.00300    2.69400 3813.49190  120.89000   11.98400  -94.13240  -94.13240   -0.01400   18.95700  175.93500  112.12100    5.68390    2.69400    0.00940   -0.00300   52.22860
 14000.00000   54.24210    -999.25  118.10200    -999.25  206.81400   15.46100 3720.52710  148.78000   19.61900   11.66300   -0.00800   -0.00400    2.66900 3813.49190  148.78000   11.66300  -99.23330  -99.23330   -0.00800   15.46100  206.81400  118.10200    4.83530    2.66900    0.02400   -0.00400   54.24210
 14050.00000   55.32530    -999.25  189.03700    -999.25  469.03900   22.59400 3710.00100  382.92900   19.25100   11.38200   -0.01100   -0.00600    2.67100 3852.77810  382.92900   11.38200  -95.99720  -95.99720   -0.01100   22.59400  469.03900  189.03700    2.13200    2.67100    0.02280   -0.00600   55.32530
 14100.00000   57.02640    -999.25   72.38700    -999.25  135.72400   10.02800 3699.47610  120.43100    9.12700   11.61000   -0.00500    0.00800    2.56000 3794.34300  120.43100   11.61000 -105.16480 -105.16480   -0.00500   10.02800  135.72400   72.38700    7.36790    2.56000    0.08770    0.00800   57.02640
 14150.00000   53.09260    -999.25   94.47800    -999.25  139.14200    9.07400 3769.05300  245.85000   12.68300   10.26300   -0.00500   -0.00100    2.65600 3773.81010  245.85000   10.26300  -81.17480  -81.17480   -0.00500    9.07400  139.14200   94.47800    7.18690    2.65600    0.03160   -0.00100   53.09260
 14200.00000   49.62940    -999.25  754.66800    -999.25  310.21400   15.15600 3722.38600 1272.21500   21.10800    9.86600    0.00300   -0.00300    2.73100 3891.58910 1272.21500    9.86600  -68.16280  -68.16280    0.00300   15.15600  310.21400  754.66800    3.22360    2.73100   -0.01230   -0.00300   49.62940
 14250.00000   49.61300    -999.25  479.19500    -999.25  344.32300   15.54300 3723.39500 1520.44800   19.28800    9.54000   -0.00700   -0.00200    2.73500 3853.52100 1520.44800    9.54000  -46.15680  -46.15680   -0.00700   15.54300  344.32300  479.19500    2.90420    2.73500   -0.01460   -0.00200   49.61300
 14300.00000   50.36040    -999.25  212.77600    -999.25  206.05700   22.90300 3740.76900  641.24500   26.06500    8.84000   -0.00900    0.00300    2.72900 3877.35300  641.24500    8.84000  -30.45880  -30.45880   -0.00900   22.90300  206.05700  212.77600    4.85300    2.72900   -0.01110    0.00300   50.36040
 14350.00000   50.68040    -999.25  131.45000    -999.25  204.92700    -999.25 3807.51200  398.42000    -999.25    8.61000    0.00300    0.00500    2.74100 3790.90410  398.42000    8.61000  -31.24380  -31.24380    0.00300    -999.25  204.92700  131.45000    4.87980    2.74100   -0.01810    0.00500   50.68040
 14400.00000    -999.25    -999.25    -999.25    -999.25    -999.25    -999.25    -999.25    -999.25    -999.25    -999.25    -999.25    -999.25    -999.25 3099.20610    -999.25    -999.25    -999.25    -999.25    -999.25    -999.25    -999.25    -999.25    -999.25    -999.25    -999.25    -999.25    -999.25
