~Version ---------------------------------------------------
VERS. 2.0 : CWLS log ASCII Standard -VERSION 2.0
WRAP. YES : Multiple lines per depth step
~Well ------------------------------------------------------
STRT.FT                   3800.0 : START DEPTH
STOP.FT                   8200.0 : STOP DEPTH
STEP.FT                 50.00000 : STEP LENGTH
NULL.                    -999.25 : NULL VALUE
COMP. CHAMPLIN PETROLEUM COMPANY : COMPANY
WELL.        ZBORIL RAYMOND A #1 : WELL
FLD .                   GIDDINGS : FIELD
LOC .                            : LOCATION
CNTY.                   BURLESON : COUNTY
STAT.                      TEXAS : STATE
CTRY.   UNITED STATES OF AMERICA : COUNTRY
SRVC.               Schlumberger : SERVICE COMPANY
DATE.                10-Jun-1980 : LOGDATE
API .             42051306750000 : API NUMBER
UWI .             42051306750000 : UNIQUE WELL ID
SLAT.WGS84             30.389486 : SURFACE LATITUDE
SLON.WGS84            -96.748373 : SURFACE LONGITUDE
~Curve Information -----------------------------------------
DEPT    .FT                                                                         : DEPTH FEET
CALDED  .IN                                                                         : CALIPER FROM CNFD LOG
CALWS   .IN                                                                         : CALIPER [CALDED]
CONDWS  .MMHO                                                                       : CONDUCTIVITY [1000/DRESWS]
DCORWS  .G/C3                                                                       : DENSITY CORRECTION [DRHOED]
DENWS   .G/C3                                                                       : FORMATION BULK DENSITY [RHOBED]
DPHILSED.V/V                                                                        : DENSITY POROSITY LIMESTONE FROM CNFD LOG [ADJ. TO GRRED/NPHILSED]
DPHISSED.V/V                               :   DENSITY POROSITY SANDSTONE [M:2.68,F : 1.0] FROM CNFD LOG [ADJ. TO GRRED]
DPOWS   .V/V :   DENSITY POROSITY [DPHISSED CONVERTED TO LIMESTONE MATRIX, M:2.68,F : 1.0 & SPL. TO DPHILSED @ 6465']
DRESWS  .OHMM                                                                       : DEEP RESISTIVITY [ILDED]
DRHOED  .G/C3                                                                       : BULK DENSITY CORRECTION FROM CNFD LOG [ADJ. TO GRRED/RHOBED]
DTED    .US/F                                                                       : DELTA-T FROM DIL-SFL-SONIC LOG
DTWS    .US/F                                                                       : COMPRESSIONAL SONIC [DTED]
GRDED   .GAPI                                                                       : GAMMA RAY FROM CNFD LOG [ADJ. TO GRRED]
GRRED   .GAPI                                                                       : GAMMA RAY FROM DIL-SFL-SONIC LOG
GRWS    .GAPI                                                                       : GAMMA RAY [GRRED SPL. TO GRDED @ 8149.27']
ILDED   .OHMM                                                                       : DEEP INDUCTION RESISTIVITY FROM DIL-SFL-SONIC LOG
ILMED   .OHMM                                                                       : MEDIUM INDUCTION RESISTIVITY FROM DIL-SFL-SONIC LOG
MRESWS  .OHMM                                                                       : MEDIUM RESISTIVITY [ILMED]
NPHILSED.V/V                                                                        : NEUTRON POROSITY LIMESTONE FROM CNFD LOG [ADJ. TO GRRED]
NPHISSED.V/V                               :   NEUTRON POROSITY SANDSTONE [M:2.68,F : 1.0] FROM CNFD LOG [ADJ. TO GRRED]
NPOWS   .V/V                                                                        : NEUTRON POROSITY [NPHISSED CONVERTED TO NEUTRON MATRIX, SPL. TO NPHILSED @ 6465']
RHOBED  .G/C3                                                                       : BULK DENSITY FROM CNFD LOG [ADJ. TO GRRED/GRDED]
SFLUED  .OHMM                                                                       : SHALLOW FOCUSED RESISTIVITY (UNAVERAGED) FROM DIL-SFL-SONIC LOG
SPRED   .MV                                                                         : SPONTANEOUS POTENTIAL FROM DIL-SFL-SONIC LOG
SPWS    .MV                                                                         : SPONTANEOUS POTENTIAL [BASELINE, 0 MV SPRED]
SRESWS  .OHMM                                                                       : SHALLOW RESISTIVITY [SFLUED]
~Params ----------------------------------------------------
PD  .                     GL : PERMANENT DATUM
EPD .FT                  333 : ELEVATION PERMANENT DATUM
LMF .                     KB : LOG MEASURED FROM
DAPD.FT                   16 : FEET ABOVE PERMANENT DATUM
DMF .                     KB : DRILLING MEASURED FROM
EKB .FT                  349 : KELLY BUSHING
EDF .FT                  348 : DRILLING FLOOR
EGL .FT                  333 : GROUND LEVEL
DATE.              6-10-1980 : RUN DATE
RUN .                      1 : RUN NUMBER
DD  .FT                 8215 : DEPTH DRILLER
DL  .FT                 8207 : DEPTH LOGGER
BLI .FT                 8203 : BOTTOM LOG INTERVAL
TLI .FT                 6147 : TOP LOG INTERVAL
CS  .IN                9.625 : CASING SIZE
CBD .FT                 3800 : CASING BOTTOM DRILLER
BS  .IN                 8.75 : BIT SIZE
BSD .FT                 8215 : BIT SIZE AT DEPTH
DFT .                 BEN-EX : DRILLING FLUID TYPE
DFD .                    9.5 : DRILLING FLUID DENSITY
DFV .                     45 : DRILLING FLUID VISCOSITY
DFPH.                    9.5 : DRILLING FLUID PH
DFL .                      6 : DRILLING FLUID LOSS
MSS .               FLOWLINE : MUD SAMPLE SOURCE
RMS .OHMM               2.89 : RESISTIVITY MUD SAMPLE
MST .DEGF                 75 : MUD SAMPLE TEMPERATURE
RMF .OHMM               1.93 : RESISTIVITY MUD FILTRATE SAMPLE
MFST.DEGF                 75 : MUD FILTRATE SAMPLE TEMPERATURE
RMC .OHMM               4.34 : RESISTIVITY MUD CAKE
MCST.DEGF                 75 : MUD CAKE SAMPLE TEMPERATURE
MFSS.                      M : MUD FILTRATE SAMPLE SOURCE
MCSS.                      C : MUD CAKE SAMPLE SOURCE
RMB .OHMM               1.16 : RESISTIVITY MUD AT BHT
TCS .HRS                 530 : TIME CIRCULATED STOPPED
TLAB.HRS                1700 : TIME LOGGER AT BOTTOM
LUN .                   8096 : LOGGING UNIT NUMBER
LUL .                BRENHAM : LOGGING UNIT LOCATION
ENGI.                   CATE : RECORDING ENGINEER
WITN.           KRAUHS CRESS : WITNESSED BY
CLNT.                A2DTECH : CLIENT CODE
ORIG.             2.5" PRINT : ORIGIN OF DATA
UWI .         42051306750000 : UNIQUE WELL ID
DICO. A2D Technologies, Inc. : DIGITIZING COMPANY
~Other -----------------------------------------------------
~ASCII -----------------------------------------------------
# ...
 5150.00000    -999.25    -999.25  512.61020    -999.25    -999.25    -999.25    -999.25    -999.25    1.95080    -999.25   81.67780   81.67780    -999.25   77.73970   77.73970    1.95080    2.01140    2.01140    -999.25    -999.25    -999.25    -999.25    2.48810   -1.64290   -6.14080    2.48810
 5200.00000    -999.25    -999.25  798.72200    -999.25    -999.25    -999.25    -999.25    -999.25    1.25200    -999.25   93.02220   93.02220    -999.25   60.92860   60.92860    1.25200    1.67970    1.67970    -999.25    -999.25    -999.25    -999.25    2.82270  -45.44370  -49.88670    2.82270
 5250.00000    -999.25    -999.25 1028.38340    -999.25    -999.25    -999.25    -999.25    -999.25    0.97240    -999.25  111.63560  111.63560    -999.25  100.92880  100.92880    0.97240    1.00250    1.00250    -999.25    -999.25    -999.25    -999.25    1.18930   -6.18040  -10.56850    1.18930
 5300.00000    -999.25    -999.25  742.50070    -999.25    -999.25    -999.25    -999.25    -999.25    1.34680    -999.25  101.40280  101.40280    -999.25  102.99080  102.99080    1.34680    1.39040    1.39040    -999.25    -999.25    -999.25    -999.25    1.58270    0.19560   -4.13760    1.58270
 5350.00000    -999.25    -999.25  559.97310    -999.25    -999.25    -999.25    -999.25    -999.25    1.78580    -999.25   89.60290   89.60290    -999.25   87.18290   87.18290    1.78580    1.84150    1.84150    -999.25    -999.25    -999.25    -999.25    2.05800   -4.33290   -8.61120    2.05800
 5400.00000    -999.25    -999.25  560.94690    -999.25    -999.25    -999.25    -999.25    -999.25    1.78270    -999.25   90.85330   90.85330    -999.25   79.91730   79.91730    1.78270    1.83790    1.83790    -999.25    -999.25    -999.25    -999.25    2.06230   -7.82400  -12.04740    2.06230
 5450.00000    -999.25    -999.25  534.21660    -999.25    -999.25    -999.25    -999.25    -999.25    1.87190    -999.25   82.52700   82.52700    -999.25   80.46140   80.46140    1.87190    1.94100    1.94100    -999.25    -999.25    -999.25    -999.25    3.37980   -8.13460  -12.30310    3.37980
 5500.00000    -999.25    -999.25 1058.64920    -999.25    -999.25    -999.25    -999.25    -999.25    0.94460    -999.25  107.22870  107.22870    -999.25   97.88270   97.88270    0.94460    0.97400    0.97400    -999.25    -999.25    -999.25    -999.25    1.24070   -9.41410  -13.52770    1.24070
 5550.00000    -999.25    -999.25  879.27550    -999.25    -999.25    -999.25    -999.25    -999.25    1.13730    -999.25  102.63380  102.63380    -999.25   99.03800   99.03800    1.13730    1.17550    1.17550    -999.25    -999.25    -999.25    -999.25    1.42400   -4.67580   -8.73450    1.42400
 5600.00000    -999.25    -999.25  847.52950    -999.25    -999.25    -999.25    -999.25    -999.25    1.17990    -999.25  102.18770  102.18770    -999.25   92.25320   92.25320    1.17990    1.21800    1.21800    -999.25    -999.25    -999.25    -999.25    1.48530   -1.68100   -5.68480    1.48530
 5650.00000    -999.25    -999.25 1007.04930    -999.25    -999.25    -999.25    -999.25    -999.25    0.99300    -999.25  107.12660  107.12660    -999.25  114.03310  114.03310    0.99300    1.02430    1.02430    -999.25    -999.25    -999.25    -999.25    1.27180   -2.52520   -6.47410    1.27180
 5700.00000    -999.25    -999.25  948.40670    -999.25    -999.25    -999.25    -999.25    -999.25    1.05440    -999.25  101.27390  101.27390    -999.25  108.90970  108.90970    1.05440    1.08710    1.08710    -999.25    -999.25    -999.25    -999.25    1.24530   -2.06750   -5.96150    1.24530
 5750.00000    -999.25    -999.25  676.86480    -999.25    -999.25    -999.25    -999.25    -999.25    1.47740    -999.25   90.70560   90.70560    -999.25   97.47290   97.47290    1.47740    1.52330    1.52330    -999.25    -999.25    -999.25    -999.25    1.66200   -5.69900   -9.53810    1.66200
 5800.00000    -999.25    -999.25  931.18540    -999.25    -999.25    -999.25    -999.25    -999.25    1.07390    -999.25   97.80740   97.80740    -999.25  108.42380  108.42380    1.07390    1.10720    1.10720    -999.25    -999.25    -999.25    -999.25    1.27160    0.79240   -2.99180    1.27160
 5850.00000    -999.25    -999.25  524.08150    -999.25    -999.25    -999.25    -999.25    -999.25    1.90810    -999.25   86.43660   86.43660    -999.25   94.15280   94.15280    1.90810    1.96820    1.96820    -999.25    -999.25    -999.25    -999.25    2.02190   -2.25830   -5.98760    2.02190
 5900.00000    -999.25    -999.25  678.88660    -999.25    -999.25    -999.25    -999.25    -999.25    1.47300    -999.25   90.80020   90.80020    -999.25  103.32690  103.32690    1.47300    1.53050    1.53050    -999.25    -999.25    -999.25    -999.25    1.68670   -4.34220   -8.01660    1.68670
 5950.00000    -999.25    -999.25 1009.48920    -999.25    -999.25    -999.25    -999.25    -999.25    0.99060    -999.25  103.90920  103.90920    -999.25  121.19460  121.19460    0.99060    1.02130    1.02130    -999.25    -999.25    -999.25    -999.25    1.23140   -3.08190   -6.70140    1.23140
 6000.00000    -999.25    -999.25  760.22500    -999.25    -999.25    -999.25    -999.25    -999.25    1.31540    -999.25   97.19200   97.19200    -999.25  117.20020  117.20020    1.31540    1.36040    1.36040    -999.25    -999.25    -999.25    -999.25    1.48430   -4.13830   -7.70300    1.48430
 6050.00000    -999.25    -999.25  786.84400    -999.25    -999.25    -999.25    -999.25    -999.25    1.27090    -999.25   97.21920   97.21920    -999.25  121.54110  121.54110    1.27090    1.31030    1.31030    -999.25    -999.25    -999.25    -999.25    1.51990   -1.32130   -4.83110    1.51990
 6100.00000    -999.25    -999.25  932.31400    -999.25    -999.25    -999.25    -999.25    -999.25    1.07260    -999.25  102.40970  102.40970    -999.25  123.36030  123.36030    1.07260    1.10580    1.10580    -999.25    -999.25    -999.25    -999.25    1.26520   -4.09800   -7.55290    1.26520
 6150.00000   11.64030   11.64030 1108.89330    0.04930    2.36180    -999.25    0.18440    0.19870    0.90180    0.04930  106.34300  106.34300  143.90510  150.21940  150.21940    0.90180    0.93000    0.93000    -999.25    0.40760    0.36490    2.36180    1.16580   -1.21590   -4.61590    1.16580
 6200.00000   11.72710   11.72710  544.54370    0.04370    2.55530    -999.25    0.06530    0.08170    1.83640    0.04370   85.81070   85.81070  107.35090  116.36860  116.36860    1.83640    1.89330    1.89330    -999.25    0.26220    0.21820    2.55530    2.13810   -3.66070   -7.00580    2.13810
 6250.00000   12.89710   12.89710  633.87420    0.07770    2.47860    -999.25    0.09670    0.11250    1.57760    0.07770   91.92710   91.92710  106.84020  123.21940  123.21940    1.57760    1.62640    1.62640    -999.25    0.29180    0.24780    2.47860    1.88680   -7.97180  -11.26200    1.88680
 6300.00000   13.13140   13.13140  649.51940    0.06670    2.50560    -999.25    0.08850    0.10450    1.53960    0.06670   94.33670   94.33670  115.23060  122.15040  122.15040    1.53960    1.59000    1.59000    -999.25    0.24620    0.20230    2.50560    1.83480  -11.99890  -15.23420    1.83480
 6350.00000   14.25070   14.25070  785.17590    0.06810    2.42700    -999.25    0.13630    0.15150    1.27360    0.06810   98.78050   98.78050  114.21270  140.44540  140.44540    1.27360    1.31330    1.31330    -999.25    0.33760    0.29380    2.42700    1.55790  -12.78060  -15.96100    1.55790
 6400.00000   13.78240   13.78240  795.67150    0.11200    2.41980    -999.25    0.15280    0.16770    1.25680    0.11200   98.48480   98.48480  102.21170  119.73920  119.73920    1.25680    1.29590    1.29590    -999.25    0.30830    0.26440    2.41980    1.55730  -12.65920  -15.78470    1.55730
 6450.00000   12.67070   12.67070  655.90970    0.09580    2.43120    -999.25    0.13190    0.14710    1.52460    0.09580   93.12670   93.12670  103.15580  110.17720  110.17720    1.52460    1.57460    1.57460    -999.25    0.32680    0.28300    2.43120    1.84670  -12.45290  -15.52350    1.84670
