~Version ---------------------------------------------------
VERS.      2.0 : CWLS log ASCII Standard -VERSION 2.0
WRAP.      YES : Multiple lines per depth step
CREA. 01/04/18 : LAS Creation Date
~Well ------------------------------------------------------
STRT.FT                         3450.0 : START DEPTH
STOP.FT                        13850.0 : STOP DEPTH
STEP.FT                       50.00000 : STEP LENGTH
NULL.                          -999.25 : NULL VALUE
COMP.          TORCH OPERATING COMPANY : COMPANY
WELL.           CAROLYN WARMKE UNIT #1 : WELL
FLD .                          WILDCAT : FIELD
LOC .                                  : LOCATION
CNTY.                          FAYETTE : COUNTY
STAT.                            TEXAS : STATE
CTRY.         UNITED STATES OF AMERICA : COUNTRY
SRVC. HALLIBURTON LOGGING SERVICES INC : SERVICE COMPANY
DATE.                      31-Dec-1991 : LOGDATE
API .                   42149325050000 : API NUMBER
UWI .                   42149325050000 : UNIQUE WELL ID
SLAT.WGS84               30.0718798257 : SURFACE LATITUDE
SLON.WGS84              -96.6577022662 : SURFACE LONGITUDE
~Curve Information -----------------------------------------
DEPT    .FT    : DEPTH FEET
CALRED  .IN    : CALIPER FROM DIL/SDL/DSN LOG
CALWS   .IN    : CALIPER [TOP DCALRD+BIT 13316' CALRED]
CONDWS  .MMHO  : DEEP CONDUCTIVITY [1000/DRESWS]
CORRED  .G/C3  : DENSITY CORRECTION FROM DIL/SDL/DSN LOG
DCALED  .IN    : DIFFERENTIAL CALIPER FROM DENSITY LOG
DENWS   .G/C3  : BULK DENSITY [CALC. FROM DPOLSWS]
DPHILSED.V/V   : DENSITY POROSITY (LS) [M=2.71 F=1.0] FROM DIL/SDL/DSN LOG
DPOLSWS .V/V   : DENSITY POROSITY LIMESTONE [M=2.71 F=1.0] [DPHILSED]
DRESWS  .OHMM  : DEEP RESISTIVITY [ILDED]
DTED    .US/F  : DELTA TIME FROM DIL/LSS LOG
DTWS    .US/F  : DELTA TIME COMPRESSIONAL [DTED]
GRRED   .GAPI  : GAMMA RAY FROM RESISTIVITY LOG
GRWS    .GAPI  : GAMMA RAY [GRRED]
ILDED   .OHMM  : INDUCTION LOG DEEP RESISTIVITY
ILMED   .OHMM  : INDUCTION LOG MEDIUM RESISTIVITY
MRESWS  .OHMM  : MEDIUM RESISTIVITY [ILMED]
NPHILSED.V/V   : NEUTRON POROSITY LIMESTONE FROM DIL/SDL/DSN LOG
NPOLSWS .V/V   : NEUTRON POROSITY LIMESTONE [NPHILSED]
SGUARDED.OHMM  : SHORT GUARD RESISTIVITY
SNED    .OHMM  : 16 INCH SHORT NORMAL RESISTIVITY FROM IEL LOG
SPRED   .MV    : SPONTANEOUS POTENTIAL FROM RESISTIVITY LOG
SPWS    .MV    : SPONTANEOUS POTENTIAL [BASELINE 0 MV] [SPRED]
SRESWS  .OHMM  : SHALLOW RESISTIVITY [TOP SGUARDED 13320' SNED]
TENRED  .LBF   : TENSION FROM RESISTIVITY LOG
~Params ----------------------------------------------------
PD  .                     GL : PERMANENT DATUM
EPD .FT                  387 : ELEVATION PERMANENT DATUM
LMF .                    TKB : LOG MEASURED FROM
DAPD.FT                 22.1 : FEET ABOVE PERMANENT DATUM
DMF .                    TKB : DRILLING MEASURED FROM
EKB .FT                409.1 : KELLY BUSHING
EDF .FT                407.8 : DRILLING FLOOR
EGL .FT                  387 : GROUND LEVEL
DATE.             12/31/1991 : RUN DATE
RUN .                      2 : RUN NUMBER
DD  .FT                13866 : DEPTH DRILLER
DL  .FT                13790 : DEPTH LOGGER
BLI .FT                13788 : BOTTOM LOG INTERVAL
TLI .FT                13316 : TOP LOG INTERVAL
CS  .IN                  6.5 : CASING SIZE
CBD .FT                13316 : CASING BOTTOM DRILLER
CBL .FT                13316 : CASING BOTTOM LOGGER
BS  .IN                 4.75 : BIT SIZE
BSD .FT                13866 : BIT SIZE AT DEPTH
DFT .                    CLS : DRILLING FLUID TYPE
DFD .                   10.6 : DRILLING FLUID DENSITY
DFV .                     45 : DRILLING FLUID VISCOSITY
DFPH.                    9.9 : DRILLING FLUID PH
DFL .                    6.2 : DRILLING FLUID LOSS
MSS .               FLOWLINE : MUD SAMPLE SOURCE
RMS .OHMM               0.86 : RESISTIVITY MUD SAMPLE
MST .DEGF                 75 : MUD SAMPLE TEMPERATURE
RMF .OHMM               0.72 : RESISTIVITY MUD FILTRATE SAMPLE
MFST.DEGF                 75 : MUD FILTRATE SAMPLE TEMPERATURE
RMC .OHMM                1.1 : RESISTIVITY MUD CAKE
MCST.DEGF                 75 : MUD CAKE SAMPLE TEMPERATURE
MFSS.                   MEAS : MUD FILTRATE SAMPLE SOURCE
MCSS.                   MEAS : MUD CAKE SAMPLE SOURCE
RMB .OHMM              0.241 : RESISTIVITY MUD AT BHT
TCS .HRS                1630 : TIME CIRCULATED STOPPED
TLAB.HRS                2324 : TIME LOGGER AT BOTTOM
LUN .                   7678 : LOGGING UNIT NUMBER
LUL .                   VICT : LOGGING UNIT LOCATION
ENGI.         STAPP ROBINSON : RECORDING ENGINEER
WITN.                HOLLIER : WITNESSED BY
CLNT.                A2DTECH : CLIENT CODE
ORIG.               5" PRINT : ORIGIN OF DATA
UWI .         42149325050000 : UNIQUE WELL ID
DICO. A2D Technologies, Inc. : DIGITIZING COMPANY
~Other -----------------------------------------------------
DIL/SDL/DSN PRESENTD FROM TD TO 10600'; DIL/LSS FROM 10600' TO CASING.
ALL POROSITY LOGS RAN ON LIMESTONE MATRIX.
DID NOT RACH TO TD WITH IEL.
LOGS WERE RAN SEPARATELY THEN MURGED TOGETHER.
~ASCII -----------------------------------------------------
# ...
 12150.00000    -999.25    9.99400   58.82350   -0.01050    0.11900    2.61940    0.05300    0.05300   17.00000    -999.25    -999.25   35.10500   35.10500   17.00000   24.46300   24.46300    0.04660    0.04660   26.19900    -999.25  -87.70800  -26.95240   26.19900 4554.15870
 12200.00000    -999.25    9.67700   72.94480   -0.00440   -0.19800    2.62280    0.05100    0.05100   13.70900    -999.25    -999.25   33.94490   33.94490   13.70900   18.17600   18.17600    0.04940    0.04940   25.30400    -999.25  -82.88850  -24.17750   25.30400 4515.77490
 12250.00000    -999.25   10.19800   56.44300   -0.00820    0.32300    2.59890    0.06500    0.06500   17.71700    -999.25    -999.25   47.86160   47.86160   17.71700   17.44700   17.44700    0.03780    0.03780   35.66900    -999.25  -87.35600  -30.68970   35.66900 4507.69380
 12300.00000    -999.25   10.01700   65.65560    0.00090    0.14200    2.50820    0.11800    0.11800   15.23100    -999.25    -999.25   50.29820   50.29820   15.23100   13.13100   13.13100    0.07940    0.07940   14.81900    -999.25  -85.74500  -31.12330   14.81900 4476.04300
 12350.00000    -999.25   10.04600   41.72930   -0.00320    0.17100    2.56120    0.08700    0.08700   23.96400    -999.25    -999.25   39.88190   39.88190   23.96400   21.44800   21.44800    0.05200    0.05200   68.52200    -999.25  -89.29100  -36.71390   68.52200 4455.93700
 12400.00000    -999.25   10.03400   34.43050   -0.00890    0.15900    2.57830    0.07700    0.07700   29.04400    -999.25    -999.25   24.21360   24.21360   29.04400   23.98100   23.98100    0.04310    0.04310   40.64700    -999.25  -90.14400  -39.61150   40.64700 4426.69340
 12450.00000    -999.25    9.76800   27.80940   -0.00910   -0.10700    2.57490    0.07900    0.07900   35.95900    -999.25    -999.25   27.99740   27.99740   35.95900   34.72100   34.72100    0.04000    0.04000   62.66900    -999.25  -89.13400  -40.64610   62.66900 4449.65040
 12500.00000    -999.25    9.82200   22.08290   -0.00630   -0.05300    2.57320    0.08000    0.08000   45.28400    -999.25    -999.25   25.26450   25.26450   45.28400   28.10000   28.10000    0.03620    0.03620   65.93400    -999.25  -90.48400  -44.04080   65.93400 4453.38920
 12550.00000    -999.25   15.01500  497.26500    0.08230    5.14000    2.24150    0.27400    0.27400    2.01100    -999.25    -999.25   69.65860   69.65860    2.01100    1.58400    1.58400    0.43780    0.43780    4.29500    -999.25  -47.62800   -2.61170    4.29500 4494.90330
 12600.00000    -999.25   11.33600  100.49240    0.00310    1.46100    2.40390    0.17900    0.17900    9.95100    -999.25    -999.25  127.32180  127.32180    9.95100   10.82900   10.82900    0.21420    0.21420   14.92900    -999.25  -58.05200  -13.15010   14.92900 4489.36910
 12650.00000    -999.25   10.49600  121.80270   -0.00210    0.62100    2.63130    0.04600    0.04600    8.21000    -999.25    -999.25   36.78270   36.78270    8.21000    9.03900    9.03900    0.09220    0.09220   12.94700    -999.25  -61.66200  -16.87450   12.94700 4503.24900
 12700.00000    -999.25   11.01500   87.60400   -0.00740    1.14000    2.66040    0.02900    0.02900   11.41500    -999.25    -999.25   28.35110   28.35110   11.41500    8.47300    8.47300    0.03730    0.03730   38.75300    -999.25  -65.02400  -20.35090   38.75300 4612.65770
 12750.00000    -999.25   12.44300   12.12440   -0.03870    2.56800    2.20040    0.29800    0.29800   82.47800    -999.25    -999.25   17.25960   17.25960   82.47800   43.25300   43.25300    0.06780    0.06780   37.19300    -999.25 -116.56700  -72.00830   37.19300 4606.16410
 12800.00000    -999.25   11.73800   38.30240    0.04500    1.86300    2.60060    0.06400    0.06400   26.10800    -999.25    -999.25   18.40800   18.40800   26.10800   19.23700   19.23700    0.01700    0.01700   57.71200    -999.25 -110.12700  -65.68270   57.71200 4614.32860
 12850.00000    -999.25   10.95300   36.48040   -0.00960    1.07800    2.64160    0.04000    0.04000   27.41200    -999.25    -999.25   28.01640   28.01640   27.41200   15.78000   15.78000    0.01570    0.01570   71.89500    -999.25  -93.87300  -49.54310   71.89500 4664.17480
 12900.00000    -999.25   11.01800   68.41350   -0.00320    1.14300    2.67240    0.02200    0.02200   14.61700    -999.25    -999.25   40.15600   40.15600   14.61700   12.82600   12.82600    0.04420    0.04420   28.55200    -999.25  -65.36300  -21.14750   28.55200 4626.38280
 12950.00000    -999.25   11.03900  147.62330   -0.00560    1.16400    2.62960    0.04700    0.04700    6.77400    -999.25    -999.25   51.67070   51.67070    6.77400    6.50100    6.50100    0.09320    0.09320   11.89600    -999.25  -47.61500   -3.51390   11.89600 4659.62940
 13000.00000    -999.25   11.06000   95.77630   -0.00830    1.18500    2.64840    0.03600    0.03600   10.44100    -999.25    -999.25   45.26620   45.26620   10.44100   11.10600   11.10600    0.04270    0.04270   20.04600    -999.25  -51.81100   -7.27240   20.04600 4669.69630
 13050.00000    -999.25   10.69900  102.60620    0.00100    0.82400    2.65020    0.03500    0.03500    9.74600    -999.25    -999.25   49.02010   49.02010    9.74600    9.29000    9.29000    0.06060    0.06060   15.26100    -999.25  -62.94900  -16.62170   15.26100 4747.37260
 13100.00000    -999.25   10.78300   91.28250   -0.00120    0.90800    2.65870    0.03000    0.03000   10.95500    -999.25    -999.25   41.01860   41.01860   10.95500   10.65800   10.65800    0.03870    0.03870   18.31700    -999.25  -70.88700  -22.77090   18.31700 4706.48490
 13150.00000    -999.25   10.93800  194.51470   -0.01280    1.06300    2.67240    0.02200    0.02200    5.14100    -999.25    -999.25   40.90640   40.90640    5.14100    4.80600    4.80600    0.07380    0.07380    6.96300    -999.25  -68.88200  -18.97720    6.96300 4771.23580
 13200.00000    -999.25   10.17900   45.93900    0.00140    0.30400    2.66380    0.02700    0.02700   21.76800    -999.25    -999.25   36.34600   36.34600   21.76800   30.34800   30.34800    0.01930    0.01930   41.44400    -999.25  -75.73600  -24.04250   41.44400 4842.77930
 13250.00000    -999.25   10.27300   81.49960   -0.00400    0.39800    2.63990    0.04100    0.04100   12.27000    -999.25    -999.25   41.63280   41.63280   12.27000   12.39600   12.39600    0.09620    0.09620   24.97200    -999.25  -66.92800  -13.44580   24.97200 4829.08890
 13300.00000    -999.25    9.82600   15.95690   -0.00090   -0.04900    2.64330    0.03900    0.03900   62.66900    -999.25    -999.25    -999.25    -999.25   62.66900   40.83500   40.83500    0.05170    0.05170   78.92000    -999.25  -76.44200  -21.17110   78.92000 4929.42920
 13350.00000    4.47700    4.47700   82.14900    0.00680    -999.25    2.66550    0.02600    0.02600   12.17300    -999.25    -999.25   44.37910   44.37910   12.17300    -999.25    -999.25    0.06090    0.06090    -999.25   25.95900  -66.23800   -9.74480   25.95900 3613.20630
 13400.00000    4.47200    4.47200   80.60620    0.00640    -999.25    2.66550    0.02600    0.02600   12.40600    -999.25    -999.25   36.83070   36.83070   12.40600    -999.25    -999.25    0.06830    0.06830    -999.25   24.49400  -62.66700   -5.95860   24.49400 3599.69630
 13450.00000    4.43300    4.43300   85.28780    0.00370    -999.25    2.66040    0.02900    0.02900   11.72500    -999.25    -999.25   40.82060   40.82060   11.72500    -999.25    -999.25    0.08610    0.08610    -999.25   21.58700  -62.69600   -5.77240   21.58700 3607.72440
 13500.00000    4.47200    4.47200  151.83720    0.00450    -999.25    2.65020    0.03500    0.03500    6.58600    -999.25    -999.25   56.35910   56.35910    6.58600    -999.25    -999.25    0.13290    0.13290    -999.25   13.10100  -60.05200   -2.91320   13.10100 3631.18990
 13550.00000    4.43300    4.43300  124.03870    0.00600    -999.25    2.65530    0.03200    0.03200    8.06200    -999.25    -999.25   45.59950   45.59950    8.06200    -999.25    -999.25    0.09790    0.09790    -999.25   16.26700  -58.91300   -1.55900   16.26700 3632.83150
