~Version ---------------------------------------------------
VERS. 2.0 : CWLS log ASCII Standard -VERSION 2.0
WRAP.  NO : ONE LINE PER DEPTH STEP
~Well ------------------------------------------------------
STRT.F                    4000.0 : START DEPTH
STOP.F                    8850.0 : STOP DEPTH
STEP.F                  50.00000 : STEP LENGTH
NULL.                    -999.25 : NULL VALUE
COMP. CHAMPLIN PETROLEUM COMPANY : COMPANY
WELL.       WEICHERT THEODORE #1 : WELL
FLD .                   GIDDINGS : FIELD
LOC .                            : LOCATION
CNTY.                   BURLESON : COUNTY
STAT.                      TEXAS : STATE
CTRY.   UNITED STATES OF AMERICA : COUNTRY
SRVC.              Dresser Atlas : SERVICE COMPANY
DATE.                18-Nov-1980 : LOGDATE
API .             42051310530000 : API NUMBER
UWI .             42051310530000 : UNIQUE WELL ID
SLAT.WGS84         30.4969051187 : SURFACE LATITUDE
SLON.WGS84        -96.5699673481 : SURFACE LONGITUDE
~Curve Information -----------------------------------------
DEPT.F                 : 
GRR .GAPI 07 310 01 00 : GAMMA RAY FROM RES. LOG.
SPR .MV   07 010 01 00 : SPONTANEOUS POTENTIAL FROM RES.
AC  .US/F 60 520 00 00 : ACOUSTIC SONIC
CALR.IN   07 280 01 00 : CALIPER FROM RESISTIVITY
ILD .OHMM 07 120 46 00 : INDUCTION LOG DEEP
ILM .OHMM 07 120 44 00 : INDUCTION LOG MEDIUM
SFL .OHMM 07 220 01 00 : SHALLOW FOCUSED LOG RESISTIVITY
~Params ----------------------------------------------------
PD  .                     GL : PERMANENT DATUM
EPD .FT                  322 : ELEVATION PERMANENT DATUM
LMF .                     KB : LOG MEASURED FROM
DAPD.FT                   18 : FEET ABOVE PERMANENT DATUM
DMF .                     KB : DRILLING MEASURED FROM
EKB .FT                  640 : KELLY BUSHING
EDF .FT                  339 : DRILLING FLOOR
EGL .FT                  322 : GROUND LEVEL
DATE.               11/18/80 : RUN DATE
RUN .                      1 : RUN NUMBER
DD  .FT                 8930 : DEPTH DRILLER
DL  .FT                 8879 : DEPTH LOGGER
BLI .FT                 8877 : BOTTOM LOG INTERVAL
TLI .FT                 4030 : TOP LOG INTERVAL
CS  .IN                9.625 : CASING SIZE
CBD .FT                 4021 : CASING BOTTOM DRILLER
CBL .FT                 4030 : CASING BOTTOM LOGGER
BS  .IN                 8.75 : BIT SIZE
BSD .FT                 8930 : BIT SIZE AT DEPTH
DFT .                BEN ACE : DRILLING FLUID TYPE
DFD .                    9.3 : DRILLING FLUID DENSITY
DFV .                     45 : DRILLING FLUID VISCOSITY
DFPH.                    9.6 : DRILLING FLUID PH
DFL .                    6.6 : DRILLING FLUID LOSS
MSS .               FLOWLINE : MUD SAMPLE SOURCE
RMS .OHMM               2.12 : RESISTIVITY MUD SAMPLE
MST .DEGF                 80 : MUD SAMPLE TEMPERATURE
RMF .OHMM               1.59 : RESISTIVITY MUD FILTRATE SAMPLE
MFST.DEGF                 80 : MUD FILTRATE SAMPLE TEMPERATURE
RMC .OHMM               2.65 : RESISTIVITY MUD CAKE
MCST.DEGF                 80 : MUD CAKE SAMPLE TEMPERATURE
MFSS.                      M : MUD FILTRATE SAMPLE SOURCE
MCSS.                      C : MUD CAKE SAMPLE SOURCE
RMB .OHMM               0.88 : RESISTIVITY MUD AT BHT
TCS .HRS                   4 : TIME CIRCULATED STOPPED
LUN .                   6139 : LOGGING UNIT NUMBER
LUL .                  BRYAN : LOGGING UNIT LOCATION
ENGI.                   KIRK : RECORDING ENGINEER
WITN.                SAMERON : WITNESSED BY
CLNT.                A2DTECH : CLIENT CODE
ORIG.          1" 2.5" PRINT : ORIGIN OF DATA
UWI .         42051310530000 : UNIQUE WELL ID
DICO. A2D Technologies, Inc. : DIGITIZING COMPANY
~Other -----------------------------------------------------
~ASCII -----------------------------------------------------
 4000.00000   56.10620    -999.25    -999.25    -999.25    -999.25    -999.25    -999.25
 4050.00000   58.96980  -81.03570  106.13060   10.07310    4.84230    5.61180    4.52180
 4100.00000   55.99980  -78.63550  103.96350    9.87920    4.44900    5.01910    4.16560
 4150.00000   56.60320  -81.09200  100.82010   10.08930    4.81410    5.23430    4.45040
 4200.00000   87.80350  -53.04390  100.43770    9.85370    6.20050    6.93220    5.14610
 4250.00000   89.94570  -58.87000   96.31180   10.19230    4.95820    5.39250    4.71680
 4300.00000   69.34960  -65.26720  142.48220   12.00870    5.36300    5.47300    3.84590
 4350.00000   89.43520  -43.87310  104.59070   10.09520    2.31510    2.59240    2.91370
 4400.00000   78.29000  -58.68830  102.76470   10.45700    3.60020    4.32180    3.22620
 4450.00000   61.18230  -93.99730  103.61500   10.31910    3.05310    3.87690    4.09080
 4500.00000   76.95680  -65.57020  100.86270    9.59750    3.86500    4.25270    4.48700
 4550.00000   92.61470  -45.54630  117.57860   10.16860    1.73260    1.86020    1.51280
 4600.00000   52.82690  -90.79170   70.84470   10.71520   15.69890   56.49260   30.16860
 4650.00000   90.24460  -53.57560  101.32640   10.02650    3.28500    3.72710    2.82330
 4700.00000   89.72610  -52.22790   99.79540    9.32040    3.57300    4.02220    2.76250
 4750.00000   94.61560  -52.04750   99.55330    9.00460    3.39970    3.67300    2.28770
 4800.00000   83.54230  -51.69310  100.55570    8.69070    2.98110    3.20190    2.37370
 4850.00000   91.95040  -50.92030  100.21860    9.02180    2.54190    2.91750    1.99270
 4900.00000   85.82180  -51.29400  108.47360    9.36700    3.06900    3.39420    2.35210
 4950.00000   88.23390  -50.34950   92.96120    9.38560    3.21680    3.44860    3.64570
 5000.00000   93.37260  -47.29170   98.41890    9.30500    2.44720    2.62140    3.05660
 5050.00000   92.53780  -46.99550   95.21730    9.45740    2.46740    2.64490    2.86870
 5100.00000   88.22280  -46.57850   98.85440    9.73540    2.13350    2.28910    2.67450
 5150.00000   90.16150  -46.35160  103.05090    9.75750    1.71530    1.85250    2.21220
 5200.00000   84.61760  -49.93360  104.79910    9.79710    1.66090    1.79930    2.25790
 5250.00000   89.51170  -49.02050  105.75830   10.25880    1.55730    1.68450    2.11180
 5300.00000   93.24590  -49.00110  104.69570   10.15470    1.53280    1.64960    2.07930
 5350.00000   89.36560  -49.12780  105.58840   11.11500    1.34980    1.45910    1.99420
 5400.00000   97.59250  -48.59010   99.16710   11.37430    1.86400    2.03210    2.29690
 5450.00000   86.98720  -48.68100  104.01780   11.30210    1.39610    1.51630    2.02400
 5500.00000   84.50710  -45.34550  111.16850   11.80450    1.05240    1.10830    1.64990
 5550.00000   76.96310  -48.76650   94.14890   12.46940    3.00050    3.23060    3.32280
 5600.00000   79.59780  -49.17560   99.69680   10.45180    2.04330    2.29510    2.68810
 5650.00000   86.24550  -47.26240  105.17160   10.03670    1.56000    1.74800    2.12130
 5700.00000   85.47980  -46.09600  102.30890   10.38630    1.79600    1.95030    2.29290
 5750.00000   81.18560  -46.66300   99.09960   10.10930    1.62620    1.72160    2.06300
 5800.00000   87.27790  -45.57620  104.11210   11.09310    1.32050    1.50660    1.97880
 5850.00000   86.39500  -47.97360  108.00470   11.51480    1.14990    1.22320    1.85890
 5900.00000   85.14280  -49.31080  105.86810   11.98920    1.13260    1.24600    1.73200
 5950.00000   87.62480  -49.72680  107.36890   11.77330    1.21640    1.35800    1.83890
 6000.00000   85.02850  -49.76780  106.75800   12.16830    1.31000    1.36580    1.87210
 6050.00000   93.29800  -50.82360  104.57280   11.44060    1.42120    1.58530    2.37310
 6100.00000   85.21180  -49.19340   86.84650   10.90220    2.69940    3.01490    3.32530
 6150.00000   89.31340  -47.44760  100.99020   11.17160    1.69520    1.87970    2.36990
 6200.00000   73.37850  -50.07090   90.91380   11.43890    2.09810    2.21840    2.66970
 6250.00000   82.76690  -51.25080   94.54570   11.32600    1.58340    1.82230    2.30130
 6300.00000   85.05230  -50.35600   90.76950   11.16670    1.65500    1.87620    2.03050
 6350.00000   93.46600  -50.70090   95.02300   11.86540    1.88510    1.98020    2.42580
 6400.00000   98.03840  -51.86510   98.19420   10.47080    1.62540    1.79490    2.02180
 6450.00000  135.93430  -49.33070   99.57800   12.22480    1.65140    1.86440    2.08100
 6500.00000   97.13360  -46.89130  104.08090   11.85440    1.40820    1.55820    1.91110
 6550.00000  102.02760  -47.71700  109.55710   11.53010    1.09500    1.21210    1.77870
 6600.00000   88.10700  -48.07950   93.44270   11.57330    2.06940    2.19310    2.51730
 6650.00000   75.22500  -47.05240   92.20850   11.73410    1.91430    2.15190    2.47390
 6700.00000   57.09680  -46.78410   92.41510   11.73660    2.04490    2.30780    2.62770
 6750.00000   52.20640  -47.10350   93.57670   11.72830    1.82800    2.06000    2.40710
 6800.00000   59.45880  -47.09020   95.28630   11.26890    1.76010    1.96910    2.30900
 6850.00000   65.49370  -46.97760  100.43700   11.97410    1.44450    1.64890    2.13450
 6900.00000   79.53590  -48.50170  103.81200   12.04660    1.25220    1.38810    1.86650
 6950.00000   79.32450  -46.29770   97.55970   11.62240    1.80090    1.90290    2.15520
 7000.00000   79.77690  -48.29090  105.80750   11.87620    1.37830    1.48750    1.93080
 7050.00000   74.31510  -52.21880   98.08910   12.48860    1.59620    1.78130    2.18490
 7100.00000   59.95440  -51.19820   80.59380   12.37750    3.33630    3.42740    3.49540
 7150.00000   47.35360  -55.13120   79.89920   11.30510    4.15800    4.37660    4.86640
 7200.00000   54.37910  -50.47600   81.09130   10.86050    3.67900    3.93340    4.27550
 7250.00000   49.62960  -55.65840   74.75880   11.08920    5.66230    6.63480    5.26350
 7300.00000   70.25560  -52.61690   85.07630   11.57810    2.99320    3.41700    3.60320
 7350.00000   68.25620  -55.13120   82.58660   12.32370    3.49210    3.68030    3.88700
 7400.00000   69.61550  -55.32380   82.88960   12.97050    2.97810    3.54730    3.33760
 7450.00000   83.59690  -54.93630   95.92440   13.09990    1.94100    2.20670    2.82040
 7500.00000   85.09160  -55.03870   95.18660   12.49470    2.25350    2.51870    2.92090
 7550.00000   77.91640  -56.96630   89.72750   10.95940    2.29590    2.70130    3.12420
 7600.00000   84.65630  -58.53050   93.20140   11.57880    2.14840    2.44600    3.28040
 7650.00000   83.54100  -59.64110   93.52440   12.64340    2.00280    2.31380    2.78140
 7700.00000   88.36640  -59.69480   92.35940   11.22340    2.23870    2.52930    3.05610
 7750.00000   87.46070  -64.61930   94.12140   10.98700    1.92100    2.19620    2.78960
 7800.00000   93.72180  -53.61740   96.94650   11.60840    1.95630    2.28720    2.80970
 7850.00000   87.89590  -40.38310   93.65090   11.94730    2.01940    2.32720    2.88560
 7900.00000   88.07980  -33.83330   93.26880   12.23490    1.92210    2.21220    2.75750
 7950.00000   86.03910  -31.74120   94.06480   12.29930    1.81780    2.08370    2.73000
 8000.00000   88.24430  -27.83870   93.97840   13.49360    1.88530    2.13710    2.65090
 8050.00000   89.91680  -32.80930   95.15760   12.35650    1.77150    2.04040    2.56530
 8100.00000   83.85060  -40.18080   93.68560   12.74220    2.04600    2.31900    2.82070
 8150.00000   90.06540  -41.38020   92.46840   12.28670    2.15470    2.41480    2.94010
 8200.00000   80.32040  -41.98410   92.41740   12.11760    2.11710    2.57630    3.05530
 8250.00000   89.37370  -25.58040   96.65210   12.13100    1.99420    2.66620    4.31750
 8300.00000   45.19930  -56.22550   66.25750   11.72310   22.67510   18.12220   12.90270
 8350.00000   64.62590  -44.37050   67.92850   11.35240   23.53010   22.95350    9.98980
 8400.00000   44.04270  -40.21920   68.92580   11.16660   52.50040   33.13040   18.09480
 8450.00000   87.15680  -20.95480  105.22030   10.76390    1.35120    1.43900    2.93900
