~Version ---------------------------------------------------
VERS. 2.0 : CWLS log ASCII Standard -VERSION 2.0
WRAP. YES : Multiple lines per depth step
~Well ------------------------------------------------------
STRT.FT                  300.0 : START DEPTH
STOP.FT                24000.0 : STOP DEPTH
STEP.FT               50.00000 : STEP LENGTH
NULL.                  -999.25 : NULL VALUE
COMP.       PLACID OIL COMPANY : COMPANY
WELL.                PEELER #1 : WELL
FLD .                  WILDCAT : FIELD
LOC .                          : LOCATION
CNTY.                MC MULLEN : COUNTY
STAT.                    TEXAS : STATE
CTRY. UNITED STATES OF AMERICA : COUNTRY
SRVC.             Schlumberger : SERVICE COMPANY
DATE.              01-Jan-1984 : LOGDATE
API .           42311317850000 : API NUMBER
UWI .           42311317850000 : UNIQUE WELL ID
SLAT.WGS84       28.5959255047 : SURFACE LATITUDE
SLON.WGS84      -98.4401225914 : SURFACE LONGITUDE
~Curve Information -----------------------------------------
DEPT  .FT    : 
CALDED.IN    : CALIPER FROM DENSITY LOG (ADJ TO RES.)
CALWS .IN    : CALIPER (CALDED)
CILDED.MMHO  : CONDUCTIVITY FROM LOG
CONDWS.MMHO  : CONDUCTIVITY (1000/DRESws)
DCORWS.G/C3  : DENSITY CORRECTION (DRHOED)
DENWS .G/C3  : BULK DENSITY  (FROM DPOws LS)
DPHIED.V/V   : DENSITY POROSITY  (ADJ TO RES.)
DPOWS .V/V   : DENSITY POROSITY (M=2.71 F=1 DPHIED)
DRESWS.OHMM  : DEEP RESISTIVITY (ILDED)
DRHOED.G/C3  : DENSITY CORRECTION (ADJ TO RES.)
DTED  .US/F  : DELTA TIME
DTWS  .US/F  : DELTA TIME  (DTED)
GRWS  .GAPI  : GAMMA RAY (GRRED)
GRRED .GAPI  : GAMMA RAY FROM RESISTIVITY LOG
ILDED .OHMM  : DEEP INDUCTION RESISTIVITY
ILMED .OHMM  : MEDIUM INDUCTION RESISTIVITY
MRESWS.OHMM  : MEDIUM RESISTIVITY (ILMED)
NPHIED.V/V   : NEUTRON POROSITY (ADJ TO RES.)
NPOWS .V/V   : NEUTRON POROSITY LIMESTONE (NPHIED)
RHOBED.G/C3  : BULK DENSITY (ADJ TO RES.)
SFLAED.OHMM  : SPHERICALLY FOCUSED RESISTIVITY
SPWS  .MV    : SPONTANEOUS POTENTIAL BASELINE 0 MV (SPRED)
SPRED .MV    : SPONTANEOUS POTENTIAL FROM RESISTIVITY
SRESWS.OHMM  : SHALLOW RESISTIVITY (SFLAED)
~Params ----------------------------------------------------
PD  .                     GL : PERMANENT DATUM
EPD .F                   336 : ELEVATION PERMANENT DATUM
LMF .                     KB : LOG MEASURED FROM
DMF .                     KB : DRILLING MEASURED FROM
EKB .F                   368 : KELLING BUSHING
EDF .F                   367 : DRILLING FLOOR
EGL .F                   336 : GROUND LEVEL
DATE.               1-1-1984 : RUN DATE
RUN .                      7 : RUN NUMBER
DD  .F                 24031 : DEPTH DRILLER
DL  .F                 24037 : DEPTH LOGGER
BLI .F                 24030 : BOTTOM LOG INTERVAL
TLI .F                 21000 : TOP LOG INTERVAL
CS  .IN                8.625 : CASING SIZE
CBD .F                 19500 : CASING BOTTOM DRILLER
CBL .F                 19500 : CASING BOTTOM LOGGER
BS  .IN                  7.5 : BIT SIZE
BSD .F                 24031 : BIT SIZE AT DEPTH
DFT .               INVERMUL : DRILLING FLUID TYPE
DFV .                     83 : DRILLING FLUID VISCOSITY
TCS .HRS                 800 : TIME CURCULATED STOPPED
TLAB.HRS                 200 : TIME LOGGER AT BOTTOM
LUL .               EDINBURG : LOGGING UNIT LOCATION
ENGI.              NEWMISTER : RECORDING ENGINEER
WITN.                   LONG : WITNESSED BY
CLNT.                A2DTECH : CLIENT CODE
ORIG.            1",5" PRINT : ORIGIN OF DATA
UWI .         42311317850000 : UNIQUE WELL ID
DICO. A2D Technologies, Inc. : DIGITIZING COMPANY
~Other -----------------------------------------------------
~ASCII -----------------------------------------------------
# ...
 13350.00000   13.47400   13.47400   35.60450   35.60450    0.10100    2.58000    0.07600    0.07600   28.08630    0.10100    -999.25    -999.25   48.60030   48.60030   28.08630    -999.25    -999.25    0.20900    0.20900    2.56700   43.98350  -19.36370  -27.50780   43.98350
 13400.00000   13.01800   13.01800   96.44440   95.15740    0.02700    2.74040   -0.01780   -0.01780   10.50890    0.02700    -999.25    -999.25   42.46110   42.46110   10.50890    -999.25    -999.25    0.00500    0.00500    2.72700   17.83480  -15.43800  -23.14640   17.83480
 13450.00000   13.48100   13.48100   90.94040  156.14510    0.03700    2.69360    0.00960    0.00960    6.40430    0.03700    -999.25    -999.25   36.28820   36.28820    6.40430    -999.25    -999.25    0.16900    0.16900    2.67700    8.52710  -15.01690  -22.28970    8.52710
 13500.00000   13.02000   13.02000   55.47040   40.75460    0.01400    2.67410    0.02100    0.02100   24.53710    0.01400    -999.25    -999.25   46.60720   46.60720   24.53710    -999.25    -999.25    0.12500    0.12500    2.66500   22.82170  -16.30930  -23.14640   22.82170
 13550.00000   12.52900   12.52900   15.87070   30.71090    0.02200    2.72470   -0.00860   -0.00860   32.56170    0.02200    -999.25    -999.25   18.92650   18.92650   32.56170    -999.25    -999.25    0.00500    0.00500    2.71900   40.90520  -20.87260  -27.27410   40.90520
 13600.00000   12.78900   12.78900    0.00040    2.39410    0.01800    2.73430   -0.01420   -0.01420  417.69300    0.01800    -999.25    -999.25   17.15510   17.15510  417.69300    -999.25    -999.25   -0.00300   -0.00300    2.73300  408.25520  -50.27510  -56.24090  408.25520
 13650.00000   12.66700   12.66700    0.00040    1.71560   -0.00100    2.71090   -0.00050   -0.00050  582.87040   -0.00100    -999.25    -999.25   18.31220   18.31220  582.87040    -999.25    -999.25    0.00500    0.00500    2.71400  609.30250  -48.45730  -53.98750  609.30250
 13700.00000   13.30500   13.30500    3.48300   28.80000    0.01600    2.73770   -0.01620   -0.01620   34.72220    0.01600    -999.25    -999.25   10.41960   10.41960   34.72220    -999.25    -999.25   -0.00200   -0.00200    2.73900  104.80620  -67.19520  -72.28970  104.80620
 13750.00000   15.16300   15.16300    0.00040    0.50740    0.01900    2.72860   -0.01090   -0.01090 1970.83080    0.01900    -999.25    -999.25   13.99700   13.99700 1970.83080    -999.25    -999.25    0.01400    0.01400    2.72100  344.18600  -70.04520  -74.70400  344.18600
 13800.00000   13.53900   13.53900    7.99580    0.50470    0.05500    2.70930    0.00040    0.00040 1981.45290    0.05500    -999.25    -999.25   15.24110   15.24110 1981.45290    -999.25    -999.25    0.06400    0.06400    2.71100  199.88750  -74.59800  -78.82120  199.88750
 13850.00000   12.54400   12.54400    1.74040    0.58800    0.01800    2.73680   -0.01570   -0.01570 1700.73080    0.01800    -999.25    -999.25   18.66250   18.66250 1700.73080    -999.25    -999.25    0.00100    0.00100    2.73700 1556.58440  -55.02860  -58.81610 1556.58440
 13900.00000   12.17900   12.17900    4.77250    5.20060    0.03700    2.75690   -0.02740   -0.02740  192.28400    0.03700    -999.25    -999.25   19.59560   19.59560  192.28400    -999.25    -999.25    0.02100    0.02100    2.76300  151.44040  -83.65730  -87.00920  151.44040
 13950.00000   12.06500   12.06500   66.24100   42.17220    0.03700    2.70320    0.00400    0.00400   23.71230    0.03700    -999.25    -999.25   25.50550   25.50550   23.71230    -999.25    -999.25    0.10500    0.10500    2.70000   28.97120  -82.50960  -85.42580   28.97120
 14000.00000   14.37900   14.37900   71.20220   63.32280    0.03200    2.71480   -0.00280   -0.00280   15.79210    0.03200    -999.25    -999.25   16.94070   16.94070   15.79210    -999.25    -999.25    0.00400    0.00400    2.71300   21.00820  -82.83550  -85.31610   21.00820
 14050.00000   13.21900   13.21900    0.00040   11.69680    0.06900    2.75040   -0.02360   -0.02360   85.49380    0.06900    -999.25    -999.25   25.38930   25.38930   85.49380    -999.25    -999.25    0.01500    0.01500    2.75200  136.99870  -70.51750  -72.56240  136.99870
 14100.00000   13.85500   13.85500    9.80350   14.46430    0.05800    2.75100   -0.02400   -0.02400   69.13580    0.05800    -999.25    -999.25   12.88110   12.88110   69.13580    -999.25    -999.25   -0.00100   -0.00100    2.74400   66.07890  -84.23190  -85.84110   66.07890
 14150.00000   14.08300   14.08300    0.00040    0.61870    0.08300    2.73090   -0.01220   -0.01220 1616.25510    0.08300    -999.25    -999.25   17.37950   17.37950 1616.25510    -999.25    -999.25   -0.00300   -0.00300    2.73000  808.68050  -81.27970  -82.45330  808.68050
 14200.00000   12.79900   12.79900    0.00040  202.49880    0.03900    2.75450   -0.02600   -0.02600    4.93830    0.03900    -999.25    -999.25   19.44010   19.44010    4.93830    -999.25    -999.25   -0.00200   -0.00200    2.73800   23.85800  -87.51750  -88.25540   23.85800
 14250.00000   13.20100   13.20100   10.06120    6.05420    0.02200    2.79000   -0.04680   -0.04680  165.17550    0.02200    -999.25    -999.25   20.12700   20.12700  165.17550    -999.25    -999.25   -0.00100   -0.00100    2.77200  148.39640  -72.56590  -72.86820  148.39640
 14300.00000   13.02200   13.02200   10.06190    1.12850    0.01500    2.71310   -0.00180   -0.00180  886.11110    0.01500    -999.25    -999.25   20.76210   20.76210  886.11110    -999.25    -999.25    0.00100    0.00100    2.71400   88.34930  -91.08910  -90.95570   88.34930
 14350.00000   12.42200   12.42200    4.51500    5.25580   -0.00400    2.71150   -0.00090   -0.00090  190.26420   -0.00400    -999.25    -999.25    -999.25    -999.25  190.26420    -999.25    -999.25    0.00000    0.00000    2.71300  175.61230  -77.93340  -77.36430  175.61230
 14400.00000   12.28800   12.28800    3.61240    7.22320    0.04800    2.82630   -0.06800   -0.06800  138.44350    0.04800    -999.25    -999.25    -999.25    -999.25  138.44350    -999.25    -999.25    0.00700    0.00700    2.81500  143.02920  -74.33800  -73.33330  143.02920
 14450.00000   12.43500   12.43500   17.02790    9.44980    0.01900    2.75140   -0.02420   -0.02420  105.82210    0.01900    -999.25    -999.25    -999.25    -999.25  105.82210    -999.25    -999.25    0.00700    0.00700    2.74800  148.10060  -70.01920  -68.57880  148.10060
 14500.00000   12.99700   12.99700   11.14650   11.40180    0.04400    2.73620   -0.01530   -0.01530   87.70560    0.04400    -999.25    -999.25   21.92850   21.92850   87.70560    -999.25    -999.25   -0.00100   -0.00100    2.73400  217.48290  -96.13960  -94.26360  217.48290
 14550.00000   12.74800   12.74800    7.77600    1.05400    0.08100    2.76560   -0.03250   -0.03250  948.76500    0.08100    -999.25    -999.25   16.84870   16.84870  948.76500    -999.25    -999.25   -0.00300   -0.00300    2.75700   47.81590  -88.90080  -86.58910   47.81590
 14600.00000   12.99700   12.99700    4.92400    0.76760    0.10200    2.68620    0.01390    0.01390 1302.72190    0.10200    -999.25    -999.25   24.57230   24.57230 1302.72190    -999.25    -999.25    0.03900    0.03900    2.67900   41.97530  -84.91780  -82.17050   41.97530
 14650.00000   12.76800   12.76800    0.06410    0.50450    0.01300    2.73170   -0.01270   -0.01270 1982.12330    0.01300    -999.25    -999.25   26.15400   26.15400 1982.12330    -999.25    -999.25   -0.00400   -0.00400    2.73500  236.88260  -87.33030  -84.14730  236.88260
 14700.00000   12.61200   12.61200    5.05480    7.21610    0.01400    2.75310   -0.02520   -0.02520  138.57960    0.01400    -999.25    -999.25   31.36340   31.36340  138.57960    -999.25    -999.25   -0.00100   -0.00100    2.74600  213.27160  -68.60600  -64.98740  213.27160
 14750.00000   12.78300   12.78300    9.13710    0.60180    0.01500    2.74420   -0.02000   -0.02000 1661.57410    0.01500    -999.25    -999.25   23.50870   23.50870 1661.57410    -999.25    -999.25    0.00100    0.00100    2.74600  127.31330  -74.48070  -70.42640  127.31330
