~Version ---------------------------------------------------
VERS. 2.0 : CWLS log ASCII Standard -VERSION 2.0
WRAP. YES : MULTIPLE LINES PER DEPTH STEP
~Well ------------------------------------------------------
STRT.FT                    2550.0 : START DEPTH
STOP.FT                    7750.0 : STOP DEPTH
STEP.FT                  50.00000 : STEP LENGTH
NULL.                     -999.25 : NULL VALUE
COMP. ROYAL OIL & GAS CORPORATION : COMPANY
WELL.          DAVID N. BEHLEN #1 : WELL
FLD .                 PEACH CREEK : FIELD
LOC .                             : LOCATION
CNTY.                    GONZALES : COUNTY
STAT.                       TEXAS : STATE
CTRY.    UNITED STATES OF AMERICA : COUNTRY
SRVC.                Schlumberger : SERVICE COMPANY
DATE.                 02-Sep-1983 : LOGDATE
API .              42177314700000 : API NUMBER
UWI .              42177314700000 : UNIQUE WELL ID
SLAT.WGS84          29.5523655899 : SURFACE LATITUDE
SLON.WGS84         -97.3843892893 : SURFACE LONGITUDE
~Curve Information -----------------------------------------
DEPT    .FT    : DEPTH FEET
BITED   .IN    : BIT SIZE FROM LOG HEADER
CALWS   .IN    : CALIPER [DCALED+BITED]
CONDWS  .MMHO  : CONDUCTIVITY [1000/DRESWS]
DCALED  .IN    : DIFFERENTIAL CALIPER FROM DENSITY LOG
DCORWS  .G/C3  : DENSITY CORRECTION [DRHOED]
DENWS   .G/C3  : BULK DENSITY [M=2.65 F=1.0 CALCULATED FROM DPHISSED TO 7000 FEET, THEN CALCULATED FROM SPLICE OF DPHILSED WITH TEMP CURVE DPHI2 [M=2.71, F=1 TO TD1]
DPHILSED.V/V   : DENSITY POROSITY LIMESTONE FROM DENSITY LOG
DPHISSED.V/V   : DENSITY POROSITY SANDSTONE FROM DENSITY LOG
DPOWS   .V/V   : DENSITY POROSITY [M=2.71 F=1.0] [CALCULATED FROM TEMP CURVE RHOB2 TO 7000 FEET, THEN CALCULATED FROM SPLICE OF DPHILSED WITH TEMP CURVE DPHI2 TO TD]
DRESWS  .OHMM  : DEEP RESISTIVITY [ILDED]
DRHOED  .G/C3  : DENSITY CORRECTION FROM DENSITY LOG
GRRED   .GAPI  : GAMMA RAY FROM RESISTIVITY LOG
GRWS    .GAPI  : GAMMA RAY [GRRED]
ILDED   .OHMM  : INDUCTION LOG DEEP RESISTIVITY
ILMED   .OHMM  : INDUCTION LOG MEDIUM RESISTIVITY
MRESWS  .OHMM  : MEDIUM RESISTIVITY [ILMED]
NPHILSED.V/V   : NEUTRON POROSITY LIMESTONE FROM DENSITY LOG
NPHISSED.V/V   : NEUSTRON POROSITY SANDSTONE FROM DENSITY LOG
NPOWS   .V/V   : NEUTRON POROSITY LIMESTONE [CONVERTED FROM NPHISSED TO 7000 FEET, THEN EQUALS NPHILSED TO TD]
RHOBED  .G/C3  : BULK DENSITY FROM DENSITY LOG [DEPTH SHIFTED TO DPHILSED]
SFLUED  .OHMM  : SPHERICALLY FOCUSED LOG RESISTIVITY
SPRED   .MV    : SPONTANEOUS POTENTIAL FROM RESISTIVITY LOG
SPWS    .MV    : SPONTANEOUS POTENTIAL [BASELINE 0 MV] [SPRED]
SRESWS  .OHMM  : SHALLOW RESISTIVITY [SFLUED]
TENRED  .LBF   : TENSION FROM RESISTIVITY LOG
~Params ----------------------------------------------------
PD  .                     GL : PERMANENT DATUM
LMF .                    RKB : LOG MEASURED FROM
DAPD.F                  12.5 : FEET ABOVE PERMANENT DATUM
DMF .                    RKB : DRILLING MEASURED FROM
EKB .F                 316.6 : KELLING BUSHING
EDF .F                 315.6 : DRILLING FLOOR
EGL .F                 304.1 : GROUND LEVEL
DATE.               9/2/1983 : RUN DATE
RUN .                      1 : RUN NUMBER
DD  .F                  7760 : DEPTH DRILLER
DL  .F                  7745 : DEPTH LOGGER
BLI .F                  7742 : BOTTOM LOG INTERVAL
TLI .F                  2512 : TOP LOG INTERVAL
CS  .IN                8.625 : CASING SIZE
CBD .F                  2512 : CASING BOTTOM DRILLER
CBL .F                  2512 : CASING BOTTOM LOGGER
BS  .IN                7.875 : BIT SIZE
BSD .F                  7760 : BIT SIZE AT DEPTH
DFT .         LIGNOSULFONATE : DRILLING FLUID TYPE
DFD .                    9.2 : DRILLING FLUID DENSITY
DFV .                     42 : DRILLING FLUID VISCOSITY
DFPH.                   10.5 : DRILLING FLUID PH
DFL .                    6.4 : DRILLING FLUID LOSS
MSS .              CIRC TANK : MUD SAMPLE SOURCE
RMS .OHMM               3.89 : RESISTIVITY MUD SAMPLE
MST .F                    75 : MUD SAMPLE TEMPERATURE
RMF .OHMM               3.56 : RESISTIVITY MUD FILTRATE SAMPLE
MFST.F                    75 : MUD FILTRATE SAMPLE TEMPERATURE
RMC .OHMM               5.83 : RESISTIVITY MUD CAKE
MCST.F                    75 : MUD CAKE SAMPLE TEMPERATURE
MFSS.                   MEAS : MUD FILTRATE SAMPLE SOURCE
MCSS.                  CHART : MUD CAKE SAMPLE SOURCE
RMB .OHMM              1.743 : RESISTIVITY MUD AT BHT
TCS .HRS                 130 : TIME CURCULATED STOPPED
TLAB.HRS                 615 : TIME LOGGER AT BOTTOM
LUN .                   8299 : LOGGING UNIT NUMBER
LUL .               VICTORIA : LOGGING UNIT LOCATION
ENGI.             DALE LOGAN : RECORDING ENGINEER
WITN.          DAVID WEBSTER : WITNESSED BY
CLNT.                A2DTECH : CLIENT CODE
ORIG.               5" PRINT : ORIGIN OF DATA
UWI .         42177314700000 : UNIQUE WELL ID
DICO. A2D Technologies, Inc. : DIGITIZING COMPANY
~Other -----------------------------------------------------
1. TEMPORARY CURVE RHOB2 CALCULATED FROM DPHISSED [M=2.65, F=1] TO MAKE UPPER PART OF DENWS.
2. TEMPORARY CURVE DPHI2 CALCULATED FROM DEPTH SHIFTED RHOBED [M=2.71, F=1]. REASON: DPHILSED DID NOT WRAP, AND SOME OF ITS HIGH-END VALUES WERE TRUNCATED AT .45 V/V. DPHI2 WAS SPLICED IN TO INCLUDE PLACES WHERE POROSITY VALUES WERE GREATER THAN .45 V/V IN THE LIMESTONE PORTION OF THE WELL.
3. DPOWS WAS COMPUTED FROM DENWS (RHOB2) ABOVE 7000 FEET M=2.71, F=1. LIMESTONE SECTION FROM 7000 FEET DOWN WAS COMPUTED FROM DPHILSED/DPHI2 SPLICE. M=2.71, F=1.
4. NPOWS ABOVE 7000 FEET WAS CONVERTED TO LIMESTONE MATRIX AS FOLLOWS: INPUT = NPHISSED. OUTPUT = NPOWS. COMPANY = SWS. TOOL = CNL(NPHI). INPUT MATRIX: QTZ (4.6) OUTPUT MATRIX = LIME (7.1). BELOW 7000 FEET, NPOWS = NPHILSED.
~ASCII -----------------------------------------------------
 2550.00000    7.87500   11.15480  277.77010    3.27980    -999.25    -999.25    -999.25    -999.25    -999.25    3.60010    -999.25    -999.25    -999.25    3.60010    3.40690    3.40690    -999.25    -999.25    -999.25    -999.25    5.59060   11.80530  -17.90810    5.59060 1672.24670
 2600.00000    7.87500   10.87100  326.92560    2.99600    -999.25    -999.25    -999.25    -999.25    -999.25    3.05880    -999.25    -999.25    -999.25    3.05880    2.79830    2.79830    -999.25    -999.25    -999.25    -999.25    2.58590   20.79250   -8.07360    2.58590 1721.59240
 2650.00000    7.87500   10.61910  401.12310    2.74410    -999.25    -999.25    -999.25    -999.25    -999.25    2.49300    -999.25    -999.25    -999.25    2.49300    2.32970    2.32970    -999.25    -999.25    -999.25    -999.25    1.97280   24.41460   -3.60430    1.97280 1731.63780
 2700.00000    7.87500    9.71160  217.59470    1.83660    -999.25    -999.25    -999.25    -999.25    -999.25    4.59570    -999.25    -999.25    -999.25    4.59570    4.76670    4.76670    -999.25    -999.25    -999.25    -999.25    6.18590  -15.78660  -42.95820    6.18590 1789.83850
 2750.00000    7.87500    8.72820  295.66560    0.85320    -999.25    -999.25    -999.25    -999.25    -999.25    3.38220    -999.25    -999.25    -999.25    3.38220    3.67850    3.67850    -999.25    -999.25    -999.25    -999.25    5.58340  -14.74010  -41.06440    5.58340 1734.83350
 2800.00000    7.87500    8.76030  290.30940    0.88530    -999.25    -999.25    -999.25    -999.25    -999.25    3.44460    -999.25    -999.25    -999.25    3.44460    3.67210    3.67210    -999.25    -999.25    -999.25    -999.25    5.61480  -18.41580  -43.89290    5.61480 1755.95890
 2850.00000    7.87500    8.45040  279.61860    0.57540    -999.25    -999.25    -999.25    -999.25    -999.25    3.57630    -999.25    -999.25    -999.25    3.57630    3.74450    3.74450    -999.25    -999.25    -999.25    -999.25    4.94320   -5.07040  -29.70020    4.94320 1783.03520
 2900.00000    7.87500    9.31320  361.49370    1.43820    -999.25    -999.25    -999.25    -999.25    -999.25    2.76630    -999.25    -999.25    -999.25    2.76630    2.54790    2.54790    -999.25    -999.25    -999.25    -999.25    2.37910   20.30990   -3.24240    2.37910 1776.40700
 2950.00000    7.87500   10.03770  500.45040    2.16270    -999.25    -999.25    -999.25    -999.25    -999.25    1.99820    -999.25    -999.25    -999.25    1.99820    1.87440    1.87440    -999.25    -999.25    -999.25    -999.25    1.77710   20.51660   -1.44100    1.77710 1875.86230
 3000.00000    7.87500   10.71230  286.15580    2.83730    -999.25    -999.25    -999.25    -999.25    -999.25    3.49460    -999.25    -999.25    -999.25    3.49460    3.67640    3.67640    -999.25    -999.25    -999.25    -999.25    5.81870   -0.36000  -21.10250    5.81870 1865.75380
 3050.00000    7.87500   11.89200  576.80100    4.01700    -999.25    -999.25    -999.25    -999.25    -999.25    1.73370    -999.25    -999.25    -999.25    1.73370    1.65630    1.65630    -999.25    -999.25    -999.25    -999.25    1.86750   16.43560   -2.86890    1.86750 1861.59170
 3100.00000    7.87500   11.60450  699.15410    3.72950    -999.25    -999.25    -999.25    -999.25    -999.25    1.43030    -999.25    -999.25    -999.25    1.43030    1.39160    1.39160    -999.25    -999.25    -999.25    -999.25    1.44350   14.66950   -2.58450    1.44350 1868.75070
 3150.00000    7.87500   11.21240  660.67650    3.33740    -999.25    -999.25    -999.25    -999.25    -999.25    1.51360    -999.25    -999.25    -999.25    1.51360    1.45920    1.45920    -999.25    -999.25    -999.25    -999.25    1.64330   10.93490   -3.28210    1.64330 1894.75930
 3200.00000    7.87500   11.04540  661.41940    3.17040    -999.25    -999.25    -999.25    -999.25    -999.25    1.51190    -999.25    -999.25    -999.25    1.51190    1.47100    1.47100    -999.25    -999.25    -999.25    -999.25    1.58070    6.97970   -6.88550    1.58070 1869.91600
 3250.00000    7.87500   11.18850  569.54100    3.31350    -999.25    -999.25    -999.25    -999.25    -999.25    1.75580    -999.25    -999.25    -999.25    1.75580    1.71090    1.71090    -999.25    -999.25    -999.25    -999.25    1.86310   -0.14830  -14.13560    1.86310 1929.96680
 3300.00000    7.87500   10.90480  641.56030    3.02980    -999.25    -999.25    -999.25    -999.25    -999.25    1.55870    -999.25    -999.25    -999.25    1.55870    1.51650    1.51650    -999.25    -999.25    -999.25    -999.25    1.65840   -0.14500  -14.25440    1.65840 1937.41520
 3350.00000    7.87500   10.27580  304.80370    2.40080    -999.25    -999.25    -999.25    -999.25    -999.25    3.28080    -999.25    -999.25    -999.25    3.28080    3.33300    3.33300    -999.25    -999.25    -999.25    -999.25    3.87910  -13.66340  -27.89490    3.87910 2021.73050
 3400.00000    7.87500    8.02260  352.48500    0.14760    -999.25    -999.25    -999.25    -999.25    -999.25    2.83700    -999.25    -999.25    -999.25    2.83700    3.02820    3.02820    -999.25    -999.25    -999.25    -999.25    6.25590  -45.94230  -60.29580    6.25590 1994.75090
 3450.00000    7.87500    8.13080  548.18550    0.25580    -999.25    -999.25    -999.25    -999.25    -999.25    1.82420    -999.25    -999.25    -999.25    1.82420    1.53690    1.53690    -999.25    -999.25    -999.25    -999.25    2.33960   -0.04830  -14.52390    2.33960 2074.37280
 3500.00000    7.87500    8.11610  631.19350    0.24110    -999.25    -999.25    -999.25    -999.25    -999.25    1.58430    -999.25    -999.25    -999.25    1.58430    1.69400    1.69400    -999.25    -999.25    -999.25    -999.25    4.80320  -22.87650  -37.47420    4.80320 2008.87350
 3550.00000    7.87500    7.90210  642.83870    0.02710    -999.25    -999.25    -999.25    -999.25    -999.25    1.55560    -999.25    -999.25    -999.25    1.55560    1.71750    1.71750    -999.25    -999.25    -999.25    -999.25    4.69960  -55.39980  -70.11950    4.69960 1992.85180
 3600.00000    7.87500    7.86600  573.29590   -0.00900    -999.25    -999.25    -999.25    -999.25    -999.25    1.74430    -999.25    -999.25    -999.25    1.74430    1.83370    1.83370    -999.25    -999.25    -999.25    -999.25    3.67210  -22.36920  -37.21100    3.67210 2078.92460
 3650.00000    7.87500    7.75900  723.90330   -0.11600    -999.25    -999.25    -999.25    -999.25    -999.25    1.38140    -999.25    -999.25    -999.25    1.38140    1.33180    1.33180    -999.25    -999.25    -999.25    -999.25    1.40990    4.23760  -10.72630    1.40990 2129.31490
 3700.00000    7.87500    7.85450  583.46460   -0.02050    -999.25    -999.25    -999.25    -999.25    -999.25    1.71390    -999.25    -999.25    -999.25    1.71390    1.76790    1.76790    -999.25    -999.25    -999.25    -999.25    3.11970  -17.98020  -33.06620    3.11970 2114.02910
 3750.00000    7.87500    7.79920  458.63150   -0.07580    -999.25    -999.25    -999.25    -999.25    -999.25    2.18040    -999.25    -999.25    -999.25    2.18040    2.42340    2.42340    -999.25    -999.25    -999.25    -999.25    5.34090  -22.31260  -37.52060    5.34090 2107.45730
 3800.00000    7.87500    7.74630  524.30140   -0.12870    -999.25    -999.25    -999.25    -999.25    -999.25    1.90730    -999.25    -999.25    -999.25    1.90730    2.07030    2.07030    -999.25    -999.25    -999.25    -999.25    3.39980  -29.62430  -44.95440    3.39980 2080.28710
 3850.00000    7.87500    7.85520  627.27390   -0.01980    -999.25    -999.25    -999.25    -999.25    -999.25    1.59420    -999.25    -999.25    -999.25    1.59420    1.79000    1.79000    -999.25    -999.25    -999.25    -999.25    5.07850  -64.35760  -79.80980    5.07850 2212.91210
 3900.00000    7.87500    9.12500  660.67650    1.25000    -999.25    -999.25    -999.25    -999.25    -999.25    1.51360    -999.25    -999.25    -999.25    1.51360    1.55560    1.55560    -999.25    -999.25    -999.25    -999.25    1.47030    4.25620  -11.31810    1.47030 2217.69410
