~Version ---------------------------------------------------
VERS. 2.0 : CWLS log ASCII Standard -VERSION 2.0
WRAP.  NO : ONE LINE PER DEPTH STEP
~Well ------------------------------------------------------
STRT.F                    3900.0 : START DEPTH
STOP.F                    8450.0 : STOP DEPTH
STEP.F                  50.00000 : STEP LENGTH
NULL.                    -999.25 : NULL VALUE
COMP. CHAMPLIN PETROLEUM COMPANY : COMPANY
WELL.         VERNON BRINKMAN #1 : WELL
FLD .                   GIDDINGS : FIELD
LOC .                            : LOCATION
CNTY.                   BURLESON : COUNTY
STAT.                      TEXAS : STATE
CTRY.   UNITED STATES OF AMERICA : COUNTRY
SRVC.              Dresser Atlas : SERVICE COMPANY
DATE.                27-Oct-1980 : LOGDATE
API .             42051308570000 : API NUMBER
UWI .             42051308570000 : UNIQUE WELL ID
SLAT.WGS84         30.3859493562 : SURFACE LATITUDE
SLON.WGS84        -96.7255439477 : SURFACE LONGITUDE
~Curve Information -----------------------------------------
DEPT.F                 : 
GRR .GAPI 07 310 01 00 : GAMMA RAY FROM RES. LOG.
ILD .OHMM 07 120 46 00 : INDUCTION LOG DEEP
ILM .OHMM 07 120 44 00 : INDUCTION LOG MEDIUM
SFL .OHMM 07 220 01 00 : SHALLOW FOCUSED LOG RESISTIVITY
SPR .MV   07 010 01 00 : SPONTANEOUS POTENTIAL FROM RES.
CALR.IN   07 280 01 00 : CALIPER FROM RESISTIVITY
DT  .US/F 60 520 00 00 : INTERVAL TRANSIT TIME
~Params ----------------------------------------------------
PD  .                     GL : PERMANENT DATUM
EPD .FT                  340 : ELEVATION PERMANENT DATUM
LMF .                     KB : LOG MEASURED FROM
DAPD.FT                   16 : FEET ABOVE PERMANENT DATUM
DMF .                     KB : DRILLING MEASURED FROM
EKB .FT                  356 : KELLY BUSHING
EDF .FT                  355 : DRILLING FLOOR
EGL .FT                  340 : GROUND LEVEL
DATE.               10/27/80 : RUN DATE
RUN .                      1 : RUN NUMBER
DD  .FT                 8485 : DEPTH DRILLER
DL  .FT                 8487 : DEPTH LOGGER
BLI .FT                 8485 : BOTTOM LOG INTERVAL
TLI .FT                 3878 : TOP LOG INTERVAL
CS  .IN                9.625 : CASING SIZE
CBD .FT                 3872 : CASING BOTTOM DRILLER
CBL .FT                 3878 : CASING BOTTOM LOGGER
BS  .IN                 8.75 : BIT SIZE
BSD .FT                 8485 : BIT SIZE AT DEPTH
DFT .                  BENEX : DRILLING FLUID TYPE
DFD .                    9.4 : DRILLING FLUID DENSITY
DFV .                     60 : DRILLING FLUID VISCOSITY
DFPH.                      9 : DRILLING FLUID PH
DFL .                      7 : DRILLING FLUID LOSS
MSS .               FLOWLINE : MUD SAMPLE SOURCE
RMS .OHMM               3.85 : RESISTIVITY MUD SAMPLE
MST .DEGF                 75 : MUD SAMPLE TEMPERATURE
RMF .OHMM                  3 : RESISTIVITY MUD FILTRATE SAMPLE
MFST.DEGF                 75 : MUD FILTRATE SAMPLE TEMPERATURE
RMC .OHMM                4.8 : RESISTIVITY MUD CAKE
MCST.DEGF                 75 : MUD CAKE SAMPLE TEMPERATURE
MFSS.                   MEAS : MUD FILTRATE SAMPLE SOURCE
MCSS.                   CALC : MUD CAKE SAMPLE SOURCE
RMB .OHMM               1.64 : RESISTIVITY MUD AT BHT
TCS .HRS                   6 : TIME CIRCULATED STOPPED
LUN .                   6120 : LOGGING UNIT NUMBER
LUL .                  ALVIN : LOGGING UNIT LOCATION
ENGI.                 HICKEY : RECORDING ENGINEER
WITN.                 SCHELL : WITNESSED BY
CLNT.                A2DTECH : CLIENT CODE
ORIG.            2" 5" PRINT : ORIGIN OF DATA
UWI .         42051308570000 : UNIQUE WELL ID
DICO. A2D Technologies, Inc. : DIGITIZING COMPANY
~Other -----------------------------------------------------
~ASCII -----------------------------------------------------
 3900.00000   70.70300    5.28230    5.60150    5.41720  -24.85860    9.16850    -999.25
 3950.00000   49.89620   21.08030   17.82860   13.01270  -55.83750    9.00140    -999.25
 4000.00000   62.13520   12.29700   11.42330    9.49540  -63.99840    8.85230    -999.25
 4050.00000   72.95970    4.07470    4.27860    5.02960  -41.47940    9.13100    -999.25
 4100.00000   48.40960   10.63060   10.72530    9.22500  -49.69720    8.92740    -999.25
 4150.00000   66.81720    6.19730    5.73070    4.78190  -44.29590    9.66540    -999.25
 4200.00000   66.06100   10.69030   11.56820   11.14510  -57.82110    9.01430    -999.25
 4250.00000   52.11560    9.42030   10.61060    7.94860  -54.52840    9.17590    -999.25
 4300.00000   73.31380    5.13270    6.03070    6.77920  -46.62440    9.37760    -999.25
 4350.00000   75.26240    4.87580    5.28150    6.39960  -46.83570    9.43440    -999.25
 4400.00000   74.51570    2.64820    2.86520    3.20340  -31.65120   10.00350    -999.25
 4450.00000   71.53290    7.39930    6.39980    7.06590  -53.89110    9.54260    -999.25
 4500.00000   85.33960    2.62340    3.04060    3.25090  -25.09670   10.07150    -999.25
 4550.00000   79.29110    2.52570    2.41980    3.11610  -26.01470    9.59640    -999.25
 4600.00000   68.58450    3.01650    2.90110    3.29240  -28.88330   10.18000    -999.25
 4650.00000   75.77580    3.28830    3.15680    3.56190  -28.12630   10.22760    -999.25
 4700.00000   76.30100    3.52120    3.37050    3.62330  -30.84760    9.89820    -999.25
 4750.00000   79.85450    3.05140    2.83900    3.30480  -26.27230    9.76450    -999.25
 4800.00000   78.86620    2.78620    2.58340    2.94280  -25.14020    9.52750    -999.25
 4850.00000   78.60230    2.06570    2.13890    2.49020  -23.25930    9.69720    -999.25
 4900.00000   81.06140    1.69230    1.76510    2.23610  -21.06360    9.62870    -999.25
 4950.00000   80.60010    2.13640    2.23100    2.47690  -21.26950    9.50870    -999.25
 5000.00000   83.49360    1.68820    1.76410    2.17830  -21.18850    9.42240    -999.25
 5050.00000   79.54620    1.54280    1.61120    2.09210  -21.70610    9.52010    -999.25
 5100.00000   82.05890    1.47390    1.53910    2.05600  -20.62110    9.67640    -999.25
 5150.00000   87.17160    1.34550    1.40510    1.92250  -23.29690    9.70000    -999.25
 5200.00000   87.01850    1.49380    1.57820    1.93270  -24.39310    9.92130    -999.25
 5250.00000   83.52560    1.22090    1.28100    1.80130  -22.99930    9.87040    -999.25
 5300.00000   77.99710    1.56220    1.37330    1.66890  -19.07840   10.00210    -999.25
 5350.00000   80.22090    1.49290    1.60210    1.87220  -19.21950    9.70970    -999.25
 5400.00000   73.50110    1.55600    1.66300    2.08480  -22.12870    9.58820    -999.25
 5450.00000   75.34190    1.19870    1.12390    1.74320  -24.91190    9.67160    -999.25
 5500.00000   71.22250    1.10480    1.04200    1.61980  -20.26950   10.19030    -999.25
 5550.00000   72.26070    1.70770    1.78680    1.96730  -20.48110   10.48360    -999.25
 5600.00000   63.67950    1.96290    2.04240    2.18770  -23.64500    9.83900    -999.25
 5650.00000   71.60560    1.50830    1.62590    1.90450  -22.67020    9.04380    -999.25
 5700.00000   74.83410    1.05320    0.98940    1.51010  -25.71660    9.87170    -999.25
 5750.00000   68.90660    1.15570    1.08430    1.52450  -20.91050   10.40290    -999.25
 5800.00000   68.26210    1.37690    1.40440    1.66460  -22.40120   10.44930    -999.25
 5850.00000   78.56510    1.04470    1.09980    1.56940  -19.83750   10.73840    -999.25
 5900.00000   76.11370    1.14190    1.21290    1.82500  -17.32190   10.21230    -999.25
 5950.00000   80.56370    1.46370    1.55140    1.77930  -17.30620    9.90030    -999.25
 6000.00000   73.27470    1.45030    1.64020    1.86100  -17.24640   10.26400    -999.25
 6050.00000   62.03450    2.43270    2.55460    2.80680  -17.85050    9.31980    -999.25
 6100.00000   84.13760    1.30130    1.33290    1.77800  -16.64340    9.86430    -999.25
 6150.00000   83.30140    1.44200    1.50570    1.89630  -15.22570    9.56280    -999.25
 6200.00000   82.56220    1.30310    1.37640    1.78270  -14.57690   10.13650    -999.25
 6250.00000   69.41120    1.63660    1.79810    1.99090  -17.04150   10.47820    -999.25
 6300.00000   77.05450    1.25930    1.18970    1.70690  -16.24270   10.95190    -999.25
 6350.00000   86.67070    1.48700    1.63950    1.73600  -16.84550   11.01490    -999.25
 6400.00000   75.87180    1.84830    1.95020    2.21440  -20.49410    9.26080    -999.25
 6450.00000   72.55270    1.89950    2.05620    2.25310  -18.39090    9.68460    -999.25
 6500.00000   76.40380    1.54430    1.69070    2.06920  -17.43370    9.49010    -999.25
 6550.00000   74.84150    1.74050    1.84950    2.20980  -21.44100   10.37310    -999.25
 6600.00000   75.16950    1.40120    1.48110    1.95250  -19.12440   10.17590    -999.25
 6650.00000   74.82420    1.35630    1.43230    2.10100  -10.20410   10.52550    -999.25
 6700.00000   75.09530    1.90450    2.03290    2.40830  -21.11800   10.49010    -999.25
 6750.00000   69.90270    1.69030    2.00700    2.55580  -22.53430    9.55640  136.68620
 6800.00000   41.37600    4.35950    4.58700    5.37920  -33.47590    9.38090    -999.25
 6850.00000   36.27260    8.53480    9.39220    8.87990  -39.57250    9.27240    -999.25
 6900.00000   58.49720    3.00710    3.08700    3.96450  -20.22640    9.21010    -999.25
 6950.00000   68.71650    3.13710    3.45080    4.06160  -14.14350    9.39240  165.45300
 7000.00000   69.48380    2.73560    2.91580    3.64330  -17.20090    9.41760  101.25550
 7050.00000   75.70900    2.75200    2.98630    3.40320  -16.28810    9.03630   87.36590
 7100.00000   78.13720    2.34040    2.40850    3.24190  -16.04720    9.39460  108.65080
 7150.00000   75.38000    1.94750    2.05480    2.80310  -24.51440    9.30400   94.72770
 7200.00000   69.10240    2.16190    2.33240    3.72040  -16.03030   10.76380  122.13950
 7250.00000   71.16970    1.82020    1.97680    2.62570  -23.12070   10.66730  127.64510
 7300.00000   70.95050    1.84160    2.00320    2.54130  -19.73600   11.29230  120.42970
 7350.00000   70.68340    1.95930    2.23560    2.64310  -17.41040   11.02100  124.67680
 7400.00000   71.65690    2.08570    2.28870    2.98150  -17.58150   10.01310  121.18690
 7450.00000   71.26110    2.09170    2.31200    2.96370   -9.46780   11.13600   94.55020
 7500.00000   32.20090    7.60220    9.37950    7.48660  -15.75430   10.70850   72.71530
 7550.00000   32.63570   10.58590    9.48460   19.52070  -42.29620    9.32550   92.13220
 7600.00000   36.03750    8.89140    8.42890    9.33600  -35.82750    9.49350   70.95600
 7650.00000   30.73940   17.44670   14.12190   15.83680  -44.17390    9.47030   71.10280
 7700.00000   28.44410   10.73370   10.28910   11.97700  -49.73030   10.01090   65.04760
 7750.00000   30.95540    7.81370    9.03030    9.87330  -41.65940    9.47440   88.80810
 7800.00000   38.67090    8.77530    9.32800    5.42120  -46.41680    9.56820  109.86720
 7850.00000   35.79660   11.90270   12.97470   25.89960  -61.45730    9.45160   65.50150
 7900.00000   33.62610   17.72110   16.63430   16.71530  -75.21560    9.37750   80.65920
 7950.00000   45.87250   15.91560   14.09590   14.33110  -84.00900    9.19930   88.03500
 8000.00000   28.24700   45.52670   30.93400   63.23680 -102.09170    9.12110   62.54130
 8050.00000   60.66900    2.47530    2.75450    5.32760  -32.22980    8.96050   95.57750
 8100.00000   76.76400    3.31310    3.17260    3.73040  -18.52990   10.65840  118.77250
 8150.00000   79.93890    5.35020    4.54790    5.02840  -26.75110   11.07740   58.30200
 8200.00000   97.84270   11.74510    9.63310   13.53390   -9.51740   10.19480  102.18890
 8250.00000   80.65900    2.63580    2.41220    5.77530  -26.68050    9.09810   99.71270
 8300.00000   45.04690    6.17460    6.76900    9.32560  -19.26090   10.72940   57.38540
 8350.00000   26.33100   46.32540   30.65710   38.34750  -58.60400    9.33210   81.26610
