~Version ---------------------------------------------------
VERS. 2.0 : CWLS log ASCII Standard -VERSION 2.0
WRAP.  NO : ONE LINE PER DEPTH STEP
~Well ------------------------------------------------------
STRT.FT                           3600.0 : START DEPTH
STOP.FT                           8400.0 : STOP DEPTH
STEP.FT                         50.00000 : STEP LENGTH
NULL.                            -999.25 : NULL VALUE
COMP. SANTA FE-WINDSOR PRODUCING COMPANY : COMPANY
WELL.                        WERNECKE #1 : WELL
FLD .                           GIDDINGS : FIELD
LOC .                                    : LOCATION
CNTY.                                LEE : COUNTY
STAT.                              TEXAS : STATE
CTRY.           UNITED STATES OF AMERICA : COUNTRY
SRVC.                       Schlumberger : SERVICE COMPANY
DATE.                        11-Jun-1982 : LOGDATE
API .                     42287312500000 : API NUMBER
UWI .                     42287312500000 : UNIQUE WELL ID
SLAT.WGS84                 30.1197278777 : SURFACE LATITUDE
SLON.WGS84                -96.9728807092 : SURFACE LONGITUDE
~Curve Information -----------------------------------------
DEPT  .FT    : DEPTH FEET
GRRED .GAPI  : GAMMA RAY FROM RESISTIVITY LOG
SPRED .MV    : SPONTANEOUS POTENTIAL FROM RESISTIVITY LOG
ILDED .OHMM  : INDUCTION LOG DEEP RESISTIVITY
ILMED .OHMM  : INDUCTION LOG MEDIUM RESISTIVITY
SFLUED.OHMM  : SPHERICALLY FOCUSED LOG RESISTIVITY
DCALED.IN    : DIFFERENTIAL CALIPER FROM DENSITY LOG
DRHOED.G/C3  : DENSITY CORRECTION FROM DENSITY LOG
SPWS  .MV    : SPONTANEOUS POTENTIAL [BASELINE 0 MV] [SPRED]
DPHIED.V/V   : DENSITY POROSITY FROM DENSITY LOG
NEUTED.CU    : NEUTRON FROM NEUTRON LOG [DEPTH ADJ TO RES LOG]
CALWS .IN    : CALIPER [DCALED+BIT]
GRNED .GAPI  : GAMMA RAY FROM NEUTRON LOG [DEPTH ADJ TO RES LOG]
DCORWS.G/C3  : DENSITY CORRECTION [DRHOED]
GRWS  .GAPI  : GAMMA RAY [GRRED]
DRESWS.OHMM  : DEEP RESISTIVITY [ILDED]
MRESWS.OHMM  : MEDIUM RESISTIVITY [ILMED]
SRESWS.OHMM  : SHALLOW RESISTIVITY [SFLUED]
CONDWS.MMHO  : CONDUCTIVITY [1000/DRESWS]
NEUTWS.CU    : NEUTRON [NEUTED]
DENWS .G/C3  : BULK DENSITY[CALCULATED FROM DENWS]  CSG-6400(SS_2.65); 6400-TD(LS_2.71)
DPOWS .V/V   : DENSITY POROSITY [M=2.71 F=1] [CALCULATED FROM DENWS]
~Params ----------------------------------------------------
PD  .                     GL : PERMANENT DATUM
EPD .FT                  436 : ELEVATION PERMANENT DATUM
LMF .                    RKB : LOG MEASURED FROM
DAPD.FT                   14 : FEET ABOVE PERMANENT DATUM
DMF .                    RKB : DRILLING MEASURED FROM
EKB .FT                  450 : KELLY BUSHING
EDF .FT                  449 : DRILLING FLOOR
EGL .FT                  436 : GROUND LEVEL
DATE.               06/11/82 : RUN DATE
RUN .                      1 : RUN NUMBER
DD  .FT                 8435 : DEPTH DRILLER
DL  .FT                 8445 : DEPTH LOGGER
BLI .FT                 8439 : BOTTOM LOG INTERVAL
TLI .FT                 3619 : TOP LOG INTERVAL
CS  .IN                9.625 : CASING SIZE
CBD .FT                 3617 : CASING BOTTOM DRILLER
CBL .FT                 3619 : CASING BOTTOM LOGGER
BS  .IN                 8.75 : BIT SIZE
BSD .FT                 8435 : BIT SIZE AT DEPTH
DFT .                    LNS : DRILLING FLUID TYPE
DFD .                    9.6 : DRILLING FLUID DENSITY
DFV .                     43 : DRILLING FLUID VISCOSITY
DFPH.                    9.5 : DRILLING FLUID PH
DFL .                    7.4 : DRILLING FLUID LOSS
MSS .                   TANK : MUD SAMPLE SOURCE
RMS .OHMM                1.6 : RESISTIVITY MUD SAMPLE
MST .DEGF                107 : MUD SAMPLE TEMPERATURE
RMF .OHMM                1.2 : RESISTIVITY MUD FILTRATE SAMPLE
MFST.DEGF                107 : MUD FILTRATE SAMPLE TEMPERATURE
RMC .OHMM                2.4 : RESISTIVITY MUD CAKE
MCST.DEGF                107 : MUD CAKE SAMPLE TEMPERATURE
MFSS.                   MEAS : MUD FILTRATE SAMPLE SOURCE
MCSS.                   CALC : MUD CAKE SAMPLE SOURCE
RMB .OHMM              0.921 : RESISTIVITY MUD AT BHT
TCS .HRS                 230 : TIME CIRCULATED STOPPED
TLAB.HRS                 800 : TIME LOGGER AT BOTTOM
LUN .                   8262 : LOGGING UNIT NUMBER
LUL .                BRENHAM : LOGGING UNIT LOCATION
ENGI.                MARFICE : RECORDING ENGINEER
WITN.                 EBANKS : WITNESSED BY
CLNT.                A2DTECH : CLIENT CODE
ORIG.            2" 5" PRINT : ORIGIN OF DATA
UWI .         42287312500000 : UNIQUE WELL ID
DICO. A2D Technologies, Inc. : DIGITIZING COMPANY
~Other -----------------------------------------------------
~ASCII -----------------------------------------------------
# ...
 6900.00000   87.77730  -35.52170    1.35150    1.43370    1.52810    6.49940    -999.25   -4.87160    -999.25   91.88450   15.24940   36.22590    -999.25   87.77730    1.35150    1.43370    1.52810  739.91860   91.88450    -999.25    -999.25
 6950.00000   74.74380  -32.83820    1.18880    1.28160    1.45890    4.96470    -999.25   -4.83780    -999.25   86.89790   13.71470   40.32320    -999.25   74.74380    1.18880    1.28160    1.45890  841.18440   86.89790    -999.25    -999.25
 7000.00000  125.83900  -30.44520    1.55850    1.65410    1.45970    3.04430    0.10000   -5.09460    0.19380   87.71180   11.79430   66.45860    0.10000  125.83900    1.55850    1.65410    1.45970  641.64260   87.71180    2.37860    0.19380
 7050.00000   71.71420  -24.63010    2.19660    2.29720    2.42290    1.25650    0.03340   -1.92920    0.09070  129.55230   10.00650   42.30350    0.03340   71.71420    2.19660    2.29720    2.42290  455.24900  129.55230    2.55490    0.09070
 7100.00000   50.48720  -23.04230    3.21820    3.46230    4.15640    2.20800    0.00670   -0.98320    0.07920  175.01280   10.95800   31.18170    0.00670   50.48720    3.21820    3.46230    4.15640  310.73270  175.01280    2.57460    0.07920
 7150.00000   73.90990  -24.15290    2.50340    2.80940    2.92480    3.16840    0.06390   -2.53700    0.12070  119.97300   11.91840   31.67360    0.06390   73.90990    2.50340    2.80940    2.92480  399.45670  119.97300    2.50360    0.12070
 7200.00000   71.85040  -23.26450    3.23730    3.50880    3.63930    2.86710    0.00240   -2.09190    0.08070  111.71390   11.61710   34.05710    0.00240   71.85040    3.23730    3.50880    3.63930  308.89940  111.71390    2.57200    0.08070
 7250.00000   77.31680  -21.84430    2.34460    2.64650    2.77480    2.67120    0.00210   -1.11490    0.11180   84.04720   11.42120   42.27700    0.00210   77.31680    2.34460    2.64650    2.77480  426.51200   84.04720    2.51880    0.11180
 7300.00000   55.91070  -22.52450    3.36970    3.87760    5.00420    2.34810   -0.01440   -2.23840    0.09930  114.85660   11.09810   34.18460   -0.01440   55.91070    3.36970    3.87760    5.00420  296.76230  114.85660    2.54020    0.09930
 7350.00000   64.56540  -23.06710    3.16640    3.50270    3.80830    2.46500    0.01430   -3.00700    0.07960  199.22430   11.21500   37.54980    0.01430   64.56540    3.16640    3.50270    3.80830  315.81610  199.22430    2.57390    0.07960
 7400.00000   79.66940  -25.91600    1.90020    2.21910    2.51600    3.38930    0.10000   -5.49190    0.11050   69.08070   12.13930   46.53860    0.10000   79.66940    1.90020    2.21910    2.51600  526.26040   69.08070    2.52100    0.11050
 7450.00000   27.40370  -33.76590    6.16930    6.44980    7.07490    1.56030    0.01470  -13.18690    0.06610  319.89460   10.31030    0.51800    0.01470   27.40370    6.16930    6.44980    7.07490  162.09290  319.89460    2.59700    0.06610
 7500.00000   28.45850  -26.34480    7.61640    8.24970    9.41750    1.61290    0.01880   -6.65190    0.05160  344.47370   10.36290   13.89760    0.01880   28.45850    7.61640    8.24970    9.41750  131.29560  344.47370    2.62180    0.05160
 7550.00000   26.71890  -28.74200   11.42990   12.31910   13.24940    1.97670    0.01340   -9.93520    0.04800  314.42820   10.72670   11.66470    0.01340   26.71890   11.42990   12.31910   13.24940   87.48980  314.42820    2.62790    0.04800
 7600.00000   21.52770  -27.69710   11.71780   12.23940   13.91360    2.00080    0.00590   -9.77630    0.05260  267.55090   10.75080    4.18110    0.00590   21.52770   11.71780   12.23940   13.91360   85.34020  267.55090    2.62010    0.05260
 7650.00000   27.46950  -30.42000    7.35060    8.54150   35.94200    1.96350    0.01850  -13.38530    0.09160  215.64850   10.71350    8.56180    0.01850   27.46950    7.35060    8.54150   35.94200  136.04330  215.64850    2.55340    0.09160
 7700.00000   22.20590  -31.86040   11.99470   12.99740   16.57280    1.71300    0.02060  -15.71180    0.03920  223.47770   10.46300    3.93840    0.02060   22.20590   11.99470   12.99740   16.57280   83.37020  223.47770    2.64300    0.03920
 7750.00000   30.80770  -20.85720   10.97690   11.73050   12.31480    1.30010    0.01740   -5.59460    0.03280  265.95880   10.05010    4.75180    0.01740   30.80770   10.97690   11.73050   12.31480   91.10040  265.95880    2.65390    0.03280
 7800.00000   59.92670  -21.65540    5.33470    5.56780    4.62120    1.55680    0.05450   -7.27890    0.06490  232.09680   10.30680   23.54670    0.05450   59.92670    5.33470    5.56780    4.62120  187.45200  232.09680    2.59900    0.06490
 7850.00000   29.23730  -21.12720    9.27200    9.71770   10.45420    1.36610    0.01250   -7.63680    0.05300  283.55730   10.11610    3.31360    0.01250   29.23730    9.27200    9.71770   10.45420  107.85160  283.55730    2.61940    0.05300
 7900.00000   32.03190  -25.09560    6.53420    7.31650    7.76000    1.18740    0.08840  -12.49120    0.10290  279.45270    9.93740   12.61830    0.08840   32.03190    6.53420    7.31650    7.76000  153.04090  279.45270    2.53400    0.10290
 7950.00000   41.99660  -19.68140    8.44830    9.03800   13.52460    1.07430    0.00310   -7.96310    0.04970  327.10810    9.82430    9.25810    0.00310   41.99660    8.44830    9.03800   13.52460  118.36700  327.10810    2.62500    0.04970
 8000.00000   38.99750  -27.94310   10.63310   11.02180   12.24050    0.93600    0.09560  -17.11090    0.02600  316.87400    9.68600    8.46930    0.09560   38.99750   10.63310   11.02180   12.24050   94.04600  316.87400    2.66550    0.02600
 8050.00000   37.00490  -35.32810   17.52130   16.56200   16.35090    1.34240    0.10000  -25.38190    0.04400  349.16380   10.09240    7.59100    0.10000   37.00490   17.52130   16.56200   16.35090   57.07340  349.16380    2.63480    0.04400
 8100.00000   25.16530  -36.54440   18.24860   20.60830   31.79520    1.92370    0.00500  -27.48430    0.07530  363.90270   10.67370    7.86440    0.00500   25.16530   18.24860   20.60830   31.79520   54.79870  363.90270    2.58120    0.07530
 8150.00000   46.33070  -25.54920   11.41900   12.32140   32.91890    0.76960    0.10020  -17.37520    0.10490  325.45860    9.51960   24.13230    0.10020   46.33070   11.41900   12.32140   32.91890   87.57330  325.45860    2.53060    0.10490
 8200.00000   73.01920  -10.70200   17.49730   18.70310   35.34460    0.97360    0.02450   -2.81030    0.10000  254.96590    9.72360   30.31000    0.02450   73.01920   17.49730   18.70310   35.34460   57.15170  254.96590    2.53900    0.10000
 8250.00000   84.04270  -17.33500    3.38330    3.75010    5.30340    4.42890    0.09680   -6.55010    0.05480   72.51620   13.17890   28.95870    0.09680   84.04270    3.38330    3.75010    5.30340  295.56940   72.51620    2.61630    0.05480
 8300.00000   49.02360  -11.07240    6.31970    6.73870    6.32560    0.71070    0.01220   -0.62190    0.03680  140.87490    9.46070   25.36390    0.01220   49.02360    6.31970    6.73870    6.32560  158.23540  140.87490    2.64710    0.03680
 8350.00000   34.70780  -14.53800    8.31640    8.80280    9.57700    0.53070    0.03130   -6.29560    -999.25  199.93650    9.28070    6.63060    0.03130   34.70780    8.31640    8.80280    9.57700  120.24430  199.93650    -999.25    -999.25
 8400.00000    -999.25  -26.80810   21.19870   24.62590   26.50700    0.05400    -999.25  -16.95830    -999.25    -999.25    8.80400    -999.25    -999.25    -999.25   21.19870   24.62590   26.50700   47.17270    -999.25    -999.25    -999.25
