~Version ---------------------------------------------------
VERS. 2.0 : CWLS log ASCII Standard -VERSION 2.0
WRAP. YES : Multiple lines per depth step
~Well ------------------------------------------------------
STRT.FT                  2300.0 : START DEPTH
STOP.FT                 10600.0 : STOP DEPTH
STEP.FT                50.00000 : STEP LENGTH
NULL.                   -999.25 : NULL VALUE
COMP. PAUL E CAMERON, JR., INC. : COMPANY
WELL.           FREEMAN UNIT #1 : WELL
FLD .                    BEDIAS : FIELD
LOC .                           : LOCATION
CNTY.                    GRIMES : COUNTY
STAT.                     TEXAS : STATE
CTRY.  UNITED STATES OF AMERICA : COUNTRY
SRVC.                     Welex : SERVICE COMPANY
DATE.               15-Aug-1981 : LOGDATE
API .            42185302840000 : API NUMBER
UWI .            42185302840000 : UNIQUE WELL ID
SLAT.WGS84        30.7842928206 : SURFACE LATITUDE
SLON.WGS84        -95.978471058 : SURFACE LONGITUDE
~Curve Information -----------------------------------------
DEPT    .FT    : DEPTH
CALDED  .IN    : CALIPER FROM DENSITY LOG (ADJ TO RES.)
CALWS   .IN    : CALIPER (CALDED)
CONDWS  .MMHO  : CONDUCTIVITY (1000/DRESWS)
CORRED  .G/C3  : DENSITY CORRECTION (ADJ TO RES.)
DCORWS  .G/C3  : DENSITY CORRECTION (CORRED)
DENWS   .G/C3  : BULK DENSITY  (RHOBED LS)
DPORLSED.V/V   : DENSITY POROSITY  LIMESTONE (ADJ TO RES.)
DPOWS   .V/V   : DENSITY POROSITY (M=2.71 F=1 DPORLSED)
DRESWS  .OHMM  : DEEP RESISTIVITY (ILDED0
GRDED   .GAPI  : GAMMA RAY FROM DENSITY LOG (ADJ TO RES.)
GRRED   .GAPI  : GAMMA RAY FROM RESISTIVITY LOG
GRWS    .GAPI  : GAMMA RAY (GRRED)
ILDED   .OHMM  : DEEP INDUCTION RESISTIVITY
ILMED   .OHMM  : MEDIUM INDUCTION RESISTIVITY
MRESWS  .OHMM  : MEDIUM RESISTIVITY (ILMED)
NEUTED  .NAPI  : Neutron from Neutron Gamma Log (ADJ TO RES.)
NEUTWS  .NAPI  : Neutron from Neutron Gamma Log (NEUTED)
RHOBED  .G/C3  : BULK DENSITY (ADJ TO RES.)
SGUARDED.OHMM  : SHORT GUARD LOG RESISTIVITY
SPRED   .MV    : Spontaneous Potential from Resistivity Log
SPWS    .MV    : SPONTANEOUS POTENTIAL BASELINE 0 MV (SPRED)
SRESWS  .OHMM  : SHALLOW RESISTIVITY (SGUARDED)
~Params ----------------------------------------------------
PD  .                     GL : PERMANENT DATUM
LMF .                    TKB : LOG MEASURED FROM
DAPD.FT                 18.2 : FEET ABOVE PERMANENT DATUM
DMF .                    TKB : DRILLING MEASURED FROM
DATE.               08/15/81 : RUN DATE
RUN .                      1 : RUN NUMBER
DD  .FT                10631 : DEPTH DRILLER
DL  .FT                10612 : DEPTH LOGGER
BLI .FT                10610 : BOTTOM LOG INTERVAL
TLI .FT                 2287 : TOP LOG INTERVAL
CS  .IN                9.625 : CASING SIZE
CBD .FT                 2294 : CASING BOTTOM DRILLER
CBL .FT                 2287 : CASING BOTTOM LOGGER
BS  .IN                 8.75 : BIT SIZE
BSD .FT                10631 : BIT SIZE AT DEPTH
DFT .     LIGNOSULFONATE MUD : DRILLING FLUID TYPE
DFD .                    9.9 : DRILLING FLUID DENSITY
DFV .                     50 : DRILLING FLUID VISCOSITY
DFPH.                    1.8 : DRILLING FLUID PH
DFL .                      6 : DRILLING FLUID LOSS
MSS .                    PIT : MUD SAMPLE SOURCE
RMS .OHMM               1.84 : RESISTIVITY MUD SAMPLE
MST .DEGF                 75 : MUD SAMPLE TEMPERATURE
RMF .OHMM               1.64 : RESISTIVITY MUD FILTRATE SAMPLE
MFST.DEGF                 75 : MUD FILTRATE SAMPLE TEMPERATURE
RMC .OHMM               1.41 : RESISTIVITY MUD CAKE
MCST.DEGF                 75 : MUD CAKE SAMPLE TEMPERATURE
MFSS.                   MEAS : MUD FILTRATE SAMPLE SOURCE
MCSS.                   MEAS : MUD CAKE SAMPLE SOURCE
RMB .OHMM               0.62 : RESISTIVITY MUD AT BHT
TCS .HRS                   7 : TIME CIRCULATED STOPPED
LUN .                   1123 : LOGGING UNIT NUMBER
LUL .                   BRYN : LOGGING UNIT LOCATION
ENGI.                  SMITH : RECORDING ENGINEER
CLNT.                A2DTECH : CLIENT CODE
ORIG.            1" 5" PRINT : ORIGIN OF DATA
UWI .         42185302840000 : UNIQUE WELL ID
DICO. A2D Technologies, Inc. : DIGITIZING COMPANY
~Other -----------------------------------------------------
~ASCII -----------------------------------------------------
# ...
 3900.00000    -999.25    -999.25  245.63990    -999.25    -999.25    -999.25    -999.25    -999.25    4.07100    -999.25   92.96920   92.96920    4.07100    4.56470    4.56470    -999.25    -999.25    -999.25    5.50320  -68.31890  -24.93850    5.50320
 3950.00000    -999.25    -999.25  232.25030    -999.25    -999.25    -999.25    -999.25    -999.25    4.30570    -999.25   89.90680   89.90680    4.30570    5.02870    5.02870    -999.25    -999.25    -999.25    5.79700  -70.18040  -26.73010    5.79700
 4000.00000    -999.25    -999.25  300.07500    -999.25    -999.25    -999.25    -999.25    -999.25    3.33250    -999.25   90.73250   90.73250    3.33250    3.61060    3.61060    -999.25    -999.25    -999.25    3.75870  -53.83160  -10.31140    3.75870
 4050.00000    -999.25    -999.25  203.12820    -999.25    -999.25    -999.25    -999.25    -999.25    4.92300    -999.25   88.71390   88.71390    4.92300    5.47890    5.47890    -999.25    -999.25    -999.25    5.49340  -69.23890  -25.64880    5.49340
 4100.00000    -999.25    -999.25  216.17880    -999.25    -999.25    -999.25    -999.25    -999.25    4.62580    -999.25   73.41550   73.41550    4.62580    5.80840    5.80840    -999.25    -999.25    -999.25    6.83590  -79.10390  -35.44390    6.83590
 4150.00000    -999.25    -999.25  274.04020    -999.25    -999.25    -999.25    -999.25    -999.25    3.64910    -999.25  112.93630  112.93630    3.64910    4.17850    4.17850    -999.25    -999.25    -999.25    4.74820  -58.93330  -15.20340    4.74820
 4200.00000    -999.25    -999.25  226.16760    -999.25    -999.25    -999.25    -999.25    -999.25    4.42150    -999.25   76.95370   76.95370    4.42150    4.42690    4.42690    -999.25    -999.25    -999.25    9.52300  -47.22590   -3.42610    9.52300
 4250.00000    -999.25    -999.25  120.67820    -999.25    -999.25    -999.25    -999.25    -999.25    8.28650    -999.25   73.43830   73.43830    8.28650    6.67350    6.67350    -999.25    -999.25    -999.25   11.28910  -51.54150   -7.67170   11.28910
 4300.00000    -999.25    -999.25  432.78800    -999.25    -999.25    -999.25    -999.25    -999.25    2.31060    -999.25   56.82680   56.82680    2.31060    3.44020    3.44020    -999.25    -999.25    -999.25    4.81030  -93.76280  -49.82310    4.81030
 4350.00000    -999.25    -999.25  354.91200    -999.25    -999.25    -999.25    -999.25    -999.25    2.81760    -999.25   75.20480   75.20480    2.81760    3.82520    3.82520    -999.25    -999.25    -999.25    4.19280  -77.53120  -33.52160    4.19280
 4400.00000    -999.25    -999.25  333.58910    -999.25    -999.25    -999.25    -999.25    -999.25    2.99770    -999.25   98.33150   98.33150    2.99770    3.10930    3.10930    -999.25    -999.25    -999.25    4.04740  -49.49920   -5.41970    4.04740
 4450.00000    -999.25    -999.25  313.08700    -999.25    -999.25    -999.25    -999.25    -999.25    3.19400    -999.25  104.99150  104.99150    3.19400    4.01520    4.01520    -999.25    -999.25    -999.25    4.86150  -62.77460  -19.61210    4.86150
 4500.00000    -999.25    -999.25  531.40610    -999.25    -999.25    -999.25    -999.25    -999.25    1.88180    -999.25   75.34730   75.34730    1.88180    2.75770    2.75770    -999.25    -999.25    -999.25    3.85680  -88.99270  -47.23330    3.85680
 4550.00000    -999.25    -999.25  668.44920    -999.25    -999.25    -999.25    -999.25    -999.25    1.49600    -999.25   48.06590   48.06590    1.49600    2.07100    2.07100    -999.25    -999.25    -999.25    3.27740 -102.23450  -61.87810    3.27740
 4600.00000    -999.25    -999.25  701.06570    -999.25    -999.25    -999.25    -999.25    -999.25    1.42640    -999.25   52.16820   52.16820    1.42640    2.29770    2.29770    -999.25    -999.25    -999.25    4.46560 -103.72130  -64.76800    4.46560
 4650.00000    -999.25    -999.25  671.63680    -999.25    -999.25    -999.25    -999.25    -999.25    1.48890    -999.25   67.30330   67.30330    1.48890    2.38270    2.38270    -999.25    -999.25    -999.25    5.04280 -103.43630  -65.88610    5.04280
 4700.00000    -999.25    -999.25 1023.22730    -999.25    -999.25    -999.25    -999.25    -999.25    0.97730    -999.25   51.84510   51.84510    0.97730    1.16260    1.16260    -999.25    -999.25    -999.25    2.65660 -109.13220  -72.98500    2.65660
 4750.00000    -999.25    -999.25  551.99820    -999.25    -999.25    -999.25    -999.25    -999.25    1.81160    -999.25   61.07510   61.07510    1.81160    2.82750    2.82750    -999.25    -999.25    -999.25    5.23700  -91.98040  -57.23630    5.23700
 4800.00000    -999.25    -999.25  547.04600    -999.25    -999.25    -999.25    -999.25    -999.25    1.82800    -999.25   61.96910   61.96910    1.82800    2.78610    2.78610    -999.25    -999.25    -999.25    4.99310 -105.28240  -71.57310    4.99310
 4850.00000    -999.25    -999.25  328.91490    -999.25    -999.25    -999.25    -999.25    -999.25    3.04030    -999.25   83.32550   83.32550    3.04030    3.27540    3.27540    -999.25    -999.25    -999.25    5.73710  -39.26170   -5.93250    5.73710
 4900.00000    -999.25    -999.25 1196.02920    -999.25    -999.25    -999.25    -999.25    -999.25    0.83610    -999.25   52.78670   52.78670    0.83610    1.25280    1.25280    -999.25    -999.25    -999.25    3.54730 -112.69870  -79.74970    3.54730
 4950.00000    -999.25    -999.25  330.72060    -999.25    -999.25    -999.25    -999.25    -999.25    3.02370    -999.25   72.33760   72.33760    3.02370    3.92600    3.92600    -999.25    -999.25    -999.25    9.45490  -64.58470  -32.01580    9.45490
 5000.00000    -999.25    -999.25  968.14790    -999.25    -999.25    -999.25    -999.25    -999.25    1.03290    -999.25   39.23990   39.23990    1.03290    1.73890    1.73890    -999.25    -999.25    -999.25    4.61850 -109.86630  -77.67760    4.61850
 5050.00000    -999.25    -999.25  501.15260    -999.25    -999.25    -999.25    -999.25    -999.25    1.99540    -999.25  106.72000  106.72000    1.99540    2.95780    2.95780    -999.25    -999.25    -999.25    4.74250  -72.57420  -40.76560    4.74250
 5100.00000    -999.25    -999.25 1334.93520    -999.25    -999.25    -999.25    -999.25    -999.25    0.74910    -999.25   60.33100   60.33100    0.74910    0.87840    0.87840    -999.25    -999.25    -999.25    1.91390 -102.67100  -71.24260    1.91390
 5150.00000    -999.25    -999.25  796.05160    -999.25    -999.25    -999.25    -999.25    -999.25    1.25620    -999.25   59.79530   59.79530    1.25620    2.15350    2.15350    -999.25    -999.25    -999.25    4.99480 -107.89990  -76.85160    4.99480
 5200.00000    -999.25    -999.25 1931.62060    -999.25    -999.25    -999.25    -999.25    -999.25    0.51770    -999.25   49.81700   49.81700    0.51770    0.62600    0.62600    -999.25    -999.25    -999.25    1.91820 -116.08280  -85.41470    1.91820
 5250.00000    -999.25    -999.25  533.67490    -999.25    -999.25    -999.25    -999.25    -999.25    1.87380    -999.25   93.92210   93.92210    1.87380    2.72570    2.72570    -999.25    -999.25    -999.25    4.99480  -68.49830  -38.21030    4.99480
 5300.00000    -999.25    -999.25  717.56600    -999.25    -999.25    -999.25    -999.25    -999.25    1.39360    -999.25   93.98010   93.98010    1.39360    2.21670    2.21670    -999.25    -999.25    -999.25    4.24950  -80.66630  -50.75850    4.24950
 5350.00000    -999.25    -999.25 1022.70400    -999.25    -999.25    -999.25    -999.25    -999.25    0.97780    -999.25   54.59240   54.59240    0.97780    1.76380    1.76380    -999.25    -999.25    -999.25    4.71310 -108.44330  -78.91560    4.71310
 5400.00000    -999.25    -999.25 1074.69100    -999.25    -999.25    -999.25    -999.25    -999.25    0.93050    -999.25   51.57390   51.57390    0.93050    1.36480    1.36480    -999.25    -999.25    -999.25    4.63890 -114.45870  -85.31120    4.63890
 5450.00000    -999.25    -999.25 1765.84850    -999.25    -999.25    -999.25    -999.25    -999.25    0.56630    -999.25   47.79900   47.79900    0.56630    0.81480    0.81480    -999.25    -999.25    -999.25    2.93620 -111.75630  -82.98890    2.93620
