~Version ---------------------------------------------------
VERS. 2.0 : CWLS log ASCII Standard -VERSION 2.0
WRAP.  NO : ONE LINE PER DEPTH STEP
~Well ------------------------------------------------------
STRT.F                  1850.0 : START DEPTH
STOP.F                 10750.0 : STOP DEPTH
STEP.F                50.00000 : STEP LENGTH
NULL.                  -999.25 : NULL VALUE
COMP.     GULF OIL CORPORATION : COMPANY
WELL.      W T HURT ET AL #3-R : WELL
FLD .                  FASHING : FIELD
LOC .                          : LOCATION
CNTY.                 ATASCOSA : COUNTY
STAT.                    TEXAS : STATE
CTRY. UNITED STATES OF AMERICA : COUNTRY
SRVC.            Dresser Atlas : SERVICE COMPANY
DATE.              28-Jun-1972 : LOGDATE
API .           42013301930000 : API NUMBER
UWI .           42013301930000 : UNIQUE WELL ID
SLAT.WGS84       28.7802385159 : SURFACE LATITUDE
SLON.WGS84      -98.2085261172 : SURFACE LONGITUDE
~Curve Information -----------------------------------------
DEPT.F                 : 
GRT .GAPI 51 310 00 00 : THEORETICAL GAMMA RAY VALUE TDT
SPR .MV   05 010 01 00 : SPONTANEOUS POTENTIAL FROM RESISTIVITY LOG
ASN .OHMM 05 041 16 00 : AMPLIFIED SHORT NORMAL RESISTIVITY
IL  .OHMM 05 120 45 00 : INDUCTION LOG RESISTIVITY
CIL .MMHO 05 110 45 00 : INDUCTION CONDUCTIVITY
CALD.IN   45 280 60 00 : CALIPER FROM DENSITY LOG
RHOB.G/C3 45 350 01 00 : BULK DENSITY
NEUT.NAPI 42 330 01 00 : NEUTRON
CORR.G/C3 45 356 01 00 : DENSITY CORRECTION
AC  .US/F 60 500 32 00 : ACOUSTIC
~Params ----------------------------------------------------
PD  .                     GL : PERMANENT DATUM
EPD .F                363.46 : ELEVATION PERMANENT DATUM
LMF .                     KB : LOG MEASURED FROM
DAPD.F                 15.54 : FEET ABOVE PERMANENT DATUM
DMF .                     KB : DRILLING MEASURED FROM
EKB .F                   379 : KELLING BUSHING
EGL .F                363.46 : GROUND LEVEL
DATE.               06/28/72 : RUN DATE
RUN .                      1 : RUN NUMBER
DD  .F                 10775 : DEPTH DRILLER
DL  .F                 10760 : DEPTH LOGGER
BLI .F                 10755 : BOTTOM LOG INTERVAL
TLI .F                  1817 : TOP LOG INTERVAL
CS  .IN                9.875 : CASING SIZE
CBD .F                  1817 : CASING BOTTOM DRILLER
CBL .F                  1817 : CASING BOTTOM LOGGER
BS  .IN                 8.75 : BIT SIZE
BSD .F                 10775 : BIT SIZE AT DEPTH
DFT .         LIGNOSULFONATE : DRILLING FLUID TYPE
DFD .                   10.6 : DRILLING FLUID DENSITY
DFV .                     43 : DRILLING FLUID VISCOSITY
DFPH.                     10 : DRILLING FLUID PH
DFL .                    4.8 : DRILLING FLUID LOSS
MSS .               FLOWLINE : MUD SAMPLE SOURCE
RMS .OHMM               0.85 : RESISTIVITY MUD SAMPLE
MST .F                    90 : MUD SAMPLE TEMPERATURE
RMF .OHMM               0.68 : RESISTIVITY MUD FILTRATE SAMPLE
MFST.F                    90 : MUD FILTRATE SAMPLE TEMPERATURE
RMC .OHMM               1.06 : RESISTIVITY MUD CAKE
MCST.F                    90 : MUD CAKE SAMPLE TEMPERATURE
MFSS.                   MEAS : MUD FILTRATE SAMPLE SOURCE
MCSS.                   MEAS : MUD CAKE SAMPLE SOURCE
RMB .OHMM               0.33 : RESISTIVITY MUD AT BHT
TCS .HRS                  11 : TIME CURCULATED STOPPED
LUN .                   6068 : LOGGING UNIT NUMBER
LUL .                    VIC : LOGGING UNIT LOCATION
ENGI.               MC MAHON : RECORDING ENGINEER
WITN.                JENKINS : WITNESSED BY
CLNT.                A2DTECH : CLIENT CODE
ORIG.            1" 5" PRINT : ORIGIN OF DATA
UWI .         42013301930000 : UNIQUE WELL ID
DICO. A2D Technologies, Inc. : DIGITIZING COMPANY
~Other -----------------------------------------------------
~ASCII -----------------------------------------------------
# ...
 8450.00000    -999.25  -20.35280    4.28670    3.91430  284.73440    7.68060    2.59980  717.97430    0.03300   84.92360
 8500.00000    -999.25  -21.32300    3.25900    2.86140  373.10110    8.01070    2.48790  599.54190    0.02770   90.79330
 8550.00000    -999.25  -20.94990    3.77920    3.63410  303.10460    8.08170    2.53910  703.44090    0.03550   89.63860
 8600.00000    -999.25  -22.74780    3.29780    3.15120  330.88530    8.13050    2.48890  703.64050   -0.00460   89.04370
 8650.00000    -999.25  -22.13000    3.35140    3.17040  336.53090    8.13510    2.51190  696.57620    0.03300   88.55550
 8700.00000   74.51000  -21.35350    2.99110    2.61460  385.52840    8.16440    2.46380  635.63630    0.07350   90.31700
 8750.00000   97.57760  -24.19180    2.52290    2.31380  488.09870    8.11270    2.43150  621.84800    0.01140   99.16880
 8800.00000   87.22730  -21.91600    3.65030    3.46870  310.07450    8.12990    2.50550  719.15860   -0.00170   86.16920
 8850.00000   94.28220  -24.97640    2.91000    2.81150  381.31460    9.13180    2.50000  503.26950    0.13430   89.53180
 8900.00000   94.66690  -24.10300    3.02840    2.83760  374.62380    9.07970    2.48800  515.62400    0.13040   88.55720
 8950.00000   91.65430  -25.93730    3.51150    3.43510  295.00000    8.12260    2.50350  614.63080    0.00840   88.69860
 9000.00000   81.81810  -24.40360    2.70500    2.43800  418.05070    9.21510    2.48660  514.12740    0.06850   92.28860
 9050.00000  123.89000  -23.30030    3.13060    2.99660  359.01190    8.89330    2.47010  544.46080    0.10110   94.42790
 9100.00000  123.78540  -23.63730    3.31880    3.56590  297.42990    8.91980    2.48660  562.77910    0.09690   89.71590
 9150.00000  117.63520  -22.75870    2.68240    2.46810  436.55080    9.38270    2.48600  504.62010    0.08490   92.14070
 9200.00000  123.15720  -22.71960    3.02460    2.94400  365.43130    9.48680    2.52690  470.25840    0.15620   89.60980
 9250.00000  124.65390  -24.08410    2.94660    2.73040  393.00000    9.74660    2.50310  485.96800    0.11910   92.42510
 9300.00000  115.60180  -23.20090    3.66550    3.51210  311.48880    8.82200    2.50510  579.05230    0.08180   87.31340
 9350.00000  124.08260  -22.30190    3.68990    3.36620  324.19810    9.08590    2.50370  535.17440    0.00760   88.29600
 9400.00000  125.36510  -21.59070    3.31900    3.20880  330.52470   10.19390    2.51480  501.08310    0.06800   88.15060
 9450.00000  124.94940  -23.15970    3.00300    2.97570  366.56940   10.29000    2.51500  525.69730    0.04800   89.89280
 9500.00000  142.28650  -22.27110    3.15140    2.84030  356.57340   10.74820    2.48130  472.07880    0.04510   89.50380
 9550.00000  135.57430  -20.39660    2.95440    2.72870  411.64180   10.69540    2.43580  479.89030    0.01710   88.68220
 9600.00000  126.75110  -21.30750    2.42730    2.24000  480.25320   13.12220    2.46520  338.79330    0.18490   96.41790
 9650.00000  120.80500  -23.29660    5.11100    4.98800  207.99060   10.93760    2.51410  476.06310   -0.04690   81.59200
 9700.00000  119.85140  -21.75310    4.90020    4.59830  216.55020   10.97420    2.55660  477.40050    0.03090   79.47340
 9750.00000   73.58260  -21.16050    4.38950    4.48400  233.42520   11.61490    2.52250  410.84840   -0.03700   83.72990
 9800.00000   35.50890  -25.73880   10.81480    9.91260  103.33470   10.66630    2.58150  758.95630   -0.00990   70.01900
 9850.00000   50.16730  -22.02560    8.69380    8.54970  120.62740   11.28540    2.60520  572.62020    0.07080   74.02980
 9900.00000   58.91400  -40.36060    8.60990    5.06060  207.49820   11.08600    2.61370  561.38700    0.02410   79.26430
 9950.00000   44.57310  -43.16220   12.16420    9.22970  105.74480   10.62090    2.64330  430.51430   -0.02240   68.19450
 10000.00000   42.52780  -41.37350   11.95910    8.53520  115.17680   10.23000    2.64070  532.01970   -0.02680   67.63100
 10050.00000   43.53610  -51.23800   16.33730   13.48210   72.13110    9.41970    2.63870  714.64030    0.00160   60.57660
 10100.00000  121.56060  -47.46650   18.83850   12.57520   79.90270    9.15630    2.64520  967.27160   -0.02020   62.16520
 10150.00000   48.54270  -41.29440   15.34760    9.01840  109.69860    9.25640    2.53940  512.51290   -0.03840   78.35310
 10200.00000   65.04280  -43.52550   31.20770   18.68240   53.89240    9.15750    2.46120  345.42500    0.00400   78.60410
 10250.00000   62.30050  -46.71550   40.08140   26.23020   36.81800    9.13690    2.55290  581.43170   -0.00690   71.10210
 10300.00000   22.92650  -42.46020   41.19290   33.43520   29.41810    8.96120    2.71480 1275.13270    0.00020   53.74300
 10350.00000   27.44750  -44.32870   35.08110   29.59090   30.54660    9.03390    2.72690 1453.45170   -0.01480   55.67960
 10400.00000   41.75760  -40.09030   16.92980    9.51970  116.09970    9.00990    2.64040  773.16900    0.02880   63.42820
 10450.00000   32.24280  -56.77280   42.72120   30.39080   30.95260    8.73090    2.71150 1339.57840   -0.00430   55.38060
 10500.00000   29.28970  -53.35200   42.11130   33.40760   27.38210    8.82070    2.71980 1449.97600   -0.00630   53.89940
 10550.00000   37.31420  -97.08540   77.58840   72.21730   14.27780    8.25610    2.59460 1495.31980    0.02490   55.70320
 10600.00000   39.83290 -141.55970   75.57890   63.78270   15.92050    8.36700    2.57120 1398.86130   -0.00330   57.45180
 10650.00000   52.08350 -148.09000   63.47850   41.95250   21.82190    8.43020    2.39570  950.33340   -0.02990   67.48740
 10700.00000   30.22990 -146.90210   70.08800   59.75020   17.14130    8.29080    2.55110 1356.03890    0.04580   60.25600
 10750.00000    -999.25 -140.25260   43.46440   21.61400   44.05050    7.06120    2.35030  900.50800    0.15140   59.56220
