~Version ---------------------------------------------------
VERS. 2.0 : CWLS log ASCII Standard -VERSION 2.0
WRAP. YES : MULTIPLE LINES PER DEPTH STEP
~Well ------------------------------------------------------
STRT.FT                  300.0 : START DEPTH
STOP.FT                 6700.0 : STOP DEPTH
STEP.FT               50.00000 : STEP LENGTH
NULL.                  -999.25 : NULL VALUE
COMP.           FAIR OIL, LTD. : COMPANY
WELL.     FRANK BRACEWELL #B-1 : WELL
FLD .                 PEARSALL : FIELD
LOC .                          : LOCATION
CNTY.                     FRIO : COUNTY
STAT.                    TEXAS : STATE
CTRY. UNITED STATES OF AMERICA : COUNTRY
SRVC.             Schlumberger : SERVICE COMPANY
DATE.              18-May-1976 : LOGDATE
API .           42163304780000 : API NUMBER
UWI .           42163304780000 : UNIQUE WELL ID
SLAT.WGS84       28.8111841725 : SURFACE LATITUDE
SLON.WGS84      -98.9018062562 : SURFACE LONGITUDE
~Curve Information -----------------------------------------
DEPT   .FT    : DEPTH FEET
ALL8ED .OHMM  : AMPLIFIED LATEROLOG 8
CALDED .IN    : CALIPER FROM DENSITY LOG [ADJ TO SPRED]
CALWS  .IN    : CALIPER [CALDED]
CILDED .MMHO  : CONDUCTIVITY FROM RESISTIVITY LOG
CONDWS .MMHO  : CONDUCTIVITY [1000/DRESWS]
CORRED .G/C3  : DENSITY CORRECTION FROM DENSITY LOG [ADJ TO SPRED]
DCORWS .G/C3  : DENSITY CORRECTION [CORRED]
DENWS  .G/C3  : BULK DENSITY [M=2.71 F=1.0] [RHOBED]
DPOWS  .V/V   : DENSITY POROSITY [M=2.71 F=1.0] [CALCULATED FROM DENWS]
DRESWS .OHMM  : DEEP RESISTIVITY [ILDED] IF ILDED<1;1000/CILDED;ELSE ILDED
GRDED  .GAPI  : GAMMA RAY FROM DENSITY LOG [ADJ TO SPRED]
GRNED  .CU    : GAMMA RAY FROM NEUTRON LOG [ADJ TO GRDED]
GRWS   .GAPI  : GAMMA RAY [SPL GRDED <5597F> GRNED <6150F GRDED, CSG @5597F-6150F]
ILDED  .OHMM  : INDUCTION LOG DEEP RESISTIVITY
NEUT1ED.CU    : NEUTRON FROM NEUTRON LOG [ADJ TO GRDED]
NEUTED .CU    : NEUTRON FROM NEUTRON LOG [ADJ TO GRDED]
NEUTWS .CU    : NEUTRON [NEUTED]
RHOBED .G/C3  : BULK DENSITY FROM DENSITY LOG [ADJ TO SPRED]
SPRED  .MV    : SPONTANEOUS POTENTIAL FROM RESISTIVITY LOG
SPWS   .MV    : SPONTANEOUS POTENTIAL [BASELINE 0 MV] [SPRED]
SRESWS .OHMM  : SHALLOW RESISTIVITY [ALL8ED]
~Params ----------------------------------------------------
PD  .                     GL : PERMANENT DATUM
EPD .FT                  468 : ELEVATION PERMANENT DATUM
LMF .                     KB : LOG MEASURED FROM
DAPD.FT                   11 : FEET ABOVE PERMANENT DATUM
DMF .                     KB : DRILLING MEASURED FROM
EKB .FT                  479 : KELLY BUSHING
EDF .FT                  478 : DRILLING FLOOR
EGL .FT                  468 : GROUND LEVEL
DATE.             05/18/1976 : RUN DATE
RUN .                      1 : RUN NUMBER
DD  .FT                 6750 : DEPTH DRILLER
DL  .FT                 6741 : DEPTH LOGGER
BLI .FT                 6735 : BOTTOM LOG INTERVAL
TLI .FT                  239 : TOP LOG INTERVAL
CS  .IN                8.625 : CASING SIZE
CBD .FT                  239 : CASING BOTTOM DRILLER
CBL .FT                  239 : CASING BOTTOM LOGGER
BS  .IN                7.875 : BIT SIZE
BSD .FT                 6750 : BIT SIZE AT DEPTH
DFT .              SPER TANN : DRILLING FLUID TYPE
DFD .                    9.5 : DRILLING FLUID DENSITY
DFV .                     46 : DRILLING FLUID VISCOSITY
DFPH.                     10 : DRILLING FLUID PH
DFL .                      8 : DRILLING FLUID LOSS
MSS .               FLOWLINE : MUD SAMPLE SOURCE
RMS .OHMM               1.35 : RESISTIVITY MUD SAMPLE
MST .DEGF                 98 : MUD SAMPLE TEMPERATURE
RMF .OHMM                1.3 : RESISTIVITY MUD FILTRATE SAMPLE
MFST.DEGF                 98 : MUD FILTRATE SAMPLE TEMPERATURE
RMC .OHMM                  1 : RESISTIVITY MUD CAKE
MCST.DEGF                 98 : MUD CAKE SAMPLE TEMPERATURE
MFSS.                   CALC : MUD FILTRATE SAMPLE SOURCE
MCSS.                   CALC : MUD CAKE SAMPLE SOURCE
RMB .OHMM               0.81 : RESISTIVITY MUD AT BHT
TCS .HRS                   3 : TIME CIRCULATED STOPPED
TLAB.HRS                   0 : TIME LOGGER AT BOTTOM
LUN .                   7720 : LOGGING UNIT NUMBER
LUL .                  PLEAS : LOGGING UNIT LOCATION
ENGI.                 POWELL : RECORDING ENGINEER
WITN.                 NELSON : WITNESSED BY
CLNT.                A2DTECH : CLIENT CODE
ORIG.               1" PRINT : ORIGIN OF DATA
UWI .         42163304780000 : UNIQUE WELL ID
DICO. A2D Technologies, Inc. : DIGITIZING COMPANY
OS  .                        : OTHER SERVICES
PWI .                        : PRIMARY WELL IDENTIFIER
R1  .                        : REMARKS 1
R2  .                        : REMARKS 2
LSRV.                        : LOG MNEMONIC
~Other -----------------------------------------------------
~ASCII -----------------------------------------------------
# ...
 5250.00000    2.69060    -999.25    -999.25  434.39470  500.42540    -999.25    -999.25    -999.25    -999.25    1.99830    -999.25    -999.25    -999.25    1.99830    -999.25    -999.25    -999.25    -999.25  -30.68630   -1.01810    2.69060
 5300.00000    2.49270    -999.25    -999.25  462.27520  484.51960    -999.25    -999.25    -999.25    -999.25    2.06390    -999.25    -999.25    -999.25    2.06390    -999.25    -999.25    -999.25    -999.25  -33.23910   -3.49940    2.49270
 5350.00000    2.91510    -999.25    -999.25  457.90820  466.13530    -999.25    -999.25    -999.25    -999.25    2.14530    -999.25    -999.25    -999.25    2.14530    -999.25    -999.25    -999.25    -999.25  -46.73500  -16.92380    2.91510
 5400.00000    2.79660    -999.25    -999.25  420.65960  445.43430    -999.25    -999.25    -999.25    -999.25    2.24500    -999.25    -999.25    -999.25    2.24500    -999.25    -999.25    -999.25    -999.25  -43.28230  -13.39960    2.79660
 5450.00000    3.18610    -999.25    -999.25  357.31240  394.18190    -999.25    -999.25    -999.25    -999.25    2.53690    -999.25    -999.25    -999.25    2.53690    -999.25    -999.25    -999.25    -999.25  -31.88290   -1.92870    3.18610
 5500.00000    2.50960    -999.25    -999.25  459.22930  467.02780    -999.25    -999.25    -999.25    -999.25    2.14120    -999.25    -999.25    -999.25    2.14120    -999.25    -999.25    -999.25    -999.25  -32.50860   -2.48290    2.50960
 5550.00000    2.51760    -999.25    -999.25  681.56030  633.99480    -999.25    -999.25    -999.25    -999.25    1.57730    -999.25    -999.25    -999.25    1.57730    -999.25    -999.25    -999.25    -999.25  -35.04950   -4.95230    2.51760
 5600.00000    2.52670    -999.25    -999.25  483.15790  489.06930    -999.25    -999.25    -999.25    -999.25    2.04470    -999.25    -999.25    -999.25    2.04470    -999.25    -999.25    -999.25    -999.25  -35.95630   -5.78760    2.52670
 5650.00000    2.06100    -999.25    -999.25  633.94640  737.57190    -999.25    -999.25    -999.25    -999.25    1.35580    -999.25    -999.25    -999.25    1.35580    -999.25    -999.25    -999.25    -999.25  -37.66620   -7.42600    2.06100
 5700.00000    2.39980    -999.25    -999.25  505.61040  574.28360    -999.25    -999.25    -999.25    -999.25    1.74130    -999.25    -999.25    -999.25    1.74130    -999.25    -999.25    -999.25    -999.25  -38.30290   -7.99120    2.39980
 5750.00000    3.22880    -999.25    -999.25  406.85500  474.54090    -999.25    -999.25    -999.25    -999.25    2.10730    -999.25    -999.25    -999.25    2.10730    -999.25    -999.25    -999.25    -999.25  -40.45540  -10.07220    3.22880
 5800.00000    2.40730    -999.25    -999.25  511.86550  499.72510    -999.25    -999.25    -999.25    -999.25    2.00110    -999.25    -999.25    -999.25    2.00110    -999.25    -999.25    -999.25    -999.25  -39.27230   -8.81760    2.40730
 5850.00000    2.36330    -999.25    -999.25  535.24880  588.30450    -999.25    -999.25    -999.25    -999.25    1.69980    -999.25    -999.25    -999.25    1.69980    -999.25    -999.25    -999.25    -999.25  -39.01530   -8.48910    2.36330
 5900.00000    2.48200    -999.25    -999.25  504.84490  537.89470    -999.25    -999.25    -999.25    -999.25    1.85910    -999.25    -999.25    -999.25    1.85910    -999.25    -999.25    -999.25    -999.25  -39.50120   -8.90350    2.48200
 5950.00000    3.70780    -999.25    -999.25  338.80350  369.48090    -999.25    -999.25    -999.25    -999.25    2.70650    -999.25    -999.25    -999.25    2.70650    -999.25    -999.25    -999.25    -999.25  -37.80310   -7.13390    3.70780
 6000.00000    4.58030    -999.25    -999.25  271.29390  288.07650    -999.25    -999.25    -999.25    -999.25    3.47130    -999.25   37.42770   37.42770    3.47130  111.69390  452.89660  452.89660    -999.25  -37.80850   -7.06780    4.58030
 6050.00000    5.20980    -999.25    -999.25  225.95640  221.67540    -999.25    -999.25    -999.25    -999.25    4.51110    -999.25   33.86570   33.86570    4.51110  145.54750  635.24220  635.24220    -999.25  -42.06990  -11.25770    5.20980
 6100.00000    7.42240    -999.25    -999.25  176.02440  182.33200    -999.25    -999.25    -999.25    -999.25    5.48450    -999.25   25.22680   25.22680    5.48450  161.76710  703.85210  703.85210    -999.25  -36.54160   -5.65790    7.42240
 6150.00000    5.88040    8.85080    8.85080  215.06520  220.33710    0.00120    0.00120    2.60520    0.06130    4.53850   48.64160   29.87010   29.87010    4.53850  140.02270  580.11060  580.11060    2.60520  -33.99510   -3.03990    5.88040
 6200.00000    4.10620    8.90150    8.90150  308.08170  330.40380    0.00030    0.00030    2.60700    0.06020    3.02660   48.53560   40.27450   48.53560    3.02660  139.79540  583.74420  583.74420    2.60700  -32.03980   -1.01450    4.10620
 6250.00000    4.54080    8.96050    8.96050  265.52980  285.16030    0.01410    0.01410    2.61700    0.05440    3.50680   59.49460   41.03770   59.49460    3.50680  109.80910  407.05330  407.05330    2.61700  -32.28330   -1.25800    4.54080
 6300.00000    7.21100    8.58710    8.58710  169.75030  178.52360   -0.00720   -0.00720    2.63630    0.04310    5.60150   35.49810   13.47490   35.49810    5.60150  154.53660  627.38120  627.38120    2.63630  -35.34430   -4.52270    7.21100
 6350.00000   14.24220    8.50030    8.50030   90.08790   89.74320    0.00590    0.00590    2.62020    0.05250   11.14290   28.54760   10.23660   28.54760   11.14290  100.62230  404.48660  404.48660    2.62020  -45.57850  -15.88860   14.24220
 6400.00000   14.56800    8.48600    8.48600   87.48680   86.24480   -0.00700   -0.00700    2.61630    0.05480   11.59490   49.67950   31.50540   49.67950   11.59490  100.58140  418.58230  418.58230    2.61630  -39.15120  -10.59310   14.56800
 6450.00000   32.87530    8.37760    8.37760   51.43770   49.10550   -0.00610   -0.00610    2.61850    0.05350   20.36430   58.71620   33.65850   58.71620   20.36430  113.28600  474.44090  474.44090    2.61850  -35.66900   -8.24260   32.87530
 6500.00000   10.43980    8.39700    8.39700  120.24060  124.21130   -0.00310   -0.00310    2.63200    0.04560    8.05080   33.16040   20.59220   33.16040    8.05080   82.85250  327.21770  327.21770    2.63200  -38.10720  -11.81250   10.43980
 6550.00000    8.76650    8.24120    8.24120  135.39840  145.57740   -0.01250   -0.01250    2.59310    0.06840    6.86920   36.86010   15.14430   36.86010    6.86920   91.85360  367.44480  367.44480    2.59310  -39.57470  -14.41170    8.76650
 6600.00000   23.38270    8.15500    8.15500   55.76050   62.07290   -0.01380   -0.01380    2.57260    0.08040   16.11010   54.45630   35.07990   54.45630   16.11010  116.08470  506.24960  506.24960    2.57260  -39.62870  -15.59740   23.38270
 6650.00000   24.83780    8.21960    8.21960   71.50750   70.83160    0.00980    0.00980    2.52900    0.10580   14.11800   99.23300   59.19870   99.23300   14.11800   64.93200  242.14360  242.14360    2.52900  -24.66230   -1.61280   24.83780
 6700.00000  105.75010    8.12280    8.12280   14.54390   15.72630    0.00670    0.00670    2.52380    0.10890   63.58770   70.97200   59.52680   70.97200   63.58770   86.52070  350.14620  350.14620    2.52380  -27.71940   -4.13600  105.75010
