~Version ---------------------------------------------------
VERS. 2.0 : CWLS log ASCII Standard -VERSION 2.0
WRAP. YES : MULTIPLE LINES PER DEPTH STEP
~Well ------------------------------------------------------
STRT.FT                  2700.0 : START DEPTH
STOP.FT                  7350.0 : STOP DEPTH
STEP.FT                50.00000 : STEP LENGTH
NULL.                   -999.25 : NULL VALUE
COMP. EVERGREEN OIL CORPORATION : COMPANY
WELL.         NORMAN BARNETT #1 : WELL
FLD .                        WC : FIELD
LOC .                           : LOCATION
CNTY.                  GONZALES : COUNTY
STAT.                     TEXAS : STATE
CTRY.  UNITED STATES OF AMERICA : COUNTRY
SRVC.              Schlumberger : SERVICE COMPANY
DATE.               09-Apr-1981 : LOGDATE
API .            42177308300000 : API NUMBER
UWI .            42177308300000 : UNIQUE WELL ID
SLAT.WGS84        29.3371011395 : SURFACE LATITUDE
SLON.WGS84       -97.6113826614 : SURFACE LONGITUDE
~Curve Information -----------------------------------------
DEPT    .FT    : DEPTH FEET
CALWS   .IN    : CALIPER [DCALED+7.875]
CONDWS  .MMHO  : CONDUCTIVITY [1000/DRESWS]
DCALRED .IN    : DIFFERENTIAL CALIPER FROM RESISTIVITY LOG
DCORWS  .G/C3  : DENSITY CORRECTION [DRHOED]
DENWS   .G/C3  : BULK DENSITY [CALCULATED FROM DPHISSED <6790F> DPHILSED]
DPHILSED.V/V   : DENSITY POROSITY [M=2.71 F=1.0] FROM DENSITY LOG
DPHISSED.V/V   : DENSITY POROSITY [M=2.68 F=1.0] FROM DENSITY LOG
DPOWS   .V/V   : DENSITY POROSITY [M=2.71 F=1.0] [CALCULATED FROM DENWS]
DRESWS  .OHMM  : DEEP RESISTIVITY [ILDED]
DRHOED  .G/C3  : DENSITY CORRECTION FROM DENSITY LOG
GRRED   .GAPI  : GAMMA RAY FROM RESISTIVITY LOG
GRWS    .GAPI  : GAMMA RAY [GRRED, CSG ABOVE 2671F]
ILDED   .OHMM  : INDUCTION LOG DEEP RESISTIVITY
ILMED   .OHMM  : INDUCTION LOG MEDIUM RESISTIVITY
MRESWS  .OHMM  : MEDIUM RESISTIVITY [ILMED]
NPHILSED.V/V   : NEUTRON POROSITY LIMESTONE FROM DENSITY LOG
NPHISSED.V/V   : NEUTRON POROSITY SANDSTONE FROM DENSITY LOG
NPOWS   .V/V   : NEUTRON POROSITY LIMESTONE [CONVERTED NPHISSED TO LIMESTONE SPL WITH NPHILSED @6790F]
SFLUED  .OHMM  : SPHERICALLY FOCUSED LOG RESISTIVITY
SPRED   .MV    : SPONTANEOUS POTENTIAL FROM RESISTIVITY LOG
SPWS    .MV    : SPONTANEOUS POTENTIAL [BASELINE 0 MV] [SPRED]
SRESWS  .OHMM  : SHALLOW RESISTIVITY [SFLUED]
TENRED  .LBF   : TENSION FROM RESISTIVITY LOG
~Params ----------------------------------------------------
PD  .                     GL : PERMANENT DATUM
EPD .FT                  296 : ELEVATION PERMANENT DATUM
DAPD.FT                   12 : FEET ABOVE PERMANENT DATUM
EKB .FT                  308 : KELLY BUSHING
EDF .FT                  307 : DRILLING FLOOR
EGL .FT                  296 : GROUND LEVEL
DATE.               04/09/81 : RUN DATE
RUN .                      1 : RUN NUMBER
DD  .FT                 7394 : DEPTH DRILLER
DL  .FT                 7406 : DEPTH LOGGER
BLI .FT                 7399 : BOTTOM LOG INTERVAL
TLI .FT                 2672 : TOP LOG INTERVAL
CS  .IN                8.625 : CASING SIZE
CBD .FT                 2675 : CASING BOTTOM DRILLER
CBL .FT                 2672 : CASING BOTTOM LOGGER
BS  .IN                7.875 : BIT SIZE
BSD .FT                 7394 : BIT SIZE AT DEPTH
DFT .          POLYMER ASTRA : DRILLING FLUID TYPE
DFD .                    9.3 : DRILLING FLUID DENSITY
DFV .                     36 : DRILLING FLUID VISCOSITY
DFPH.                   10.2 : DRILLING FLUID PH
DFL .                    8.5 : DRILLING FLUID LOSS
MSS .               CIRC PIT : MUD SAMPLE SOURCE
RMS .OHMM               2.32 : RESISTIVITY MUD SAMPLE
MST .FT                   75 : MUD SAMPLE TEMPERATURE
RMF .OHMM               2.94 : RESISTIVITY MUD FILTRATE SAMPLE
MFST.FT                   75 : MUD FILTRATE SAMPLE TEMPERATURE
RMC .OHMM               3.48 : RESISTIVITY MUD CAKE
MCST.FT                   75 : MUD CAKE SAMPLE TEMPERATURE
MFSS.                      M : MUD FILTRATE SAMPLE SOURCE
RMB .OHMM               1.02 : RESISTIVITY MUD AT BHT
TCS .HRS                 400 : TIME CURCULATED STOPPED
TLAB.HRS                 930 : TIME LOGGER AT BOTTOM
LUN .                   3005 : LOGGING UNIT NUMBER
LUL .               VICTORIA : LOGGING UNIT LOCATION
ENGI.              BENAVIDES : RECORDING ENGINEER
WITN.                   HERD : WITNESSED BY
CLNT.                A2DTECH : CLIENT CODE
ORIG.        0.5" 2.5" PRINT : ORIGIN OF DATA
UWI .         42177308300000 : UNIQUE WELL ID
DICO. A2D Technologies, Inc. : DIGITIZING COMPANY
~Other -----------------------------------------------------
~ASCII -----------------------------------------------------
 2700.00000   10.81800  298.08040    2.94300    0.09270    2.17530    -999.25    0.30040    0.31270    3.35480    0.09270   83.52350   83.52350    3.35480    3.60470    3.60470    -999.25    0.36920    0.32580    4.49180   -9.55250   -4.31570    4.49180 1742.93210
 2750.00000   13.54140  379.27630    5.66640    0.06760    2.05220    -999.25    0.37370    0.38470    2.63660    0.06760   96.02970   96.02970    2.63660    2.50180    2.50180    -999.25    0.46710    0.42540    2.49990   -5.88500   -0.58340    2.49990 1692.42160
 2800.00000   15.37040  579.54220    7.49540    0.05050    2.11960    -999.25    0.33360    0.34530    1.72550    0.05050   93.00970   93.00970    1.72550    1.74110    1.74110    -999.25    0.48220    0.44050    1.62890   -7.14550   -1.77910    1.62890 1726.89510
 2850.00000   15.67010  535.93440    7.79510    0.06930    2.05910    -999.25    0.36960    0.38070    1.86590    0.06930   82.80510   82.80510    1.86590    1.85920    1.85920    -999.25    0.43470    0.39260    2.02070   -7.50340   -2.07220    2.02070 1725.83120
 2900.00000   15.96350  435.06630    8.08850    0.06070    2.13150    -999.25    0.32650    0.33830    2.29850    0.06070   94.64050   94.64050    2.29850    2.42920    2.42920    -999.25    0.48180    0.44010    2.51930   -6.02010   -0.52410    2.51930 1713.64890
 2950.00000   15.67100  338.31790    7.79600    0.04840    2.06040    -999.25    0.36880    0.37990    2.95580    0.04840   90.79800   90.79800    2.95580    3.02200    3.02200    -999.25    0.43540    0.39330    2.93470   -7.40620   -1.84540    2.93470 1752.56820
 3000.00000   13.67330  235.78790    5.79830   -0.00710    2.21090    -999.25    0.27920    0.29180    4.24110   -0.00710   87.06500   87.06500    4.24110    4.01950    4.01950    -999.25    0.40480    0.36200    3.83550  -14.75540   -9.12980    3.83550 1757.22680
 3050.00000   12.99090  136.78770    5.11590   -0.00740    2.13720    -999.25    0.32310    0.33500    7.31060   -0.00740   62.03460   62.03460    7.31060    7.62250    7.62250    -999.25    0.33100    0.28720    7.07790  -19.57360  -13.88320    7.07790 1764.97400
 3100.00000   14.94010  426.73040    7.06510    0.07060    2.08430    -999.25    0.35460    0.36590    2.34340    0.07060   91.55820   91.55820    2.34340    2.27180    2.27180    -999.25    0.52380    0.48210    2.24930   -6.48960   -0.73440    2.24930 1776.77220
 3150.00000   10.16960  165.53280    2.29460    0.02710    2.16340    -999.25    0.30750    0.31960    6.04110    0.02710   75.88270   75.88270    6.04110    6.65580    6.65580    -999.25    0.36870    0.32530    5.72310  -17.39770  -11.57770    5.72310 1790.61830
 3200.00000    9.87680  123.01790    2.00180   -0.00580    2.14790    -999.25    0.31670    0.32870    8.12890   -0.00580   66.98620   66.98620    8.12890    7.80450    7.80450    -999.25    0.37730    0.33400    8.62540  -18.35550  -12.47060    8.62540 1832.38940
 3250.00000    9.70230  122.10010    1.82730   -0.00500    2.10980    -999.25    0.33940    0.35100    8.19000   -0.00500   78.98870   78.98870    8.19000    8.72950    8.72950    -999.25    0.36250    0.31900    8.71340  -18.86510  -12.91540    8.71340 1843.27230
 3300.00000   10.19590  107.73540    2.32090    0.00260    2.10590    -999.25    0.34170    0.35320    9.28200    0.00260   65.74230   65.74230    9.28200    9.69920    9.69920    -999.25    0.37500    0.33170   10.25710  -17.70380  -11.68930   10.25710 1879.21410
 3350.00000   10.75950  157.40100    2.88450    0.01370    2.19920    -999.25    0.28620    0.29870    6.35320    0.01370   96.34620   96.34620    6.35320    7.20240    7.20240    -999.25    0.33350    0.28970    7.50540  -20.42060  -14.34130    7.50540 1862.19570
 3400.00000   10.61460  237.52400    2.73960    0.02180    2.25980    -999.25    0.25010    0.26330    4.21010    0.02180  101.20670  101.20670    4.21010    3.93430    3.93430    -999.25    0.37740    0.33410    3.80660  -17.60330  -11.45920    3.80660 1905.02040
 3450.00000   11.30250  180.24840    3.42750    0.03160    2.23500    -999.25    0.26490    0.27780    5.54790    0.03160   82.47480   82.47480    5.54790    5.55350    5.55350    -999.25    0.34680    0.30310    5.01230  -17.79580  -11.58690    5.01230 1925.64950
 3500.00000    9.57890  107.29500    1.70390    0.03180    2.09420    -999.25    0.34870    0.36010    9.32010    0.03180   52.93120   52.93120    9.32010    9.52400    9.52400    -999.25    0.33650    0.29270    9.16270  -22.21500  -15.94130    9.16270 1909.42680
 3550.00000   11.22020  326.68000    3.34520    0.04120    2.24370    -999.25    0.25970    0.27270    3.06110    0.04120   80.21640   80.21640    3.06110    3.20470    3.20470    -999.25    0.36250    0.31900    3.44510  -13.76790   -7.42940    3.44510 1892.52400
 3600.00000   12.01100  834.23710    4.13600    0.04260    1.94400    -999.25    0.43810    0.44800    1.19870    0.04260   84.87310   84.87310    1.19870    1.28730    1.28730    -999.25    0.59970    0.55800    1.21640   -7.44830   -1.04500    1.21640 1910.59180
 3650.00000   11.02090  303.33360    3.14590   -0.00150    2.18910    -999.25    0.29220    0.30460    3.29670   -0.00150   79.41440   79.41440    3.29670    3.14550    3.14550    -999.25    0.34270    0.29900    2.74730  -16.60660  -10.21770    2.74730 1960.70010
 3700.00000   11.16760  167.90350    3.29260    0.00690    2.24570    -999.25    0.25850    0.27150    5.95580    0.00690   64.26900   64.26900    5.95580    6.36490    6.36490    -999.25    0.35550    0.31190    6.46760  -20.71130  -14.34190    6.46760 1973.27340
 3750.00000   11.11490   93.18710    3.23990   -0.00060    2.23450    -999.25    0.26520    0.27810   10.73110   -0.00060   46.55610   46.55610   10.73110   10.68470   10.68470    -999.25    0.32390    0.28000    9.35210  -22.47240  -16.12240    9.35210 2082.07300
 3800.00000   11.27170   93.27400    3.39670    0.00410    2.13770    -999.25    0.32280    0.33470   10.72110    0.00410   44.79340   44.79340   10.72110   11.69050   11.69050    -999.25    0.31320    0.26930   10.19710  -23.38530  -17.05480   10.19710 1981.16220
 3850.00000   11.40340  248.15740    3.52840    0.07340    2.26790    -999.25    0.24530    0.25850    4.02970    0.07340   69.15630   69.15630    4.02970    5.04180    5.04180    -999.25    0.29860    0.25460    8.89130  -12.62660   -6.31560    8.89130 2039.08680
 3900.00000    9.65080  175.91390    1.77580    0.02750    2.09080    -999.25    0.35070    0.36210    5.68460    0.02750   51.64820   51.64820    5.68460    6.39680    6.39680    -999.25    0.35510    0.31150    5.54140  -21.03900  -14.74740    5.54140 2044.15910
 3950.00000   10.66250   95.67270    2.78750    0.01240    2.09590    -999.25    0.34770    0.35910   10.45230    0.01240   45.26150   45.26150   10.45230    9.90190    9.90190    -999.25    0.37880    0.33550    8.75890  -22.67150  -16.39940    8.75890 2117.57760
 4000.00000   10.17460  136.53000    2.29960    0.02900    2.15680    -999.25    0.31140    0.32350    7.32440    0.02900   57.75110   57.75110    7.32440    8.89180    8.89180    -999.25    0.32530    0.28140   10.38900  -20.72970  -14.47710   10.38900 2080.31790
 4050.00000   10.52080   94.46080    2.64580    0.01470    2.08090    -999.25    0.35660    0.36790   10.58640    0.01470   48.46000   48.46000   10.58640   11.52270   11.52270    -999.25    0.33380    0.29000   10.43840  -22.39980  -16.16660   10.43840 2112.07030
 4100.00000    9.43230  100.51060    1.55730    0.03340    2.15670    -999.25    0.31150    0.32360    9.94920    0.03340   56.96090   56.96090    9.94920    9.76570    9.76570    -999.25    0.32890    0.28510    9.62750  -23.11250  -16.89880    9.62750 2123.54690
 4150.00000   10.91580  202.56040    3.04080    0.01510    2.26940    -999.25    0.24440    0.25770    4.93680    0.01510   77.89580   77.89580    4.93680    5.30170    5.30170    -999.25    0.35760    0.31410    4.35180  -15.35850   -9.16430    4.35180 2129.95780
 4200.00000   10.55350  105.06630    2.67850    0.00990    2.12290    -999.25    0.33160    0.34330    9.51780    0.00990   50.50760   50.50760    9.51780   10.47650   10.47650    -999.25    0.34990    0.30630   10.97820  -20.42070  -14.24590   10.97820 2156.94380
