~Version ---------------------------------------------------
VERS. 2.0 : CWLS log ASCII Standard -VERSION 2.0
WRAP. YES : MULTIPLE LINES PER DEPTH STEP
~Well ------------------------------------------------------
STRT.FT                  2700.0 : START DEPTH
STOP.FT                  7350.0 : STOP DEPTH
STEP.FT                50.00000 : STEP LENGTH
NULL.                   -999.25 : NULL VALUE
COMP. EVERGREEN OIL CORPORATION : COMPANY
WELL.         NORMAN BARNETT #1 : WELL
FLD .                        WC : FIELD
LOC .                           : LOCATION
CNTY.                  GONZALES : COUNTY
STAT.                     TEXAS : STATE
CTRY.  UNITED STATES OF AMERICA : COUNTRY
SRVC.              Schlumberger : SERVICE COMPANY
DATE.               09-Apr-1981 : LOGDATE
API .            42177308300000 : API NUMBER
UWI .            42177308300000 : UNIQUE WELL ID
SLAT.WGS84        29.3371011395 : SURFACE LATITUDE
SLON.WGS84       -97.6113826614 : SURFACE LONGITUDE
~Curve Information -----------------------------------------
DEPT    .FT    : DEPTH FEET
CALWS   .IN    : CALIPER [DCALED+7.875]
CONDWS  .MMHO  : CONDUCTIVITY [1000/DRESWS]
DCALRED .IN    : DIFFERENTIAL CALIPER FROM RESISTIVITY LOG
DCORWS  .G/C3  : DENSITY CORRECTION [DRHOED]
DENWS   .G/C3  : BULK DENSITY [CALCULATED FROM DPHISSED <6790F> DPHILSED]
DPHILSED.V/V   : DENSITY POROSITY [M=2.71 F=1.0] FROM DENSITY LOG
DPHISSED.V/V   : DENSITY POROSITY [M=2.68 F=1.0] FROM DENSITY LOG
DPOWS   .V/V   : DENSITY POROSITY [M=2.71 F=1.0] [CALCULATED FROM DENWS]
DRESWS  .OHMM  : DEEP RESISTIVITY [ILDED]
DRHOED  .G/C3  : DENSITY CORRECTION FROM DENSITY LOG
GRRED   .GAPI  : GAMMA RAY FROM RESISTIVITY LOG
GRWS    .GAPI  : GAMMA RAY [GRRED, CSG ABOVE 2671F]
ILDED   .OHMM  : INDUCTION LOG DEEP RESISTIVITY
ILMED   .OHMM  : INDUCTION LOG MEDIUM RESISTIVITY
MRESWS  .OHMM  : MEDIUM RESISTIVITY [ILMED]
NPHILSED.V/V   : NEUTRON POROSITY LIMESTONE FROM DENSITY LOG
NPHISSED.V/V   : NEUTRON POROSITY SANDSTONE FROM DENSITY LOG
NPOWS   .V/V   : NEUTRON POROSITY LIMESTONE [CONVERTED NPHISSED TO LIMESTONE SPL WITH NPHILSED @6790F]
SFLUED  .OHMM  : SPHERICALLY FOCUSED LOG RESISTIVITY
SPRED   .MV    : SPONTANEOUS POTENTIAL FROM RESISTIVITY LOG
SPWS    .MV    : SPONTANEOUS POTENTIAL [BASELINE 0 MV] [SPRED]
SRESWS  .OHMM  : SHALLOW RESISTIVITY [SFLUED]
TENRED  .LBF   : TENSION FROM RESISTIVITY LOG
~Params ----------------------------------------------------
PD  .                     GL : PERMANENT DATUM
EPD .FT                  296 : ELEVATION PERMANENT DATUM
DAPD.FT                   12 : FEET ABOVE PERMANENT DATUM
EKB .FT                  308 : KELLY BUSHING
EDF .FT                  307 : DRILLING FLOOR
EGL .FT                  296 : GROUND LEVEL
DATE.               04/09/81 : RUN DATE
RUN .                      1 : RUN NUMBER
DD  .FT                 7394 : DEPTH DRILLER
DL  .FT                 7406 : DEPTH LOGGER
BLI .FT                 7399 : BOTTOM LOG INTERVAL
TLI .FT                 2672 : TOP LOG INTERVAL
CS  .IN                8.625 : CASING SIZE
CBD .FT                 2675 : CASING BOTTOM DRILLER
CBL .FT                 2672 : CASING BOTTOM LOGGER
BS  .IN                7.875 : BIT SIZE
BSD .FT                 7394 : BIT SIZE AT DEPTH
DFT .          POLYMER ASTRA : DRILLING FLUID TYPE
DFD .                    9.3 : DRILLING FLUID DENSITY
DFV .                     36 : DRILLING FLUID VISCOSITY
DFPH.                   10.2 : DRILLING FLUID PH
DFL .                    8.5 : DRILLING FLUID LOSS
MSS .               CIRC PIT : MUD SAMPLE SOURCE
RMS .OHMM               2.32 : RESISTIVITY MUD SAMPLE
MST .FT                   75 : MUD SAMPLE TEMPERATURE
RMF .OHMM               2.94 : RESISTIVITY MUD FILTRATE SAMPLE
MFST.FT                   75 : MUD FILTRATE SAMPLE TEMPERATURE
RMC .OHMM               3.48 : RESISTIVITY MUD CAKE
MCST.FT                   75 : MUD CAKE SAMPLE TEMPERATURE
MFSS.                      M : MUD FILTRATE SAMPLE SOURCE
RMB .OHMM               1.02 : RESISTIVITY MUD AT BHT
TCS .HRS                 400 : TIME CURCULATED STOPPED
TLAB.HRS                 930 : TIME LOGGER AT BOTTOM
LUN .                   3005 : LOGGING UNIT NUMBER
LUL .               VICTORIA : LOGGING UNIT LOCATION
ENGI.              BENAVIDES : RECORDING ENGINEER
WITN.                   HERD : WITNESSED BY
CLNT.                A2DTECH : CLIENT CODE
ORIG.        0.5" 2.5" PRINT : ORIGIN OF DATA
UWI .         42177308300000 : UNIQUE WELL ID
DICO. A2D Technologies, Inc. : DIGITIZING COMPANY
~Other -----------------------------------------------------
~ASCII -----------------------------------------------------
# ...
 4250.00000   10.08070  104.10920    2.20570    0.01870    2.17430    -999.25    0.30100    0.31330    9.60530    0.01870   52.12380   52.12380    9.60530   10.56220   10.56220    -999.25    0.32870    0.28490   10.17420  -22.19170  -16.03640   10.17420 2161.20190
 4300.00000   10.17420   95.49090    2.29920    0.01020    2.17550    -999.25    0.30030    0.31260   10.47220    0.01020   52.33940   52.33940   10.47220   11.51940   11.51940    -999.25    0.30470    0.26070   11.18180  -22.41140  -16.27560   11.18180 2171.56180
 4350.00000   10.87220  193.03160    2.99720    0.03420    2.35290    -999.25    0.19470    0.20880    5.18050    0.03420   92.10030   92.10030    5.18050    5.94010    5.94010    -999.25    0.35350    0.30990    4.23900  -11.83850   -5.72220    4.23900 2238.56710
 4400.00000    9.16390  129.73200    1.28890    0.02990    2.20020    -999.25    0.28560    0.29810    7.70820    0.02990   73.60200   73.60200    7.70820    9.13760    9.13760    -999.25    0.32430    0.28040   10.11000  -23.96630  -17.90270   10.11000 2222.48490
 4450.00000    9.58700  155.84340    1.71200    0.05320    2.38280    -999.25    0.17690    0.19130    6.41670    0.05320  106.21600  106.21600    6.41670    5.96350    5.96350    -999.25    0.28130    0.23730    9.26170  -14.64260   -8.65800    9.26170 2234.41310
 4500.00000   11.39340  565.77090    3.51840    0.08450    2.10540    -999.25    0.34200    0.35350    1.76750    0.08450  109.37960  109.37960    1.76750    1.93820    1.93820    -999.25    0.45080    0.40910    1.55840   -7.03030   -1.12460    1.55840 2258.73170
 4550.00000   11.12720  480.53820    3.25220    0.09840    2.31590    -999.25    0.21670    0.23040    2.08100    0.09840  108.30470  108.30470    2.08100    2.19830    2.19830    -999.25    0.39830    0.35540    2.28590   -7.50040   -1.67370    2.28590 2259.11210
 4600.00000   10.83410  443.73450    2.95910    0.10200    2.39340    -999.25    0.17060    0.18520    2.25360    0.10200  114.58680  114.58680    2.25360    2.45900    2.45900    -999.25    0.35560    0.31200    2.62390   -7.52290   -1.77510    2.62390 2301.11770
 4650.00000   10.21850  268.08210    2.34350    0.03050    2.18070    -999.25    0.29720    0.30950    3.73020    0.03050   95.78510   95.78510    3.73020    5.17820    5.17820    -999.25    0.33780    0.29400    8.77040  -54.19950  -48.53070    8.77040 2300.19750
 4700.00000   10.48390  407.89690    2.60890    0.09920    2.41780    -999.25    0.15610    0.17090    2.45160    0.09920   96.53880   96.53880    2.45160    2.48980    2.48980    -999.25    0.37540    0.33210    2.64920   -6.97630   -1.38640    2.64920 2319.88940
 4750.00000    8.89030  255.65640    1.01530    0.00310    2.37470    -999.25    0.18170    0.19610    3.91150    0.00310   96.17820   96.17820    3.91150    4.17310    4.17310    -999.25    0.29150    0.24750    4.94200  -16.75820  -11.24720    4.94200 2336.64310
 4800.00000    9.36070  349.74820    1.48570    0.06210    2.46310    -999.25    0.12910    0.14440    2.85920    0.06210  102.37490  102.37490    2.85920    2.94070    2.94070    -999.25    0.30080    0.25680    3.14990   -6.86360   -1.43160    3.14990 2333.24730
 4850.00000    9.76640  429.20300    1.89140    0.09890    2.37510    -999.25    0.18150    0.19590    2.32990    0.09890  103.34320  103.34320    2.32990    2.39220    2.39220    -999.25    0.36400    0.32050    2.54420   -7.01850   -1.66540    2.54420 2369.78690
 4900.00000    9.07540  409.23230    1.20040    0.07660    2.40970    -999.25    0.16090    0.17560    2.44360    0.07660  108.32140  108.32140    2.44360    2.61270    2.61270    -999.25    0.34470    0.30100    2.52600   -5.77870   -0.50460    2.52600 2371.97830
 4950.00000   10.48810  550.20630    2.61310    0.09080    2.41170    -999.25    0.15970    0.17440    1.81750    0.09080  107.83670  107.83670    1.81750    1.89860    1.89860    -999.25    0.34740    0.30370    1.96160   -6.49080   -1.29560    1.96160 2396.38480
 5000.00000   11.27200  573.78930    3.39700    0.09580    2.41070    -999.25    0.16030    0.17500    1.74280    0.09580  104.12850  104.12850    1.74280    1.85670    1.85670    -999.25    0.35570    0.31210    2.06310   -7.36340   -2.24720    2.06310 2410.36470
 5050.00000   10.73150  661.46310    2.85650    0.09800    2.40500    -999.25    0.16370    0.17840    1.51180    0.09800  105.49090  105.49090    1.51180    1.62920    1.62920    -999.25    0.36040    0.31690    1.90850   -8.56030   -3.52300    1.90850 2392.62520
 5100.00000   10.59420  715.25640    2.71920    0.09560    2.34080    -999.25    0.20190    0.21590    1.39810    0.09560  112.41270  112.41270    1.39810    1.48760    1.48760    -999.25    0.41720    0.37470    1.59750   -6.59000   -1.63170    1.59750 2437.11890
 5150.00000   10.82580  710.83310    2.95080    0.09970    2.39190    -999.25    0.17150    0.18600    1.40680    0.09970  108.35030  108.35030    1.40680    1.54200    1.54200    -999.25    0.35080    0.30720    1.64970   -7.18140   -2.45660    1.64970 2440.53300
 5200.00000   10.88670  871.91550    3.01170    0.06220    2.28340    -999.25    0.23610    0.24950    1.14690    0.06220  107.36120  107.36120    1.14690    1.25560    1.25560    -999.25    0.39600    0.35300    1.27830   -7.60310   -3.35350    1.27830 2464.17500
 5250.00000   11.08910  912.07590    3.21410    0.10270    2.31540    -999.25    0.21700    0.23070    1.09640    0.10270   92.85850   92.85850    1.09640    1.15090    1.15090    -999.25    0.38340    0.34020    1.18720   -6.59670   -2.82230    1.18720 2466.27660
 5300.00000   10.68320  867.37790    2.80820    0.07800    2.34250    -999.25    0.20090    0.21490    1.15290    0.07800   96.22700   96.22700    1.15290    1.23850    1.23850    -999.25    0.33240    0.28860    1.29120   -4.27240   -0.97330    1.29120 2508.98100
 5350.00000    9.10200  686.29470    1.22700    0.09890    2.48430    -999.25    0.11650    0.13200    1.45710    0.09890   94.70800   94.70800    1.45710    1.57210    1.57210    -999.25    0.25930    0.21540    1.77100   -4.04460   -1.22070    1.77100 2516.10600
 5400.00000   10.14160 1048.87770    2.26660    0.09740    2.35530    -999.25    0.19330    0.20750    0.95340    0.09740  115.13820  115.13820    0.95340    1.07830    1.07830    -999.25    0.41290    0.37030    1.01220   -5.14940   -2.80080    1.01220 2592.67770
 5450.00000    9.67550  551.69370    1.80050    0.09990    2.42380    -999.25    0.15250    0.16740    1.81260    0.09990   95.86230   95.86230    1.81260    1.96120    1.96120    -999.25    0.33040    0.28660    2.01590   -5.23660   -3.36320    2.01590 2571.41110
 5500.00000    8.65330  342.00900    0.77830    0.04780    2.49070    -999.25    0.11270    0.12830    2.92390    0.04780   91.24320   91.24320    2.92390    3.13130    3.13130    -999.25    0.25330    0.20940    3.39560   -3.32210   -1.72960    3.39560 2614.09110
 5550.00000   11.00810  831.60080    3.13310    0.09780    2.26520    -999.25    0.24690    0.26010    1.20250    0.09780   92.59680   92.59680    1.20250    1.31590    1.31590    -999.25    0.35850    0.31500    1.39130  -10.83840   -9.29870    1.39130 2634.55930
 5600.00000    9.18470  490.38840    1.30970    0.09900    2.38150    -999.25    0.17770    0.19210    2.03920    0.09900   80.42900   80.42900    2.03920    2.31850    2.31850    -999.25    0.30710    0.26310    2.45860   -8.92840   -7.44150    2.45860 2622.30220
 5650.00000    9.99370  657.33260    2.11870    0.04920    2.44160    -999.25    0.14190    0.15700    1.52130    0.04920   87.93210   87.93210    1.52130    1.65730    1.65730    -999.25    0.36820    0.32480    1.56850   -8.19060   -6.75650    1.56850 2704.30320
 5700.00000   11.45120  687.85250    3.57620    0.10010    2.44820    -999.25    0.13800    0.15310    1.45380    0.10010   87.91990   87.91990    1.45380    1.40830    1.40830    -999.25    0.32950    0.28570    1.55930  -11.39300  -10.01170    1.55930 3343.82520
 5750.00000   12.71540  810.24150    4.84040    0.10050    2.40650    -999.25    0.16280    0.17750    1.23420    0.10050   93.90330   93.90330    1.23420    1.34090    1.34090    -999.25    0.35940    0.31590    1.42080   -7.93110   -6.60260    1.42080 2607.51070
