~Version ---------------------------------------------------
VERS.      2.0 : CWLS log ASCII Standard -VERSION 2.0
WRAP.      YES : Multiple lines per depth step
CREA. 09/28/17 : LAS Creation Date
~Well ------------------------------------------------------
STRT.FT                  2150.0 : START DEPTH
STOP.FT                 11650.0 : STOP DEPTH
STEP.FT                50.00000 : STEP LENGTH
NULL.                   -999.25 : NULL VALUE
COMP. BURK ROYALTY COMPANY, LTD : COMPANY
WELL.               STERLING #1 : WELL
FLD .                           : FIELD
LOC .                           : LOCATION
CNTY.                   MADISON : COUNTY
STAT.                     TEXAS : STATE
CTRY.  UNITED STATES OF AMERICA : COUNTRY
SRVC.               HALLIBURTON : SERVICE COMPANY
DATE.               31-May-2014 : LOGDATE
API .            42313311010000 : API NUMBER
UWI .            42313311010000 : UNIQUE WELL ID
SLAT.WGS84     30.9882730389083 : SURFACE LATITUDE
SLON.WGS84    -95.6985448660659 : SURFACE LONGITUDE
~Curve Information -----------------------------------------
DEPT    .FT    : DEPTH FEET
CALRED  .IN    : CALIPER FROM RESISTIVITY LOG
CALWS   .IN    : CALIPER [CALRED]
CONDWS  .MMHO  : DEEP CONDUCTIVITY [1000/DRESWS]
DCALRED .IN    : DIFFERENTIAL CALIPER FROM RESISTIVITY LOG
DCORWS  .G/C3  : DENSITY CORRECTION [DRHOED]
DENWS   .G/C3  : BULK DENSITY [RHOBED]
DPHILSED.V/V   : DENSITY POROSITY (LS) [M=2.71 F=1.00]
DPOLSWS .V/V   : DENSITY POROSITY (LS) [M=2.71 F=1.00] [DPHILSED]
DRESWS  .OHMM  : DEEP RESISTIVITY [RT90ED]
DRHOED  .G/C3  : DENSITY CORRECTION FROM DENSITY LOG
GRRED   .GAPI  : GAMMA RAY FROM RESISTIVITY LOG
GRWS    .GAPI  : GAMMA RAY [GRRED]
MINVED  .OHMM  : MICROINVERSE RESISTIVITY
MNORED  .OHMM  : MICRONORMAL RESISTIVITY
MRESWS  .OHMM  : MEDIUM RESISTIVITY [RT30ED]
NPHILSED.V/V   : NEUTRON POROSITY LIMESTONE
NPOLSWS .V/V   : NEUTRON POROSITY LIMESTONE [NPHILSED]
PEED    .B/E   : PHOTOELECTRIC FACTOR FROM DENSITY LOG
PEFWS   .B/E   : PHOTOELECTRIC FACTOR [PEED]
RHOBED  .G/C3  : BULK DENSITY FROM DENSITY LOG
RT10ED  .OHMM  : 10 INCH RESISTIVITY TWO FOOT RESOLUTION
RT20ED  .OHMM  : 20 INCH RESISTIVITY TWO FOOT RESOLUTION
RT30ED  .OHMM  : 30 INCH RESISTIVITY TWO FOOT RESOLUTION
RT60ED  .OHMM  : 60 INCH RESISTIVITY TWO FOOT RESOLUTION
RT90ED  .OHMM  : 90 INCH RESISTIVITY TWO FOOT RESOLUTION
SPRED   .MV    : SPONTANEOUS POTENTIAL FROM RESISTIVITY LOG
SPWS    .MV    : SPONTANEOUS POTENTIAL [BASELINE 0 MV] [SPRED]
SRESWS  .OHMM  : SHALLOW RESISTIVITY [RT10ED]
TENRED  .LBF   : TENSION FROM RESISTIVITY LOG
~Params ----------------------------------------------------
PD  .                     GL : PERMANENT DATUM
EPD .FT                  159 : ELEVATION PERMANENT DATUM
LMF .                     KB : LOG MEASURED FROM
DAPD.FT                   30 : FEET ABOVE PERMANENT DATUM
DMF .                     KB : DRILLING MEASURED FROM
EKB .FT                  189 : KELLY BUSHING
EDF .FT                  188 : DRILLING FLOOR
EGL .FT                  159 : GROUND LEVEL
DATE.              5/31/2014 : RUN DATE
RUN .                      1 : RUN NUMBER
DD  .FT                11688 : DEPTH DRILLER
DL  .FT                11682 : DEPTH LOGGER
BLI .FT                11679 : BOTTOM LOG INTERVAL
TLI .FT                 2195 : TOP LOG INTERVAL
CS  .IN                9.625 : CASING SIZE
CBD .FT                 2195 : CASING BOTTOM DRILLER
CBL .FT                 2195 : CASING BOTTOM LOGGER
BS  .IN                 8.75 : BIT SIZE
BSD .FT                11688 : BIT SIZE AT DEPTH
DFT .        WATER BASED MUD : DRILLING FLUID TYPE
DFD .                    9.8 : DRILLING FLUID DENSITY
DFV .                     65 : DRILLING FLUID VISCOSITY
DFPH.                    9.4 : DRILLING FLUID PH
DFL .                    4.4 : DRILLING FLUID LOSS
MSS .               MUD TANK : MUD SAMPLE SOURCE
RMS .OHMM               1.31 : RESISTIVITY MUD SAMPLE
MST .DEGF                 71 : MUD SAMPLE TEMPERATURE
RMF .OHMM               1.12 : RESISTIVITY MUD FILTRATE SAMPLE
MFST.DEGF                 72 : MUD FILTRATE SAMPLE TEMPERATURE
RMC .OHMM               1.83 : RESISTIVITY MUD CAKE
MCST.DEGF                 72 : MUD CAKE SAMPLE TEMPERATURE
MFSS.                   MEAS : MUD FILTRATE SAMPLE SOURCE
MCSS.                   MEAS : MUD CAKE SAMPLE SOURCE
RMB .OHMM               0.73 : RESISTIVITY MUD AT BHT
TCS .HRS                 700 : TIME CIRCULATED STOPPED
TLAB.HRS                 630 : TIME LOGGER AT BOTTOM
LUN .               10549594 : LOGGING UNIT NUMBER
LUL .                KILGORE : LOGGING UNIT LOCATION
ENGI.                 ALLALI : RECORDING ENGINEER
WITN.                KIMBELL : WITNESSED BY
CLNT.                A2DTECH : CLIENT CODE
ORIG.       1", 2", 5" PRINT : ORIGIN OF DATA
UWI .         42313311010000 : UNIQUE WELL ID
DICO. A2D Technologies, Inc. : DIGITIZING COMPANY
~Other -----------------------------------------------------
ALL LOGS RAN ON COMBO.
LOADED ALL CURVES FROM BOREHOLE DATA SET.
GAPS ON CURVES AROUND 11450'-11510' DUE TO TOOL PULLED.
~ASCII -----------------------------------------------------
# ...
 3400.00000   11.11700   11.11700  251.53440    2.36700    0.03670    2.27460    0.25460    0.25460    3.97560    0.03670   62.53930   62.53930    3.38450    2.60420    4.14060    0.20760    0.20760    2.81220    2.81220    2.27460    4.99480    4.47850    4.14060    4.03510    3.97560  -23.27550  -11.64630    4.99480 2722.27290
 3450.00000    9.29890    9.29890  271.46620    0.54890    0.01190    2.24770    0.27030    0.27030    3.68370    0.01190   71.32820   71.32820    3.39860    2.42380    3.93280    0.29530    0.29530    2.69110    2.69110    2.24770    4.29060    4.22560    3.93280    3.77080    3.68370  -25.15710  -13.33920    4.29060 2700.30370
 3500.00000    9.16650    9.16650  258.19110    0.41650    0.03530    2.31210    0.23270    0.23270    3.87310    0.03530   62.15280   62.15280    3.75050    2.52620    4.04420    0.26180    0.26180    3.11830    3.11830    2.31210    4.54620    4.37280    4.04420    3.92020    3.87310  -26.75850  -14.75190    4.54620 2754.93820
 3550.00000    9.23380    9.23380  335.58170    0.48380    0.02100    2.35710    0.20640    0.20640    2.97990    0.02100   86.50520   86.50520    3.48590    1.98000    3.03760    0.27420    0.27420    2.88430    2.88430    2.35710    3.19860    3.14680    3.03760    3.00920    2.97990  -20.60800   -8.41260    3.19860 2714.78420
 3600.00000    9.47420    9.47420  463.80040    0.72420    0.01830    2.13260    0.33760    0.33760    2.15610    0.01830   55.23560   55.23560    4.21570    2.64670    2.52560    0.29480    0.29480    2.25330    2.25330    2.13260    3.92050    3.06410    2.52560    2.30330    2.15610  -43.79610  -31.41200    3.92050 2755.91600
 3650.00000    9.44290    9.44290  358.34590    0.69290    0.00660    2.20900    0.29300    0.29300    2.79060    0.00660   74.05440   74.05440    4.14730    2.58230    3.12950    0.26380    0.26380    2.36820    2.36820    2.20900    4.11370    3.60360    3.12950    2.93050    2.79060  -31.23390  -18.66110    4.11370 2779.43070
 3700.00000    9.29090    9.29090  442.36040    0.54090    0.04190    2.17870    0.31070    0.31070    2.26060    0.04190   60.36920   60.36920    2.86740    2.38060    2.64710    0.27750    0.27750    2.82770    2.82770    2.17870    3.80870    3.15430    2.64710    2.42740    2.26060  -31.96650  -19.20500    3.80870 2735.03170
 3750.00000    9.14310    9.14310  395.17880    0.39310    0.03880    2.28490    0.24860    0.24860    2.53050    0.03880   71.22640   71.22640    4.27320    2.36140    2.81600    0.25840    0.25840    2.50810    2.50810    2.28490    3.37070    3.13640    2.81600    2.65430    2.53050  -25.53590  -12.58570    3.37070 2660.05640
 3800.00000   10.77460   10.77460  430.42220    2.02460    0.02260    2.23310    0.27890    0.27890    2.32330    0.02260   70.18890   70.18890    3.62850    2.54520    2.71590    0.23770    0.23770    2.71870    2.71870    2.23310    4.01310    3.25670    2.71590    2.47380    2.32330  -37.40930  -24.27030    4.01310 2732.21360
 3850.00000   10.95110   10.95110  513.05730    2.20110   -0.01010    2.11560    0.34760    0.34760    1.94910   -0.01010   45.64650   45.64650    3.15460    2.40120    2.39330    0.25020    0.25020    2.58170    2.58170    2.11560    4.23810    3.03440    2.39330    2.11950    1.94910  -44.24220  -31.75730    4.23810 2713.27560
 3900.00000    9.67960    9.67960  309.20500    0.92960    0.02380    2.45210    0.15080    0.15080    3.23410    0.02380   79.60840   79.60840    5.34510    2.86680    3.32710    0.23110    0.23110    2.94640    2.94640    2.45210    3.55050    3.49550    3.32710    3.26290    3.23410  -17.25500   -6.08620    3.55050 2761.28250
 3950.00000    9.53500    9.53500  431.35060    0.78500    0.05150    2.29980    0.23990    0.23990    2.31830    0.05150   63.39380   63.39380    3.23730    2.38460    2.63820    0.24990    0.24990    3.71330    3.71330    2.29980    3.49830    3.08120    2.63820    2.44710    2.31830  -35.55280  -25.70020    3.49830 2691.78880
 4000.00000    9.48130    9.48130  435.10420    0.73130    0.05660    2.31420    0.23150    0.23150    2.29830    0.05660   73.95260   73.95260    3.18200    2.32500    2.54270    0.23750    0.23750    3.20700    3.20700    2.31420    3.25730    2.90960    2.54270    2.38320    2.29830  -27.38620  -18.77510    3.25730 2719.89040
 4050.00000   10.22010   10.22010  641.97210    1.47010    0.04190    2.13380    0.33700    0.33700    1.55770    0.04190   55.74420   55.74420    2.94010    2.27940    1.97130    0.29280    0.29280    3.98560    3.98560    2.13380    3.42440    2.54050    1.97130    1.70740    1.55770  -52.08010  -44.31870    3.42440 2741.09380
 4100.00000    9.38260    9.38260  581.12510    0.63260    0.04890    2.15680    0.32350    0.32350    1.72080    0.04890   54.46250   54.46250    3.21860    2.44990    2.04330    0.26160    0.26160    3.26770    3.26770    2.15680    2.99840    2.47190    2.04330    1.85530    1.72080  -41.83780  -34.92610    2.99840 2771.57670
 4150.00000    9.30610    9.30610  469.06520    0.55610    0.03080    2.33710    0.21810    0.21810    2.13190    0.03080   72.63020   72.63020    3.55830    2.45360    2.43810    0.25290    0.25290    3.31110    3.31110    2.33710    3.45920    2.87530    2.43810    2.24650    2.13190  -30.45120  -24.38920    3.45920 2793.00340
 4200.00000    9.42540    9.42540  983.28420    0.67540    0.03120    2.13480    0.33640    0.33640    1.01700    0.03120   49.55940   49.55940    2.76210    2.16430    1.23740    0.26990    0.26990    3.87490    3.87490    2.13480    2.18780    1.54050    1.23740    1.10220    1.01700  -57.27250  -57.04730    2.18780 2781.30540
 4250.00000    9.62560    9.62560  441.98900    0.87560    0.06300    2.08410    0.36600    0.36600    2.26250    0.06300   82.96530   82.96530    3.65330    1.27140    2.44950    0.37010    0.37010    3.03410    3.03410    2.08410    2.70300    2.62560    2.44950    2.33570    2.26250  -12.14560  -14.31330    2.70300 2817.93360
 4300.00000    9.32210    9.32210  517.25030    0.57210    0.03430    2.36180    0.20360    0.20360    1.93330    0.03430   77.53330   77.53330    2.96940    2.16590    2.05790    0.25820    0.25820    3.00080    3.00080    2.36180    2.93970    2.34000    2.05790    1.95760    1.93330  -25.57500  -28.02470    2.93970 2850.86940
 4350.00000    9.88150    9.88150 1187.64850    1.13150    0.00400    2.16860    0.31660    0.31660    0.84200    0.00400   56.04940   56.04940    3.02220    2.35260    1.06220    0.28730    0.28730    3.01590    3.01590    2.16860    2.06890    1.37190    1.06220    0.92480    0.84200  -59.75050  -62.48220    2.06890 2889.15920
 4400.00000    9.70180    9.70180 1179.10620    0.95180    0.01070    2.23530    0.27760    0.27760    0.84810    0.01070   47.76910   47.76910    2.88720    2.29190    1.06350    0.23240    0.23240    2.64040    2.64040    2.23530    2.14490    1.38220    1.06350    0.92380    0.84810  -61.09520  -64.10900    2.14490 2940.55080
 4450.00000    9.60010    9.60010 1216.69300    0.85010   -0.00820    2.17260    0.31430    0.31430    0.82190   -0.00820   50.23080   50.23080    2.97140    2.31090    1.03570    0.24010    0.24010    2.23550    2.23550    2.17260    2.07420    1.34630    1.03570    0.89690    0.82190  -57.79380  -61.08960    2.07420 2902.75630
 4500.00000    9.05450    9.05450  568.95770    0.30450    0.03130    2.42270    0.16800    0.16800    1.75760    0.03130   96.98270   96.98270    4.28070    2.86890    2.04430    0.23490    0.23490    2.84270    2.84270    2.42270    2.86560    2.41010    2.04430    1.87480    1.75760  -24.00650  -27.58440    2.86560 2964.79660
 4550.00000    9.10460    9.10460 1463.27190    0.35460    0.02590    2.15130    0.32670    0.32670    0.68340    0.02590   49.76290   49.76290    3.17480    2.25640    0.80730    0.27280    0.27280    3.10390    3.10390    2.15130    1.35950    0.98040    0.80730    0.73330    0.68340  -56.61820  -60.47810    1.35950 3064.00660
 4600.00000    9.04070    9.04070 1351.16880    0.29070    0.02550    2.22140    0.28570    0.28570    0.74010    0.02550   59.97590   59.97590    3.76840    2.62700    0.86500    0.25120    0.25120    2.99900    2.99900    2.22140    1.45680    1.04650    0.86500    0.79210    0.74010  -52.25860  -56.40050    1.45680 3015.00900
