~Version ---------------------------------------------------
VERS. 2.0 : CWLS log ASCII Standard -VERSION 2.0
WRAP. YES : Multiple lines per depth step
~Well ------------------------------------------------------
STRT.FT                   4050.0 : START DEPTH
STOP.FT                   9050.0 : STOP DEPTH
STEP.FT                 50.00000 : STEP LENGTH
NULL.                    -999.25 : NULL VALUE
COMP. CHAMPLIN PETROLEUM COMPANY : COMPANY
WELL.         LENWOOD WALLACE #1 : WELL
FLD .                   GIDDINGS : FIELD
LOC .                            : LOCATION
CNTY.                   BURLESON : COUNTY
STAT.                      TEXAS : STATE
CTRY.   UNITED STATES OF AMERICA : COUNTRY
SRVC.               Schlumberger : SERVICE COMPANY
DATE.                17-Dec-1980 : LOGDATE
API .             42051310320000 : API NUMBER
UWI .             42051310320000 : UNIQUE WELL ID
SLAT.WGS84         30.4639863127 : SURFACE LATITUDE
SLON.WGS84        -96.5949985756 : SURFACE LONGITUDE
~Curve Information -----------------------------------------
DEPT    .FT    : DEPTH
CALWS   .IN    : CALIPER (DCALED+8.75)
CONDWS  .MMHO  : CONDUCTIVITY (1000/DRESWS)
DCALED  .IN    : DIFFERENTIAL CALIPER
DCORWS  .G/C3  : DENSITY CORRECTION (DRHOED)
DENWS   .G/C3  : BULK DENSITY  (DPHISSED M=2.65 F=1/DPHILSED M-2.71 F-1)
DPHILSED.V/V   : DENSITY POROSITY LIMESTONE
DPHISSED.V/V   : DENSITY POROSITY SANDSTONE
DPOWS   .V/V   : DENSITY POROSITY (M=2.71 F=1 FROM DENWS)
DRESWS  .OHMM  : DEEP RESISTIVITY (ILDED)
DRHOED  .G/C3  : DENSITY CORRECTION (FILLED MISSING)
GRRED   .GAPI  : GAMMA RAY
GRWS    .GAPI  : GAMMA RAY (GRRED)
ILDED   .OHMM  : DEEP INDUCTION RESISTIVITY
ILMED   .OHMM  : MEDIUM INDUCTION RESISTIVITY
MRESWS  .OHMM  : MEDIUM RESISTIVITY (ILMED)
NPHILSED.V/V   : NEUTRON POROSITY LIMESTONE
NPHISSED.V/V   : NEUTRON POROSITY SANDSTONE
NPOWS   .V/V   : NEUTRON POROSITY LIMESTONE (NPHISSED CONVERTED TO LS/NPHILSED)
SFLUED  .OHMM  : SPHERICALLY FOCUSED RESISTIVITY
SPRED   .MV    : SPONTANEOUS POTENTIAL
SPWS    .MV    : SPONTANEOUS POTENTIAL BASELINE 0 MV (SPRED)
SRESWS  .OHMM  : SHALLOW RESISTIVITY (SFLUED)
~Params ----------------------------------------------------
PD  .                     GL : PERMANENT DATUM
EPD .FT                  325 : ELEVATION PERMANENT DATUM
LMF .                     KB : LOG MEASURED FROM
DAPD.FT                   14 : FEET ABOVE PERMANENT DATUM
DMF .                     KB : DRILLING MEASURED FROM
EKB .FT                  339 : KELLY BUSHING
EDF .FT                  338 : DRILLING FLOOR
EGL .FT                  325 : GROUND LEVEL
DATE.               12/17/80 : RUN DATE
RUN .                      1 : RUN NUMBER
DD  .FT                 9080 : DEPTH DRILLER
DL  .FT                 9076 : DEPTH LOGGER
BLI .FT                 9070 : BOTTOM LOG INTERVAL
TLI .FT                 4046 : TOP LOG INTERVAL
CS  .IN                9.625 : CASING SIZE
CBD .FT                 4045 : CASING BOTTOM DRILLER
CBL .FT                 4046 : CASING BOTTOM LOGGER
BS  .IN                 8.75 : BIT SIZE
BSD .FT                 9080 : BIT SIZE AT DEPTH
DFT .                 BEN EX : DRILLING FLUID TYPE
DFD .                    9.4 : DRILLING FLUID DENSITY
DFV .                     43 : DRILLING FLUID VISCOSITY
DFPH.                    8.5 : DRILLING FLUID PH
DFL .                    7.1 : DRILLING FLUID LOSS
MSS .                   TANK : MUD SAMPLE SOURCE
RMS .OHMM               2.01 : RESISTIVITY MUD SAMPLE
MST .DEGF                 98 : MUD SAMPLE TEMPERATURE
RMF .OHMM                1.5 : RESISTIVITY MUD FILTRATE SAMPLE
MFST.DEGF                 98 : MUD FILTRATE SAMPLE TEMPERATURE
RMC .OHMM               3.01 : RESISTIVITY MUD CAKE
MCST.DEGF                 98 : MUD CAKE SAMPLE TEMPERATURE
MFSS.                      M : MUD FILTRATE SAMPLE SOURCE
MCSS.                      C : MUD CAKE SAMPLE SOURCE
RMB .OHMM               1.06 : RESISTIVITY MUD AT BHT
TCS .HRS                2400 : TIME CIRCULATED STOPPED
TLAB.HRS                 630 : TIME LOGGER AT BOTTOM
LUN .                   8101 : LOGGING UNIT NUMBER
LUL .                BRENHAM : LOGGING UNIT LOCATION
ENGI.                  WYATT : RECORDING ENGINEER
WITN.                 KRAUHS : WITNESSED BY
CLNT.                A2DTECH : CLIENT CODE
ORIG.          1" 2.5" PRINT : ORIGIN OF DATA
UWI .         42051310320000 : UNIQUE WELL ID
DICO. A2D Technologies, Inc. : DIGITIZING COMPANY
~Other -----------------------------------------------------
~ASCII -----------------------------------------------------
 4050.00000    9.43930    -999.25    0.68930    0.04450    2.35890    -999.25    0.17640    0.20530    -999.25    0.04450  101.49510  101.49510    -999.25    -999.25    -999.25    -999.25    0.30790    0.36110    8.61990  -50.16190  -33.88050    8.61990
 4100.00000   10.25270  205.28400    1.50270    0.02340    2.44130    -999.25    0.12650    0.15710    4.87130    0.02340  108.87170  108.87170    4.87130    5.13610    5.13610    -999.25    0.33160    0.37940    4.42360  -41.61000  -25.87030    4.42360
 4150.00000   11.89260  311.23560    3.14260    0.01270    1.66020    -999.25    0.59990    0.61390    3.21300    0.01270   79.69010   79.69010    3.21300    3.36570    3.36570    -999.25    0.60010    0.61510    3.42150  -19.60920   -4.87270    3.42150
 4200.00000   10.80230  140.20130    2.05230   -0.02250    1.66000    -999.25    0.60000    0.61400    7.13260   -0.02250   53.25000   53.25000    7.13260   10.14890   10.14890    -999.25    -999.25    -999.25   31.26510  -41.84090  -28.10760   31.26510
 4250.00000    9.40460  416.94460    0.65460    0.03940    2.15750    -999.25    0.29850    0.32310    2.39840    0.03940   51.36740   51.36740    2.39840    3.56040    3.56040    -999.25    0.33720    0.38370    8.96310  -86.32660  -73.59650    8.96310
 4300.00000    9.47330  361.71600    0.72330    0.05330    2.19000    -999.25    0.27880    0.30410    2.76460    0.05330   49.48020   49.48020    2.76460    4.33300    4.33300    -999.25    0.32400    0.37360   10.35800  -83.78830  -72.06140   10.35800
 4350.00000    9.54460  270.96600    0.79460    0.05890    2.29740    -999.25    0.21370    0.24130    3.69050    0.05890   72.54630   72.54630    3.69050    5.58960    5.58960    -999.25    0.31850    0.36930    8.61190  -62.99700  -52.27330    8.61190
 4400.00000    9.21410  371.00240    0.46410    0.03290    2.20050    -999.25    0.27240    0.29790    2.69540    0.03290   71.43720   71.43720    2.69540    4.28010    4.28010    -999.25    0.33280    0.38040    9.79030  -81.42230  -71.70180    9.79030
 4450.00000   10.29650  275.97630    1.54650    0.06300    2.33550    -999.25    0.19060    0.21900    3.62350    0.06300  100.36090  100.36090    3.62350    4.82360    4.82360    -999.25    0.31830    0.36920    5.98090  -52.07100  -43.35370    5.98090
 4500.00000   10.35810  320.65670    1.60810    0.03660    2.27740    -999.25    0.22580    0.25300    3.11860    0.03660   85.31750   85.31750    3.11860    3.82800    3.82800    -999.25    0.32040    0.37080    6.94380  -41.60420  -33.89010    6.94380
 4550.00000    9.46620  396.69940    0.71620    0.00950    2.26410    -999.25    0.23390    0.26080    2.52080    0.00950   79.38870   79.38870    2.52080    4.04940    4.04940    -999.25    0.30210    0.35650    9.93390  -80.16860  -73.45770    9.93390
 4600.00000   12.74140  464.05870    3.99140    0.01890    2.08740    -999.25    0.34100    0.36410    2.15490    0.01890  103.41430  103.41430    2.15490    2.33050    2.33050    -999.25    0.41410    0.44000    2.22000   -9.21830   -3.51060    2.22000
 4650.00000    9.89160  338.43240    1.14160    0.03910    2.34260    -999.25    0.18630    0.21490    2.95480    0.03910  105.62180  105.62180    2.95480    3.79050    3.79050    -999.25    0.30500    0.35880    5.99300  -41.50400  -36.56780    5.99300
 4700.00000   10.16560  451.14140    1.41560    0.08690    2.28630    -999.25    0.22040    0.24780    2.21660    0.08690  109.38670  109.38670    2.21660    2.64720    2.64720    -999.25    0.35380    0.39620    2.20070  -17.44940  -13.07060    2.20070
 4750.00000   11.03410  382.48230    2.28410    0.09070    2.41720    -999.25    0.14110    0.17120    2.61450    0.09070  110.11410  110.11410    2.61450    2.75800    2.75800    -999.25    0.32440    0.37390    2.95860  -11.88120   -8.05990    2.95860
 4800.00000   10.54040  403.71420    1.79040    0.09520    2.44890    -999.25    0.12190    0.15270    2.47700    0.09520  112.54550  112.54550    2.47700    2.63130    2.63130    -999.25    0.30940    0.36230    2.76350   -6.52320   -3.25930    2.76350
 4850.00000   10.10340  401.17140    1.35340    0.09690    2.47460    -999.25    0.10630    0.13770    2.49270    0.09690  105.79670  105.79670    2.49270    2.36960    2.36960    -999.25    0.31290    0.36500    2.81750   -5.73350   -3.02710    2.81750
 4900.00000   10.01010  393.06630    1.26010    0.08240    2.41600    -999.25    0.14180    0.17190    2.54410    0.08240  107.88890  107.88890    2.54410    2.65880    2.65880    -999.25    0.29390    0.35000    3.14140   -6.22940   -4.08050    3.14140
 4950.00000    9.66540  423.44170    0.91540    0.05900    2.42360    -999.25    0.13720    0.16750    2.36160    0.05900  107.09210  107.09210    2.36160    2.47620    2.47620    -999.25    0.31500    0.36660    2.40260   -6.40530   -4.81380    2.40260
 5000.00000    9.14730  379.78050    0.39730    0.05940    2.46490    -999.25    0.11220    0.14340    2.63310    0.05940   99.03640   99.03640    2.63310    2.84510    2.84510    -999.25    0.27540    0.33510    3.15410   -6.23300   -5.19900    3.15410
 5050.00000    9.27220  452.91910    0.52220    0.08970    2.35480    -999.25    0.17890    0.20770    2.20790    0.08970  107.95140  107.95140    2.20790    2.33060    2.33060    -999.25    0.33310    0.38060    2.43380   -2.10330   -1.62670    2.43380
 5100.00000    9.62840  402.81970    0.87840    0.08780    2.58730    -999.25    0.03800    0.07180    2.48250    0.08780   96.54800   96.54800    2.48250    2.69950    2.69950    -999.25    0.29110    0.34780    2.56770   -2.46090   -2.54180    2.56770
 5150.00000   11.02260  505.38230    2.27260    0.09550    2.44710    -999.25    0.12300    0.15380    1.97870    0.09550  110.94840  110.94840    1.97870    2.14380    2.14380    -999.25    0.29660    0.35210    2.32580   -0.54260   -1.18100    2.32580
 5200.00000   11.08510  601.53990    2.33510    0.07850    2.36010    -999.25    0.17570    0.20460    1.66240    0.07850  104.99080  104.99080    1.66240    1.79380    1.79380    -999.25    0.32730    0.37610    1.95300   -0.50430   -1.70010    1.95300
 5250.00000   11.07280  580.92250    2.32280    0.07850    2.45960    -999.25    0.11540    0.14640    1.72140    0.07850  109.56100  109.56100    1.72140    1.82240    1.82240    -999.25    0.32180    0.37190    1.98600   -0.97250   -2.72580    1.98600
 5300.00000   11.56940  708.91820    2.81940    0.05560    2.45200    -999.25    0.12000    0.15090    1.41060    0.05560  107.57540  107.57540    1.41060    1.54510    1.54510    -999.25    0.33730    0.38380    1.70380   -8.25110   -9.05510    1.70380
 5350.00000   11.75810  722.43900    3.00810    0.06090    2.49110    -999.25    0.09630    0.12800    1.38420    0.06090  107.23390  107.23390    1.38420    1.46320    1.46320    -999.25    0.36880    0.40730    1.62620   -6.46490   -6.15220    1.62620
 5400.00000   11.71440  744.10300    2.96440    0.03920    2.48760    -999.25    0.09840    0.13000    1.34390    0.03920  112.16590  112.16590    1.34390    1.48360    1.48360    -999.25    0.37320    0.41050    1.64250   -6.53020   -5.10080    1.64250
 5450.00000   11.37370  837.66130    2.62370    0.09310    2.47840    -999.25    0.10400    0.13540    1.19380    0.09310  104.54450  104.54450    1.19380    1.30560    1.30560    -999.25    0.42830    0.45000    1.40990   -5.84050   -3.29440    1.40990
 5500.00000   10.53950  564.39780    1.78950    0.02720    2.50170    -999.25    0.08990    0.12180    1.77180    0.02720  115.11430  115.11430    1.77180    1.91640    1.91640    -999.25    0.32850    0.37700    2.00580   -5.41080   -2.30510    2.00580
 5550.00000   10.18320  721.86530    1.43320    0.07390    2.26930    -999.25    0.23070    0.25770    1.38530    0.07390  104.72850  104.72850    1.38530    1.51340    1.51340    -999.25    0.34580    0.39020    1.63100   -4.58610   -1.75620    1.63100
 5600.00000   10.63180 1085.06950    1.88180    0.10000    2.25910    -999.25    0.23690    0.26370    0.92160    0.10000  106.00370  106.00370    0.92160    0.99490    0.99490    -999.25    0.42820    0.44990    1.05020   -0.94320    1.61080    1.05020
