~Version ---------------------------------------------------
VERS.      2.0 : CWLS log ASCII Standard -VERSION 2.0
WRAP.      YES : Multiple lines per depth step
CREA. 07/19/18 : LAS Creation Date
~Well ------------------------------------------------------
STRT.FT                           3800.0 : START DEPTH
STOP.FT                          13600.0 : STOP DEPTH
STEP.FT                         50.00000 : STEP LENGTH
NULL.                            -999.25 : NULL VALUE
COMP. TEXSTAR NORTH AMERICA INCORPORATED : COMPANY
WELL.                  BERRY GAS UNIT #1 : WELL
FLD .                 SW KENEDY PROSPECT : FIELD
LOC .                                    : LOCATION
CNTY.                             KARNES : COUNTY
STAT.                              TEXAS : STATE
CTRY.           UNITED STATES OF AMERICA : COUNTRY
SRVC.                       Schlumberger : SERVICE COMPANY
DATE.                        16-Mar-1988 : LOGDATE
API .                     42255311960000 : API NUMBER
UWI .                     42255311960000 : UNIQUE WELL ID
SLAT.WGS84                 28.7645998907 : SURFACE LATITUDE
SLON.WGS84                -97.8956197689 : SURFACE LONGITUDE
~Curve Information -----------------------------------------
DEPT    .FT    : DEPTH FEET
CALWS   .IN    : CALIPER [DCALDED+BIT]
CONDWS  .MMHO  : DEEP CONDUCTIVITY [1000/DRESWS]
DCALDED .IN    : DIFFERENTIAL CALIPER FROM LDT-CNT LOG [DSH. TO RESISTIVITY]
DCORWS  .G/C3  : DENSITY CORRECTION [DRHOED]
DENWS   .G/C3  : BULK DENSITY [CALC. FROM DPOLSWS]
DPHILSED.V/V   : DENSITY POROSITY (LS) [M=2.71 F=1.00] FROM LDT-CNT LOG [DSH. TO RESISTIVITY]
DPOLSWS .V/V   : DENSITY POROSITY (LS) [M=2.71 F=1.00] [DPHILSED]
DRESWS  .OHMM  : DEEP RESISTIVITY [ILDED]
DRHOED  .G/C3  : DENSITY CORRECTION FROM LDT-CNT LOG [DSH. TO RESISTIVITY]
DTED    .US/F  : DELTA TIME FROM DISFL-SONIC LOG [DSH. TO RES LOG]
DTLED   .US/F  : DELTA TIME LONG SPACING FROM DISFL-SONIC LOG [DSH. TO RESISTIVITY]
DTWS    .US/F  : DELTA TIME COMPRESSIONAL [DTED]
GRDED   .GAPI  : GAMMA RAY FROM LDT-CNT LOG [DSH. TO RESISTIVITY]
GRRED   .GAPI  : GAMMA RAY FROM DISFL-SONIC LOG [DSH. TO RESISTIVITY]
GRWS    .GAPI  : GAMMA RAY [GRRED]
ILDED   .OHMM  : DEEP INDUCTION RESISTIVITY
ILMED   .OHMM  : MEDIUM INDUCTION RESISTIVITY
MRESWS  .OHMM  : MEDIUM RESISTIVITY [ILMED]
NPHILSED.V/V   : NEUTRON POROSITY LIMESTONE FROM LDT-CNT LOG [DSH. TO RESISTIVITY]
NPOLSWS .V/V   : NEUTRON POROSITY LIMESTONE [NPHILSED]
PEFED   .B/E   : PHOTOELECTRIC FACTOR FROM LDT-CNT LOG [DSH. TO RESISTIVITY]
PEFWS   .B/E   : PHOTOELECTRIC FACTOR [PEFED]
SFLUED  .OHMM  : SPHERICALLY FOCUSED LOG RESISTIVITY
SPHILSED.V/V   : SONIC POROSITY (LS) FROM DISFL-SONIC LOG [DSH. TO RESISTIVITY]
SPOLSWS .V/V   : SONIC POROSITY (LS) [SPHILSED]
SPRED   .MV    : SPONTANEOUS POTENTIAL FROM DISFL-SONIC LOG
SPWS    .MV    : SPONTANEOUS POTENTIAL [BASELINE 0 MV] [SPRED]
SRESWS  .OHMM  : SHALLOW RESISTIVITY [SFLUED]
TENDED  .LBF   : TENSION FROM LDT-CNT LOG [DSH. TO RES LOG]
TENRED  .LBF   : TENSION FROM DISFL-SONIC LOG
~Params ----------------------------------------------------
PD  .                     GL : PERMANENT DATUM
EPD .FT                399.7 : ELEVATION PERMANENT DATUM
LMF .                     KB : LOG MEASURED FROM
DAPD.FT                   13 : FEET ABOVE PERMANENT DATUM
DMF .                     KB : DRILLING MEASURED FROM
EKB .FT                412.7 : KELLY BUSHING
EDF .FT                411.7 : DRILLING FLOOR
EGL .FT                399.7 : GROUND LEVEL
DATE.               03/16/88 : RUN DATE
RUN .                      1 : RUN NUMBER
DD  .FT                13841 : DEPTH DRILLER
DL  .FT                13632 : DEPTH LOGGER
BLI .FT                13626 : BOTTOM LOG INTERVAL
TLI .FT                 3814 : TOP LOG INTERVAL
CS  .IN                8.625 : CASING SIZE
CBD .FT                 3815 : CASING BOTTOM DRILLER
CBL .FT                 3814 : CASING BOTTOM LOGGER
BS  .IN                  8.5 : BIT SIZE
BSD .FT                13841 : BIT SIZE AT DEPTH
DFT .              DURA HOLE : DRILLING FLUID TYPE
DFD .                   11.1 : DRILLING FLUID DENSITY
DFV .                     46 : DRILLING FLUID VISCOSITY
DFPH.                   10.5 : DRILLING FLUID PH
DFL .                      6 : DRILLING FLUID LOSS
MSS .               MUD TNAK : MUD SAMPLE SOURCE
RMS .OHMM              0.601 : RESISTIVITY MUD SAMPLE
MST .DEGF                110 : MUD SAMPLE TEMPERATURE
RMF .OHMM               0.81 : RESISTIVITY MUD FILTRATE SAMPLE
MFST.DEGF                 89 : MUD FILTRATE SAMPLE TEMPERATURE
RMC .OHMM                0.9 : RESISTIVITY MUD CAKE
MCST.DEGF                110 : MUD CAKE SAMPLE TEMPERATURE
MFSS.                   MEAS : MUD FILTRATE SAMPLE SOURCE
MCSS.                   CALC : MUD CAKE SAMPLE SOURCE
RMB .OHMM              0.236 : RESISTIVITY MUD AT BHT
TCS .HRS                2100 : TIME CIRCULATED STOPPED
TLAB.HRS                 612 : TIME LOGGER AT BOTTOM
LUN .                   8268 : LOGGING UNIT NUMBER
LUL .             PLEASANTON : LOGGING UNIT LOCATION
ENGI.                  WILKE : RECORDING ENGINEER
WITN.  REQUAETH  NOVAK GIBBS : WITNESSED BY
CLNT.                A2DTECH : CLIENT CODE
ORIG.               5" PRINT : ORIGIN OF DATA
UWI .         42255311960000 : UNIQUE WELL ID
DICO. A2D Technologies, Inc. : DIGITIZING COMPANY
~Other -----------------------------------------------------
GRDED GAPS 12180-12250' DUE TO STICKING TOOL.
LDT-CNT PULLED TIGHT AT SEVERAL DEPTHS FROM AROUND 13000' UP. THIS MAY AFFECT LOG QUALITY.
~ASCII -----------------------------------------------------
# ...
 9800.00000    -999.25  444.87940    -999.25    -999.25    -999.25    -999.25    -999.25    2.24780    -999.25   79.28410    -999.25   79.28410    -999.25   91.59790   91.59790    2.24780    2.18700    2.18700    -999.25    -999.25    -999.25    -999.25    2.65960    0.22420    0.22420   -1.80680   -5.96610    2.65960    -999.25 3341.31840
 9850.00000    -999.25  689.22740    -999.25    -999.25    -999.25    -999.25    -999.25    1.45090    -999.25   90.03870    -999.25   90.03870    -999.25   85.64280   85.64280    1.45090    1.41380    1.41380    -999.25    -999.25    -999.25    -999.25    1.66360    0.26950    0.26950   -4.46130   -8.62060    1.66360    -999.25 3413.04370
 9900.00000    -999.25  673.44600    -999.25    -999.25    -999.25    -999.25    -999.25    1.48490    -999.25   91.05010    -999.25   91.05010    -999.25   86.72720   86.72720    1.48490    1.44700    1.44700    -999.25    -999.25    -999.25    -999.25    1.68760    0.27240    0.27240   -3.43160   -7.63610    1.68760    -999.25 3354.85960
 9950.00000    -999.25  585.06900    -999.25    -999.25    -999.25    -999.25    -999.25    1.70920    -999.25   86.73180    -999.25   86.73180    -999.25   92.31580   92.31580    1.70920    1.66560    1.66560    -999.25    -999.25    -999.25    -999.25    1.93390    0.25720    0.25720   -0.43370   -4.83450    1.93390    -999.25 3442.69290
 10000.00000    -999.25  504.89750    -999.25    -999.25    -999.25    -999.25    -999.25    1.98060    -999.25   80.57340    -999.25   80.57340    -999.25   87.98620   87.98620    1.98060    1.92970    1.92970    -999.25    -999.25    -999.25    -999.25    2.28980    0.22580    0.22580   -1.24810   -5.84520    2.28980    -999.25 3427.01170
 10050.00000    -999.25  667.73500    -999.25    -999.25    -999.25    -999.25    -999.25    1.49760    -999.25   92.17160    -999.25   92.17160    -999.25   82.19070   82.19070    1.49760    1.45930    1.45930    -999.25    -999.25    -999.25    -999.25    1.65740    0.27820    0.27820   -1.39850   -6.19200    1.65740    -999.25 3403.35380
 10100.00000    -999.25  489.62010    -999.25    -999.25    -999.25    -999.25    -999.25    2.04240    -999.25   83.90560    -999.25   83.90560    -999.25   90.70060   90.70060    2.04240    1.99040    1.99040    -999.25    -999.25    -999.25    -999.25    2.26270    0.24460    0.24460    2.11120   -2.87860    2.26270    -999.25 3460.19530
 10150.00000    -999.25  454.83490    -999.25    -999.25    -999.25    -999.25    -999.25    2.19860    -999.25   84.57530    -999.25   84.57530    -999.25   95.31060   95.31060    2.19860    2.14270    2.14270    -999.25    -999.25    -999.25    -999.25    2.53680    0.24530    0.24530   -0.96370   -6.14990    2.53680    -999.25 3401.45750
 10200.00000    -999.25  530.02600    -999.25    -999.25    -999.25    -999.25    -999.25    1.88670    -999.25   88.30870    -999.25   88.30870    -999.25   76.63240   76.63240    1.88670    1.93980    1.93980    -999.25    -999.25    -999.25    -999.25    2.20160    0.27040    0.27040    2.25950   -3.12300    2.20160    -999.25 3887.78960
 10250.00000    -999.25  572.11510    -999.25    -999.25    -999.25    -999.25    -999.25    1.74790    -999.25   90.06930    -999.25   90.06930    -999.25   93.38130   93.38130    1.74790    1.68610    1.68610    -999.25    -999.25    -999.25    -999.25    1.99940    0.26940    0.26940   -0.18940   -5.76820    1.99940    -999.25 3489.22850
 10300.00000    -999.25  558.87780    -999.25    -999.25    -999.25    -999.25    -999.25    1.78930    -999.25   88.14720    -999.25   88.14720    -999.25   81.95840   81.95840    1.78930    1.74050    1.74050    -999.25    -999.25    -999.25    -999.25    2.15140    0.26000    0.26000   -0.05300   -5.82820    2.15140    -999.25 3533.12940
 10350.00000    -999.25  397.23520    -999.25    -999.25    -999.25    -999.25    -999.25    2.51740    -999.25   99.60530    -999.25   99.60530    -999.25   81.43510   81.43510    2.51740    1.95690    1.95690    -999.25    -999.25    -999.25    -999.25    2.15400    0.30190    0.30190    0.13810   -5.83340    2.15400    -999.25 3594.92800
 10400.00000    -999.25  547.70510    -999.25    -999.25    -999.25    -999.25    -999.25    1.82580    -999.25   90.04920    -999.25   90.04920    -999.25   84.37600   84.37600    1.82580    1.77800    1.77800    -999.25    -999.25    -999.25    -999.25    2.17020    0.26800    0.26800   -0.18010   -6.34800    2.17020    -999.25 3424.31690
 10450.00000    -999.25  487.37690    -999.25    -999.25    -999.25    -999.25    -999.25    2.05180    -999.25   85.61990    -999.25   85.61990    -999.25   84.51560   84.51560    2.05180    1.99950    1.99950    -999.25    -999.25    -999.25    -999.25    2.34010    0.25010    0.25010    0.24870   -6.11550    2.34010    -999.25 3561.07540
 10500.00000    -999.25  413.56490    -999.25    -999.25    -999.25    -999.25    -999.25    2.41800    -999.25   78.19710    -999.25   78.19710    -999.25   85.57850   85.57850    2.41800    2.35510    2.35510    -999.25    -999.25    -999.25    -999.25    2.62540    0.22110    0.22110    0.32180   -6.23870    2.62540    -999.25 3527.44170
 10550.00000    -999.25  388.19880    -999.25    -999.25    -999.25    -999.25    -999.25    2.57600    -999.25   78.25300    -999.25   78.25300    -999.25   86.24350   86.24350    2.57600    2.51100    2.51100    -999.25    -999.25    -999.25    -999.25    2.91680    0.21670    0.21670   -0.21360   -6.97050    2.91680    -999.25 3641.23270
 10600.00000    -999.25  497.28980    -999.25    -999.25    -999.25    -999.25    -999.25    2.01090    -999.25   88.95600    -999.25   88.95600    -999.25   92.31960   92.31960    2.01090    1.96080    1.96080    -999.25    -999.25    -999.25    -999.25    2.15280    0.27000    0.27000   -2.76010   -9.71330    2.15280    -999.25 3696.21290
 10650.00000    -999.25  439.46390    -999.25    -999.25    -999.25    -999.25    -999.25    2.27550    -999.25   84.86020   86.50510   84.86020    -999.25   82.79590   82.79590    2.27550    2.15130    2.15130    -999.25    -999.25    -999.25    -999.25    2.39540    0.24740    0.24740   -0.71330   -7.86290    2.39540    -999.25 3605.89600
 10700.00000    -999.25  532.48140    -999.25    -999.25    -999.25    -999.25    -999.25    1.87800    -999.25   87.69360   88.64860   87.69360    -999.25   81.81290   81.81290    1.87800    1.74270    1.74270    -999.25    -999.25    -999.25    -999.25    1.82360    0.26030    0.26030    0.48510   -6.86080    1.82360    -999.25 3695.20410
 10750.00000    -999.25  359.29860    -999.25    -999.25    -999.25    -999.25    -999.25    2.78320    -999.25   79.01050   79.52900   79.01050    -999.25   71.31740   71.31740    2.78320    2.71220    2.71220    -999.25    -999.25    -999.25    -999.25    3.06200    0.22270    0.22270    3.26820   -4.27400    3.06200    -999.25 3658.74490
 10800.00000    -999.25  316.35560    -999.25    -999.25    -999.25    -999.25    -999.25    3.16100    -999.25   78.36270   78.79910   78.36270    -999.25   64.37860   64.37860    3.16100    3.07790    3.07790    -999.25    -999.25    -999.25    -999.25    3.55610    0.21630    0.21630    3.93970   -3.79890    3.55610    -999.25 3671.19020
 10850.00000    -999.25  357.33430    -999.25    -999.25    -999.25    -999.25    -999.25    2.79850    -999.25   80.53270   81.94210   80.53270    -999.25   69.39740   69.39740    2.79850    2.72710    2.72710    -999.25    -999.25    -999.25    -999.25    2.81330    0.22840    0.22840    4.84150   -3.09340    2.81330    -999.25 3702.48070
 10900.00000    -999.25  450.63310    -999.25    -999.25    -999.25    -999.25    -999.25    2.21910    -999.25   90.29040   89.10750   90.29040    -999.25   74.15500   74.15500    2.21910    2.15990    2.15990    -999.25    -999.25    -999.25    -999.25    2.57170    0.27530    0.27530    2.40100   -5.73030    2.57170    -999.25 3692.88210
 10950.00000    -999.25  358.28170    -999.25    -999.25    -999.25    -999.25    -999.25    2.79110    -999.25   80.35960   80.69150   80.35960    -999.25   85.10460   85.10460    2.79110    2.72000    2.72000    -999.25    -999.25    -999.25    -999.25    3.50510    0.22880    0.22880    3.83530   -4.49230    3.50510    -999.25 3683.10130
