~Version ---------------------------------------------------
VERS. 2.0 : CWLS log ASCII Standard -VERSION 2.0
WRAP. YES : Multiple lines per depth step
~Well ------------------------------------------------------
STRT.FT                   4050.0 : START DEPTH
STOP.FT                   9250.0 : STOP DEPTH
STEP.FT                 50.00000 : STEP LENGTH
NULL.                    -999.25 : NULL VALUE
COMP. CHAMPLIN PETROLEUM COMPANY : COMPANY
WELL.         JOE F. CHARANZA #1 : WELL
FLD .                      BIG A : FIELD
LOC .                            : LOCATION
CNTY.                   BURLESON : COUNTY
STAT.                      TEXAS : STATE
CTRY.   UNITED STATES OF AMERICA : COUNTRY
SRVC.               Schlumberger : SERVICE COMPANY
DATE.                26-Nov-1980 : LOGDATE
API .             42051310600000 : API NUMBER
UWI .             42051310600000 : UNIQUE WELL ID
SLAT.WGS84         30.3900288698 : SURFACE LATITUDE
SLON.WGS84        -96.6349604611 : SURFACE LONGITUDE
~Curve Information -----------------------------------------
DEPT    .FT    : 
CALWS   .IN    : CALIPER [DCALED+8.5]
CONDWS  .MMHO  : CONDUCTIVITY [1000/DRESWS]
DCALED  .IN    : DIFFERENTIAL CALIPER FROM DIL-SFL-CNFD LOG
DCORWS  .G/C3  : DENSITY CORRECTION [DRHOED]
DENWS   .G/C3  : FORMATION BULK DENSITY [CALCULATED FROM DPOWS, M=2.71, F=1.0]
DPHILSED.V/V   : DENSITY POROSITY LIMESTONE [M=2.71, F=1.0] FROM DIL-SFL-CNFD LOG [ADJ. TO GRRED]
DPHISSED.V/V   : DENSITY POROSITY SANDSTONE [M=2.65, F=1.0] FROM DIL-SFL-CNFD LOG [ADJ. TO GRRED]
DPOWS   .V/V   : DENSITY POROSITY LIMESTONE [DPHISSED CONVERTED TO LIMESTONE MATRIX(M=2.71, F=1.0) & SPL. TO DPHILSED @7500']
DRESWS  .OHMM  : DEEP RESISTIVITY [ILDED]
DRHOED  .G/C3  : BULK DENSITY CORRECTION FROM DIL-SFL-CNFD LOG [ADJ. TO GRRED]
GRRED   .GAPI  : GAMMA RAY FROM DIL-SFL-CNFD LOG
GRWS    .GAPI  : GAMMA RAY [GRRED] CSG < 4028'
ILDED   .OHMM  : INDUCTION DEEP RESISTIVITY FROM DIL-SFL-CNFD LOG
ILMED   .OHMM  : INDUCTION MEDIUM RESISTIVITY FROM DIL-SFL-CNFD LOG
MRESWS  .OHMM  : MEDIUM RESISTIVITY [ILMED]
NPHILSED.V/V   : NEUTRON POROSITY LIMESTONE FROM DIL-SFL-CNFD LOG [ADJ. TO GRRED]
NPHISSED.V/V   : NEUTRON POROSITY SANDSTONE FROM DIL-SFL-CNFD LOG [ADJ. TO GRRED]
NPOWS   .V/V   : NEUTRON POROSITY LIMESTONE [NPHISSED MATRIX CONVERSION FOR LIMESTONE & SPL. TO NPHILSED @7500'] CSG < 4028'
SFLUED  .OHMM  : SHALLOW FOCUSED RESISTIVITY (UNAVERAGED) FROM DIL-SFL-CNFD LOG
SPRED   .MV    : SPONTANEOUS POTENTIAL FROM DIL-SFL-CNFD LOG
SPWS    .MV    : SPONTANEOUS POTENTIAL [BASELINE 0 MV, SPRED]
SRESWS  .OHMM  : SHALLOW RESISTIVITY [SFLUED]
~Params ----------------------------------------------------
PD  .                     GL : PERMANENT DATUM
EPD .FT                  323 : ELEVATION PERMANENT DATUM
LMF .                     KB : LOG MEASURED FROM
DAPD.FT                   13 : FEET ABOVE PERMANENT DATUM
DMF .                     KB : DRILLING MEASURED FROM
EKB .FT                  336 : KELLY BUSHING
EDF .FT                  335 : DRILLING FLOOR
EGL .FT                  323 : GROUND LEVEL
DATE.               11/26/80 : RUN DATE
RUN .                      1 : RUN NUMBER
DD  .FT                 9321 : DEPTH DRILLER
DL  .FT                 9294 : DEPTH LOGGER
BLI .FT                 9288 : BOTTOM LOG INTERVAL
TLI .FT                 4028 : TOP LOG INTERVAL
CS  .IN                9.625 : CASING SIZE
CBD .FT                 4035 : CASING BOTTOM DRILLER
CBL .FT                 4028 : CASING BOTTOM LOGGER
BS  .IN                 8.75 : BIT SIZE
BSD .FT                 9321 : BIT SIZE AT DEPTH
DFT .                 BEN EX : DRILLING FLUID TYPE
DFD .                    9.4 : DRILLING FLUID DENSITY
DFV .                     43 : DRILLING FLUID VISCOSITY
DFPH.                      9 : DRILLING FLUID PH
DFL .                    7.2 : DRILLING FLUID LOSS
MSS .                   TANK : MUD SAMPLE SOURCE
RMS .OHMM               2.79 : RESISTIVITY MUD SAMPLE
MST .DEGF                 75 : MUD SAMPLE TEMPERATURE
RMF .OHMM               2.08 : RESISTIVITY MUD FILTRATE SAMPLE
MFST.DEGF                 75 : MUD FILTRATE SAMPLE TEMPERATURE
RMC .OHMM               4.18 : RESISTIVITY MUD CAKE
MCST.DEGF                 75 : MUD CAKE SAMPLE TEMPERATURE
MFSS.                      M : MUD FILTRATE SAMPLE SOURCE
MCSS.                      C : MUD CAKE SAMPLE SOURCE
RMB .OHMM               1.07 : RESISTIVITY MUD AT BHT
TCS .HRS                 600 : TIME CIRCULATED STOPPED
TLAB.HRS                1400 : TIME LOGGER AT BOTTOM
LUN .                   8096 : LOGGING UNIT NUMBER
LUL .                BRENHAM : LOGGING UNIT LOCATION
ENGI.              ZIMMERMAN : RECORDING ENGINEER
WITN.                  DRAKE : WITNESSED BY
CLNT.                A2DTECH : CLIENT CODE
ORIG.          1" 2.5" PRINT : ORIGIN OF DATA
UWI .         42051310600000 : UNIQUE WELL ID
DICO. A2D Technologies, Inc. : DIGITIZING COMPANY
~Other -----------------------------------------------------
~ASCII -----------------------------------------------------
# ...
 5650.00000   10.97950  602.95450    2.22950    0.09350    2.43090    -999.25    0.13280    0.16320    1.65850    0.09350  111.00200  111.00200    1.65850    1.68070    1.68070    -999.25    0.32250    0.27860    1.90590   -1.30220   -3.30620    1.90590
 5700.00000   11.13370  577.46720    2.38370    0.08430    2.41490    -999.25    0.14250    0.17260    1.73170    0.08430  111.07190  111.07190    1.73170    1.75440    1.75440    -999.25    0.33470    0.29090    1.99680   -0.15410   -2.13880    1.99680
 5750.00000   10.68120  543.74420    1.93120    0.08350    2.44740    -999.25    0.12280    0.15360    1.83910    0.08350  109.92420  109.92420    1.83910    1.86340    1.86340    -999.25    0.32540    0.28150    2.03570   -7.61740   -9.58280    2.03570
 5800.00000   11.39170  643.37640    2.64170    0.09000    2.42410    -999.25    0.13690    0.16720    1.55430    0.09000  113.31390  113.31390    1.55430    1.57470    1.57470    -999.25    0.32150    0.27760    1.83810   -5.12830   -7.07450    1.83810
 5850.00000   10.47970  731.85010    1.72970    0.06050    2.35200    -999.25    0.18060    0.20940    1.36640    0.06050  106.95910  106.95910    1.36640    1.38430    1.38430    -999.25    0.37720    0.33390    1.57120   -1.84360   -3.77050    1.57120
 5900.00000    9.74140  545.16710    0.99140    0.08820    2.44410    -999.25    0.12480    0.15550    1.83430    0.08820  106.20790  106.20790    1.83430    1.85870    1.85870    -999.25    0.33260    0.28880    2.08110   -2.28040   -4.18810    2.08110
 5950.00000   10.07600  713.31760    1.32600    0.06700    2.41850    -999.25    0.14030    0.17050    1.40190    0.06700  100.01970  100.01970    1.40190    1.42050    1.42050    -999.25    0.34770    0.30400    1.48650   -1.62600   -3.51440    1.48650
 6000.00000   10.92870 1227.74710    2.17870    0.01460    2.32810    -999.25    0.19510    0.22330    0.81450    0.01460  113.68650  113.68650    0.81450    0.82520    0.82520    -999.25    0.40390    0.36110    0.99540    0.46180   -1.40730    0.99540
 6050.00000   10.06120  582.13990    1.31120    0.09080    2.50710    -999.25    0.08660    0.11860    1.71780    0.09080   92.33670   92.33670    1.71780    1.74040    1.74040    -999.25    0.30330    0.25930    1.89050   -0.84160   -2.69150    1.89050
 6100.00000    9.95390  579.64290    1.20390    0.05760    2.47790    -999.25    0.10430    0.13570    1.72520    0.05760   94.07800   94.07800    1.72520    1.74810    1.74810    -999.25    0.29870    0.25470    1.90410   -3.20110   -5.03170    1.90410
 6150.00000   11.21820  605.32690    2.46820    0.02380    2.47340    -999.25    0.10700    0.13830    1.65200    0.02380  100.18190  100.18190    1.65200    1.67520    1.67520    -999.25    0.28940    0.24540    1.79980   -0.75770   -2.56910    1.79980
 6200.00000   11.00160  774.05370    2.25160    0.09680    2.42300    -999.25    0.13760    0.16790    1.29190    0.09680  103.55410  103.55410    1.29190    1.30900    1.30900    -999.25    0.33110    0.28730    1.43150   -2.72680   -4.51890    1.43150
 6250.00000   12.00220  781.92200    3.25220    0.05010    2.42250    -999.25    0.13790    0.16810    1.27890    0.05010  107.16330  107.16330    1.27890    1.29620    1.29620    -999.25    0.38500    0.34180    1.48630   -2.81590   -4.58870    1.48630
 6300.00000   10.66780  628.14070    1.91780    0.07620    2.44310    -999.25    0.12540    0.15610    1.59200    0.07620  103.78170  103.78170    1.59200    1.61590    1.61590    -999.25    0.30100    0.25700    1.73940   -0.20780   -1.96140    1.73940
 6350.00000    9.62790  701.80360    0.87790    0.06600    2.45380    -999.25    0.11890    0.14980    1.42490    0.06600   98.09090   98.09090    1.42490    1.44350    1.44350    -999.25    0.29920    0.25520    1.61240   -2.96310   -4.69740    1.61240
 6400.00000   10.77300  929.19530    2.02300    0.09930    2.41570    -999.25    0.14200    0.17210    1.07620    0.09930  104.24580  104.24580    1.07620    1.09060    1.09060    -999.25    0.34990    0.30630    1.14820   -2.29550   -4.01050    1.14820
 6450.00000   10.47670  728.86300    1.72670    0.03880    2.41290    -999.25    0.14370    0.17370    1.37200    0.03880   98.81950   98.81950    1.37200    1.39080    1.39080    -999.25    0.32160    0.27770    1.46960   -1.35830   -3.05410    1.46960
 6500.00000    9.92910  788.02210    1.17910    0.04340    2.42490    -999.25    0.13640    0.16670    1.26900    0.04340  104.58280  104.58280    1.26900    1.28570    1.28570    -999.25    0.34950    0.30590    1.50010    1.17030   -0.50620    1.50010
 6550.00000    9.05650  283.84900    0.30650   -0.00330    2.53700    -999.25    0.06850    0.10120    3.52300   -0.00330   79.00250   79.00250    3.52300    3.56950    3.56950    -999.25    0.20560    0.16210    3.57350    1.21620   -0.44110    3.57350
 6600.00000    8.76210  739.75440    0.01210    0.08070    2.40760    -999.25    0.14690    0.17680    1.35180    0.08070  109.37910  109.37910    1.35180    1.36960    1.36960    -999.25    0.31910    0.27520    1.57380    2.83250    1.19450    1.57380
 6650.00000    9.71070  523.09460    0.96070    0.07360    2.44340    -999.25    0.12520    0.15590    1.91170    0.07360  100.83940  100.83940    1.91170    1.93690    1.93690    -999.25    0.26810    0.22410    1.87100   -2.69630   -4.31500    1.87100
 6700.00000    9.02630  450.08550    0.27630    0.01690    2.47540    -999.25    0.10580    0.13720    2.22180    0.01690   86.81590   86.81590    2.22180    2.25110    2.25110    -999.25    0.27040    0.22640    2.47530   -7.94920   -9.54870    2.47530
 6750.00000    9.20430  575.53960    0.45430    0.08450    2.42310    -999.25    0.13750    0.16780    1.73750    0.08450   95.15700   95.15700    1.73750    1.76070    1.76070    -999.25    0.31150    0.26760    2.00250   -3.48040   -5.06060    2.00250
 6800.00000    8.89210  620.38590    0.14210    0.05520    2.37710    -999.25    0.16540    0.19470    1.61190    0.05520   99.98640   99.98640    1.61190    1.63330    1.63330    -999.25    0.32930    0.28550    1.75330   -1.87640   -3.43740    1.75330
 6850.00000    8.89160  545.13740    0.14160    0.07310    2.37430    -999.25    0.16710    0.19630    1.83440    0.07310  112.80370  112.80370    1.83440    1.86260    1.86260    -999.25    0.31610    0.27220    1.91630   -2.60980   -4.15150    1.91630
 6900.00000    9.77140  577.66740    1.02140    0.08710    2.47260    -999.25    0.10750    0.13880    1.73110    0.08710  104.41900  104.41900    1.73110    1.75410    1.75410    -999.25    0.30040    0.25640    1.89770   -4.64820   -6.17060    1.89770
 6950.00000   10.52680  601.03380    1.77680    0.05150    2.46800    -999.25    0.11030    0.14150    1.66380    0.05150  115.12040  115.12040    1.66380    1.68580    1.68580    -999.25    0.30320    0.25920    1.78870   -0.58370   -2.08690    1.78870
 7000.00000   11.60670  612.85780    2.85670    0.10260    2.45230    -999.25    0.11980    0.15070    1.63170    0.10260  107.49010  107.49010    1.63170    1.65320    1.65320    -999.25    0.29770    0.25370    1.86370   -4.80510   -6.28900    1.86370
 7050.00000   11.31470  735.83520    2.56470    0.07210    2.42390    -999.25    0.13700    0.16730    1.35900    0.07210  102.73790  102.73790    1.35900    1.37680    1.37680    -999.25    0.34090    0.29720    1.50250   -3.78900   -5.25370    1.50250
 7100.00000    9.27090  586.82000    0.52090    0.04780    2.36670    -999.25    0.17170    0.20080    1.70410    0.04780  110.41330  110.41330    1.70410    1.72640    1.72640    -999.25    0.33990    0.29620    1.88330   -0.57830   -2.02370    1.88330
 7150.00000    9.61210  449.98430    0.86210    0.09950    2.55120    -999.25    0.05990    0.09290    2.22230    0.09950  110.98380  110.98380    2.22230    2.25180    2.25180    -999.25    0.24960    0.20570    2.57890   -2.03210   -3.45820    2.57890
 7200.00000   10.26130  506.91950    1.51130    0.02620    2.46210    -999.25    0.11390    0.14500    1.97270    0.02620  103.17220  103.17220    1.97270    1.99850    1.99850    -999.25    0.26900    0.22500    2.24660   -1.33270   -2.73960    2.24660
