~Version ---------------------------------------------------
VERS.      2.0 : CWLS log ASCII Standard -VERSION 2.0
WRAP.      YES : Multiple lines per depth step
CREA. 01/19/13 : LAS Creation Date
~Well ------------------------------------------------------
STRT.FT                 1500.0 : START DEPTH
STOP.FT                10050.0 : STOP DEPTH
STEP.FT               50.00000 : STEP LENGTH
NULL.                  -999.25 : NULL VALUE
COMP.     MARATHON OIL COMPANY : COMPANY
WELL.              HOLMES S #1 : WELL
FLD .               BEAR GRASS : FIELD
LOC .                          : LOCATION
CNTY.                     LEON : COUNTY
STAT.                    TEXAS : STATE
CTRY. UNITED STATES OF AMERICA : COUNTRY
SRVC.             Schlumberger : SERVICE COMPANY
DATE.              05-Jul-1991 : LOGDATE
API .           42289311110000 : API NUMBER
UWI .           42289311110000 : UNIQUE WELL ID
SLAT.WGS84       31.3704869151 : SURFACE LATITUDE
SLON.WGS84      -96.2382553647 : SURFACE LONGITUDE
~Curve Information -----------------------------------------
DEPT    .FT    : DEPTH FEET
CALDED  .IN    : CALIPER FROM CN-LDT LOG
CALWS   .IN    : CALIPER [CALDED]
CONDWS  .MMHO  : CONDUCTIVITY [1000/DRESWS]
DCORWS  .G/C3  : DENSITY CORRECTION [DRHOED]
DENWS   .G/C3  : FORMATION BULK DENSITY [CALCULATED FROM DPOWS M=2.71, F=1.0]
DPHILSED.V/V   : DENSITY POROSITY LIMESTONE [M=2.71, F=1.0] FROM CN-LDT LOG
DPOWS   .V/V   : DENSITY POROSITY LIMESTONE [DPHILSED]
DRESWS  .OHMM  : DEEP RESISTIVITY [ILDED]
DRHOED  .G/C3  : BULK DENSITY CORRECTION FROM CN-LDT LOG
GRRED   .GAPI  : GAMMA RAY FROM DIL-SFL LOG
GRWS    .GAPI  : GAMMA RAY [GRRED]
ILDED   .OHMM  : DEEP INDUCTION FROM DIL-SFL LOG
ILMED   .OHMM  : MEDIUM INDUCTION FROM DIL-SFL LOG
MRESWS  .OHMM  : MEDIUM RESISTIVITY [ILMED]
NPHILSED.V/V   : NEUTRON POROSITY LIMESTONE FROM CN-LDT LOG
NPOWS   .V/V   : NEUTRON POROSITY LIMESTONE [NPHILSED]
RHOBED  .G/C3  : BULK DENSITY FROM CN-LDT LOG
SFLUED  .OHMM  : SHALLOW FOCUSED RESISTIVITY (UNAVERAGED) FROM DIL-SFL LOG
SPRED   .MV    : SPONTANEOUS POTENTIAL FROM DIL-SFL LOG
SPWS    .MV    : SPONTANEOUS POTENTIAL [BASELINE 0 MV, SPRED]
SRESWS  .OHMM  : SHALLOW RESISTIVITY [SFLUED]
TENRED  .LBF   : TENSION FROM DIL-SFL LOG
~Params ----------------------------------------------------
PD  .                     GL : PERMANENT DATUM
EPD .FT                  515 : ELEVATION PERMANENT DATUM
LMF .                     KB : LOG MEASURED FROM
DAPD.FT                   23 : FEET ABOVE PERMANENT DATUM
DMF .                     KB : DRILLING MEASURED FROM
EKB .FT                  538 : KELLY BUSHING
EDF .FT                  537 : DRILLING FLOOR
EGL .FT                  515 : GROUND LEVEL
DATE.               06/07/91 : RUN DATE
RUN .                      1 : RUN NUMBER
DD  .FT                10100 : DEPTH DRILLER
DL  .FT                10084 : DEPTH LOGGER
BLI .FT                10080 : BOTTOM LOG INTERVAL
TLI .FT                 4215 : TOP LOG INTERVAL
CS  .IN                8.625 : CASING SIZE
CBD .FT                 1528 : CASING BOTTOM DRILLER
CBL .FT                 1514 : CASING BOTTOM LOGGER
BS  .IN                7.875 : BIT SIZE
BSD .FT                10100 : BIT SIZE AT DEPTH
DFT .                    LIG : DRILLING FLUID TYPE
DFD .                   10.2 : DRILLING FLUID DENSITY
DFV .                     45 : DRILLING FLUID VISCOSITY
DFPH.                    9.8 : DRILLING FLUID PH
DFL .                     10 : DRILLING FLUID LOSS
MSS .                   TANK : MUD SAMPLE SOURCE
RMS .OHMM               3.28 : RESISTIVITY MUD SAMPLE
MST .DEGF                 75 : MUD SAMPLE TEMPERATURE
RMF .OHMM               3.02 : RESISTIVITY MUD FILTRATE SAMPLE
MFST.DEGF                 75 : MUD FILTRATE SAMPLE TEMPERATURE
RMC .OHMM               2.59 : RESISTIVITY MUD CAKE
MCST.DEGF                 75 : MUD CAKE SAMPLE TEMPERATURE
MFSS.                  PRESS : MUD FILTRATE SAMPLE SOURCE
MCSS.                   MEAS : MUD CAKE SAMPLE SOURCE
RMB .OHMM              1.159 : RESISTIVITY MUD AT BHT
TCS .HRS                 400 : TIME CIRCULATED STOPPED
TLAB.HRS                1100 : TIME LOGGER AT BOTTOM
LUN .                   8605 : LOGGING UNIT NUMBER
LUL .                  TYLER : LOGGING UNIT LOCATION
ENGI.                 HIBURN : RECORDING ENGINEER
CLNT.                A2DTECH : CLIENT CODE
ORIG.          1" 2.5" PRINT : ORIGIN OF DATA
UWI .         42289311110000 : UNIQUE WELL ID
DICO. A2D Technologies, Inc. : DIGITIZING COMPANY
~Other -----------------------------------------------------
~ASCII -----------------------------------------------------
 1500.00000    -999.25    -999.25    -999.25    -999.25    -999.25    -999.25    -999.25    -999.25    -999.25   54.40250   54.40250    -999.25    -999.25    -999.25    -999.25    -999.25    -999.25    -999.25    -999.25    -999.25    -999.25    -999.25
 1550.00000   10.53710   10.53710  377.82900   -0.01920    1.59820    0.65020    0.65020    2.64670   -0.01920   69.93800   69.93800    2.64670    2.41930    2.41930    0.49150    0.49150    -999.25    2.54350   -9.58370   -4.90140    2.54350 1418.85460
 1600.00000    9.75530    9.75530  437.82840    0.00300    2.12180    0.34400    0.34400    2.28400    0.00300   84.85110   84.85110    2.28400    1.99400    1.99400    0.36150    0.36150    -999.25    2.28630  -16.80350  -12.12120    2.28630 1476.53930
 1650.00000   10.47540   10.47540  251.68630    0.00860    2.10830    0.35190    0.35190    3.97320    0.00860   74.75360   74.75360    3.97320    4.02890    4.02890    0.33070    0.33070    -999.25    4.31780  -23.99100  -19.30870    4.31780 1448.45260
 1700.00000   11.80670   11.80670  365.45700    0.00580    2.13080    0.33870    0.33870    2.73630    0.00580   70.56790   70.56790    2.73630    2.67120    2.67120    0.32410    0.32410    -999.25    3.23760  -18.92680  -14.24450    3.23760 1439.69810
 1750.00000   15.13840   15.13840  499.85000   -0.01890    1.73820    0.56830    0.56830    2.00060   -0.01890   81.47960   81.47960    2.00060    1.88910    1.88910    0.46260    0.46260    -999.25    2.10080   -9.20130   -4.51900    2.10080 1498.28590
 1800.00000   20.02430   20.02430  578.26870   -0.02880    1.41740    0.75590    0.75590    1.72930   -0.02880   69.37280   69.37280    1.72930    1.60970    1.60970    0.49440    0.49440    -999.25    1.86230   -7.33490   -2.65260    1.86230 1480.75830
 1850.00000   21.12450   21.12450  450.36930   -0.02330    1.46700    0.72690    0.72690    2.22040   -0.02330   74.27700   74.27700    2.22040    2.02380    2.02380    -999.25    -999.25    -999.25    2.23440   -9.41510   -4.73280    2.23440 1513.92910
 1900.00000    -999.25    -999.25  574.01990    -999.25    -999.25    -999.25    -999.25    1.74210    -999.25   85.68200   85.68200    1.74210    1.58040    1.58040    -999.25    -999.25    -999.25    1.85460   -7.10380   -2.42150    1.85460 1483.62960
 1950.00000    -999.25    -999.25  672.17850    -999.25    -999.25    -999.25    -999.25    1.48770    -999.25   82.86530   82.86530    1.48770    1.35560    1.35560    -999.25    -999.25    -999.25    1.68420   -8.32090   -3.72140    1.68420 1457.79600
 2000.00000    -999.25    -999.25  622.27750    -999.25    -999.25    -999.25    -999.25    1.60700    -999.25   93.79790   93.79790    1.60700    1.51120    1.51120    -999.25    -999.25    -999.25    1.86730   -9.26760   -4.81080    1.86730 1500.04350
 2050.00000    -999.25    -999.25  627.74640    -999.25    -999.25    -999.25    -999.25    1.59300    -999.25   92.96580   92.96580    1.59300    1.51710    1.51710    -999.25    -999.25    -999.25    1.84820   -8.24310   -3.92900    1.84820 1528.86330
 2100.00000    -999.25    -999.25  425.55000    -999.25    -999.25    -999.25    -999.25    2.34990    -999.25   87.18630   87.18630    2.34990    2.22100    2.22100    -999.25    -999.25    -999.25    2.43960   -9.43540   -5.26400    2.43960 1524.45170
 2150.00000    -999.25    -999.25  546.86650    -999.25    -999.25    -999.25    -999.25    1.82860    -999.25   97.63470   97.63470    1.82860    1.78240    1.78240    -999.25    -999.25    -999.25    2.18070   -9.49920   -5.47050    2.18070 1647.25420
 2200.00000    -999.25    -999.25  509.00950    -999.25    -999.25    -999.25    -999.25    1.96460    -999.25   91.14950   91.14950    1.96460    1.86060    1.86060    -999.25    -999.25    -999.25    2.16200   -9.72780   -5.84190    2.16200 1622.15840
 2250.00000    -999.25    -999.25  426.62120    -999.25    -999.25    -999.25    -999.25    2.34400    -999.25   97.77520   97.77520    2.34400    2.23280    2.23280    -999.25    -999.25    -999.25    2.61760  -11.98620   -8.24300    2.61760 1627.64430
 2300.00000    -999.25    -999.25  533.04900    -999.25    -999.25    -999.25    -999.25    1.87600    -999.25   71.89530   71.89530    1.87600    1.67150    1.67150    -999.25    -999.25    -999.25    1.81790   -9.03040   -5.42990    1.81790 1625.63820
 2350.00000    -999.25    -999.25  673.35530    -999.25    -999.25    -999.25    -999.25    1.48510    -999.25   61.63740   61.63740    1.48510    1.41490    1.41490    -999.25    -999.25    -999.25    1.85420   -6.37600   -2.91820    1.85420 1713.19690
 2400.00000    -999.25    -999.25  780.39640    -999.25    -999.25    -999.25    -999.25    1.28140    -999.25   64.32320   64.32320    1.28140    1.30540    1.30540    -999.25    -999.25    -999.25    1.57570   -7.05370   -3.73860    1.57570 1680.40110
 2450.00000    -999.25    -999.25  950.93190    -999.25    -999.25    -999.25    -999.25    1.05160    -999.25   84.26170   84.26170    1.05160    1.02950    1.02950    -999.25    -999.25    -999.25    1.34670   -8.38280   -5.21040    1.34670 1678.01040
 2500.00000    -999.25    -999.25  965.53060    -999.25    -999.25    -999.25    -999.25    1.03570    -999.25   81.48760   81.48760    1.03570    0.99540    0.99540    -999.25    -999.25    -999.25    1.35420   -7.11860   -4.08890    1.35420 1673.43230
 2550.00000    -999.25    -999.25  917.68380    -999.25    -999.25    -999.25    -999.25    1.08970    -999.25   85.56720   85.56720    1.08970    1.05540    1.05540    -999.25    -999.25    -999.25    1.43670   -6.45920   -3.57230    1.43670 1752.77100
 2600.00000    -999.25    -999.25  559.31540    -999.25    -999.25    -999.25    -999.25    1.78790    -999.25   62.34490   62.34490    1.78790    1.72980    1.72980    -999.25    -999.25    -999.25    2.21480  -10.25930   -7.51510    2.21480 1686.56740
 2650.00000    -999.25    -999.25  452.63210    -999.25    -999.25    -999.25    -999.25    2.20930    -999.25   64.44990   64.44990    2.20930    2.07220    2.07220    -999.25    -999.25    -999.25    2.16790  -10.47590   -7.87440    2.16790 1756.80660
 2700.00000    -999.25    -999.25  559.65970    -999.25    -999.25    -999.25    -999.25    1.78680    -999.25   63.55920   63.55920    1.78680    1.65670    1.65670    -999.25    -999.25    -999.25    1.65170  -13.49070  -11.03190    1.65170 1821.82400
 2750.00000    -999.25    -999.25  621.27240    -999.25    -999.25    -999.25    -999.25    1.60960    -999.25   62.57950   62.57950    1.60960    1.62270    1.62270    -999.25    -999.25    -999.25    1.11350   -7.21430   -4.89820    1.11350 1855.90720
 2800.00000    -999.25    -999.25  818.19670    -999.25    -999.25    -999.25    -999.25    1.22220    -999.25   85.79620   85.79620    1.22220    1.20640    1.20640    -999.25    -999.25    -999.25    1.39050   -3.60420   -1.43080    1.39050 1834.71220
 2850.00000    -999.25    -999.25  835.21260    -999.25    -999.25    -999.25    -999.25    1.19730    -999.25   98.98870   98.98870    1.19730    1.15640    1.15640    -999.25    -999.25    -999.25    1.33570   -5.28360   -3.25290    1.33570 1826.79750
 2900.00000    -999.25    -999.25  628.14070    -999.25    -999.25    -999.25    -999.25    1.59200    -999.25   85.99810   85.99810    1.59200    1.52600    1.52600    -999.25    -999.25    -999.25    1.68290   -6.34540   -4.45750    1.68290 1863.29360
 2950.00000    -999.25    -999.25  615.34670    -999.25    -999.25    -999.25    -999.25    1.62510    -999.25   79.15370   79.15370    1.62510    1.53100    1.53100    -999.25    -999.25    -999.25    1.75000   -5.81000   -4.06480    1.75000 1830.84450
 3000.00000    -999.25    -999.25  680.41100    -999.25    -999.25    -999.25    -999.25    1.46970    -999.25   90.31220   90.31220    1.46970    1.37250    1.37250    -999.25    -999.25    -999.25    1.53680   -5.19070   -3.58820    1.53680 1907.18810
 3050.00000    -999.25    -999.25 1083.89330    -999.25    -999.25    -999.25    -999.25    0.92260    -999.25   86.53500   86.53500    0.92260    0.88670    0.88670    -999.25    -999.25    -999.25    1.15090   -4.59790   -3.13810    1.15090 1905.75490
