~Version ---------------------------------------------------
VERS. 2.0 : CWLS log ASCII Standard -VERSION 2.0
WRAP. YES : MULTIPLE LINES PER DEPTH STEP
~Well ------------------------------------------------------
STRT.FT                  3950.0 : START DEPTH
STOP.FT                  8950.0 : STOP DEPTH
STEP.FT                50.00000 : STEP LENGTH
NULL.                   -999.25 : NULL VALUE
COMP. PRODECO EXPLORATION, INC. : COMPANY
WELL.   ROBERT KELLER UNIT 1 #1 : WELL
FLD .                    KURTEN : FIELD
LOC .                           : LOCATION
CNTY.                    BRAZOS : COUNTY
STAT.                     TEXAS : STATE
CTRY.  UNITED STATES OF AMERICA : COUNTRY
SRVC.                     Welex : SERVICE COMPANY
DATE.               04-May-1981 : LOGDATE
API .            42041305850000 : API NUMBER
UWI .            42041305850000 : UNIQUE WELL ID
SLAT.WGS84            30.767341 : SURFACE LATITUDE
SLON.WGS84           -96.292829 : SURFACE LONGITUDE
~Curve Information -----------------------------------------
DEPT   .FT    : DEPTH FEET
RHOBED .G/C3  : BULK DENSITY FROM DENSITY LOG [DEPTH ADJ TO RES LOG]
SPWS   .MV    : SPONTANEOUS POTENTIAL [BASELINE 0 MV] [SPRED]
GRNED  .GAPI  : GAMMA RAY FROM NEUTRON LOG [DEPTH ADJ TO RES LOG]
CALDED .IN    : CALIPER FROM DENSITY LOG [DEPTH ADJ TO RES LOG]
CORRED .G/C3  : DENSITY CORRECTION FROM DENSITY LOG [DEPTH ADJ TO RES LOG]
NEUTED .NAPI  : NEUTRON FROM NEUTRON LOG [DEPTH ADJ TO RES LOG]
GUARDED.OHMM  : GUARD LOG RESISTIVITY
GRWS   .GAPI  : GAMMA RAY [SPL GRRED 7100 GRDED 8150 GRNED(RESCALED 0/100 -0/150)]
CALWS  .IN    : CALIPER [CALDED]
GRDED  .GAPI  : GAMMA RAY FROM DENSITY LOG [DEPTH ADJ TO RES LOG]
GRRED  .GAPI  : GAMMA RAY FROM RESISTIVITY LOG
DCORWS .G/C3  : DENSITY CORRECTION [CORRED]
DRESWS .OHMM  : DEEP RESISTIVITY [ILDED]
NPHIED .V/V   : NEUTRON POROSITY LIMESTONE FROM DENSITY LOG [DEPTH ADJ TO RES LOG]
SRESWS .OHMM  : SHALLOW RESISTIVITY [GUARD]
ILDED  .OHMM  : INDUCTION LOG DEEP RESISTIVITY
SPRED  .MV    : SPONTANEOUS POTENTIAL FROM RESISTIVITY LOG
CONDWS .MMHO  : CONDUCTIVITY [1000/DRESWS]
CILDED .MMHO  : CONDUCTIVITY FROM RESISTIVITY LOG
DENWS  .G/C3  : BULK DENSITY [M=2.71 F=1.0] [RHOBED]
NPOWS  .V/V   : NEUTRON POROSITY LIME[CONV NPHIED]
NEUTWS .NAPI  : NEUTRON [NEUTED]
DPOWS  .V/V   : DENSITY POROSITY [M=2.71 F=1] [CALCULATED FROM DENWS]
~Params ----------------------------------------------------
PD  .                     GL : PERMANENT DATUM
EPD .FT                  309 : ELEVATION PERMANENT DATUM
LMF .                    TKB : LOG MEASURED FROM
DAPD.FT                   15 : FEET ABOVE PERMANENT DATUM
DMF .                    TKB : DRILLING MEASURED FROM
EKB .FT                  324 : KELLY BUSHING
EDF .FT                  323 : DRILLING FLOOR
EGL .FT                  309 : GROUND LEVEL
DATE.               05/04/81 : RUN DATE
RUN .                      1 : RUN NUMBER
DD  .FT                 8417 : DEPTH DRILLER
DL  .FT                 8392 : DEPTH LOGGER
BLI .FT                 8378 : BOTTOM LOG INTERVAL
TLI .FT                 8374 : TOP LOG INTERVAL
CS  .IN                8.625 : CASING SIZE
CBD .FT                 3840 : CASING BOTTOM DRILLER
CBL .FT                 3844 : CASING BOTTOM LOGGER
BS  .IN                 8.75 : BIT SIZE
BSD .FT                 8417 : BIT SIZE AT DEPTH
DFT .         WATER BASE MUD : DRILLING FLUID TYPE
DFD .                    9.4 : DRILLING FLUID DENSITY
DFV .                     40 : DRILLING FLUID VISCOSITY
DFPH.                    9.5 : DRILLING FLUID PH
DFL .                      6 : DRILLING FLUID LOSS
MSS .                    PIT : MUD SAMPLE SOURCE
RMS .OHMM               2.94 : RESISTIVITY MUD SAMPLE
MST .DEGF                 75 : MUD SAMPLE TEMPERATURE
RMF .OHMM               2.44 : RESISTIVITY MUD FILTRATE SAMPLE
MFST.DEGF                 75 : MUD FILTRATE SAMPLE TEMPERATURE
RMC .OHMM               1.58 : RESISTIVITY MUD CAKE
MCST.DEGF                 75 : MUD CAKE SAMPLE TEMPERATURE
MFSS.                   MEAS : MUD FILTRATE SAMPLE SOURCE
MCSS.                   MEAS : MUD CAKE SAMPLE SOURCE
RMB .OHMM               1.16 : RESISTIVITY MUD AT BHT
TCS .HRS                   8 : TIME CIRCULATED STOPPED
LUN .                   2907 : LOGGING UNIT NUMBER
LUL .                  BRYAN : LOGGING UNIT LOCATION
ENGI.              DEVILBISS : RECORDING ENGINEER
WITN.              WHITEHEAD : WITNESSED BY
CLNT.                A2DTECH : CLIENT CODE
ORIG.               5" PRINT : ORIGIN OF DATA
UWI .         42041305850000 : UNIQUE WELL ID
DICO. A2D Technologies, Inc. : DIGITIZING COMPANY
~Other -----------------------------------------------------
~ASCII -----------------------------------------------------
# ...
 7050.00000    -999.25   -1.89270    -999.25    -999.25    -999.25    -999.25    1.84780  113.66030    -999.25    -999.25  113.66030    -999.25    1.76930    -999.25    1.84780    1.76930  -19.74980  565.19530  557.32910    -999.25    -999.25    -999.25    -999.25
 7100.00000    -999.25   -2.70370    -999.25    -999.25    -999.25    -999.25    2.08430  120.60310    -999.25  120.60310  108.64850    -999.25    1.93580    -999.25    2.08430    1.93580  -17.23680  516.58230  566.90990    -999.25    -999.25    -999.25    -999.25
 7150.00000    2.38310   -5.05340    -999.25   11.01860    0.18810    -999.25    1.65110  105.28640   11.01860  105.28640   94.93300    0.18810    1.74830    0.39800    1.65110    1.74830  -21.32320  571.98430  653.06600    2.38310    0.39800    -999.25    0.19120
 7200.00000    2.58280   -1.44170    -999.25   10.12420    0.13690    -999.25    2.95180   87.30570   10.12420   87.30570   81.05450    0.13690    2.73700    0.25150    2.95180    2.73700  -17.62980  365.36350  396.93390    2.58280    0.25150    -999.25    0.07440
 7250.00000    2.60590   -1.70510    -999.25    9.99070    0.09320    -999.25    3.02530   71.37750    9.99070   71.37750   66.15220    0.09320    2.90820    0.22970    3.02530    2.90820  -16.72610  343.85530  399.30440    2.60590    0.22970    -999.25    0.06090
 7300.00000    2.62210   -1.51750    -999.25    9.72860    0.08760    -999.25    3.31120   68.57600    9.72860   68.57600   61.94000    0.08760    3.19970    0.22950    3.31120    3.19970  -15.80320  312.52930  353.84440    2.62210    0.22950    -999.25    0.05140
 7350.00000    2.63560   -0.39600    -999.25    9.75630    0.06840    -999.25    3.94930   65.71970    9.75630   65.71970   59.65630    0.06840    3.41190    0.19280    3.94930    3.41190  -15.57700  293.09180  326.18980    2.63560    0.19280    -999.25    0.04350
 7400.00000    2.48600   -1.62010    -999.25   12.40740    0.21660    -999.25    2.12990  106.20280   12.40740  106.20280   88.73220    0.21660    2.00480    0.41500    2.12990    2.00480  -19.40600  498.80290  571.96010    2.48600    0.41500    -999.25    0.13100
 7450.00000    2.39550   -2.21690    -999.25   12.54950    0.20420    -999.25    1.97780  104.11410   12.54950  104.11410   87.17760    0.20420    1.96610    0.44920    1.97780    1.96610  -19.66360  508.62110  561.67860    2.39550    0.44920    -999.25    0.18390
 7500.00000    2.47160   -0.88210    -999.25   12.07470    0.18550    -999.25    2.32180  109.78620   12.07470  109.78620   96.11150    0.18550    2.19610    0.38740    2.32180    2.19610  -17.98970  455.35270  496.84930    2.47160    0.38740    -999.25    0.13940
 7550.00000    2.45850   -1.58720    -999.25   12.64660    0.22200    -999.25    2.22920   92.41330   12.64660   92.41330   98.68080    0.22200    2.01470    0.39000    2.22920    2.01470  -32.10140  496.35180  550.96560    2.45850    0.39000    -999.25    0.14710
 7600.00000    2.42340   -1.65690    -999.25   11.99190    0.18660    -999.25    2.17130   97.60870   11.99190   97.60870  101.25190    0.18660    1.93360    0.45000    2.17130    1.93360  -31.34440  517.17000  573.63480    2.42340    0.45000    -999.25    0.16760
 7650.00000    2.55030   -1.71450    -999.25   10.58820    0.15880    -999.25    2.91160   91.23150   10.58820   91.23150   93.43460    0.15880    2.82350    0.36970    2.91160    2.82350  -30.68280  354.17040  423.66530    2.55030    0.36970    -999.25    0.09340
 7700.00000    2.54250   -2.50470    -999.25   11.36660    0.16200    -999.25    2.95300  108.45870   11.36660  108.45870   96.03310    0.16200    2.35700    0.43470    2.95300    2.35700  -30.82240  424.26810  411.10030    2.54250    0.43470    -999.25    0.09800
 7750.00000    2.50570   -3.06490    -999.25   12.29090    0.19740    -999.25    2.29820   97.16470   12.29090   97.16470   96.98640    0.19740    1.91960    0.41440    2.29820    1.91960  -30.73210  520.94180  500.56680    2.50570    0.41440    -999.25    0.11950
 7800.00000    2.59670   -0.91560   40.50960   10.02740    0.08460  319.43050    4.82690   67.20510   10.02740   67.20510   65.05490    0.08460    3.89980    0.19060    4.82690    3.89980  -28.58700  256.42340  264.46620    2.59670    0.19060  319.43050    0.06630
 7850.00000    2.65010   -1.52830   33.99650   10.09000    0.10080  364.68270    6.27330   58.13510   10.09000   58.13510   55.47440    0.10080    5.30530    0.11010    6.27330    5.30530  -29.71850  188.49080  187.62400    2.65010    0.11010  364.68270    0.03500
 7900.00000    2.62940   -3.72140   41.08070   10.08150    0.10980  350.71910    5.53050   62.11500   10.08150   62.11500   59.12970    0.10980    5.02110    0.11730    5.53050    5.02110  -32.43030  199.15950  198.14520    2.62940    0.11730  350.71910    0.04710
 7950.00000    2.65160   -7.73300   31.93230    9.84680    0.10240  402.94650    8.04900   45.24060    9.84680   45.24060   48.73030    0.10240    8.06950    0.03080    8.04900    8.06950  -36.96060  123.92340  133.44700    2.65160    0.03080  402.94650    0.03420
 8000.00000    2.45770   -2.65150   96.91050    9.91320    0.14870  288.41450    5.79590  149.19810    9.91320  149.19810   59.91250    0.14870    3.53270    0.01190    5.79590    3.53270  -32.39780  283.06960  287.45230    2.45770    0.01190  288.41450    0.14750
 8050.00000    2.61030  -42.32290   37.71800    9.75060    0.13440  395.14510   16.70050   50.86150    9.75060   50.86150   43.84390    0.13440   14.02390    0.09130   16.70050   14.02390  -71.69200   71.30680   68.59390    2.61030    0.09130  395.14510    0.05830
 8100.00000    2.07950   -6.15190   59.42910    9.92050    0.21080  168.74500    6.03900   95.90840    9.92050   95.90840   92.69550    0.21080    4.84200    0.28900    6.03900    4.84200  -35.10180  206.52620  210.45250    2.07950    0.28900  168.74500    0.36870
 8150.00000    2.25050   -3.20340   63.52840   11.61730    0.20260  165.27400    1.70640   95.29260   11.61730   99.52440   92.43470    0.20260    1.96670    0.28320    1.70640    1.96670  -30.31610  508.46600  545.80150    2.25050    0.32700  165.27400    0.26870
 8200.00000    2.52470   -1.73130   69.11250   13.52020    0.15510  116.76470    1.54260  103.66880   13.52020  117.32520   95.36300    0.15510    1.85860    0.31240    1.54260    1.85860  -27.00690  538.03940  612.73330    2.52470    0.35600  116.76470    0.10840
 8250.00000    2.59670   -0.79890   45.08460   10.80630    0.15180  309.35350    1.41950   67.62690   10.80630   77.27650   71.55580    0.15180    5.32880    0.12610    1.41950    5.32880  -25.42820  187.65950  172.56950    2.59670    0.16900  309.35350    0.06630
 8300.00000    2.42140   -1.80450   63.13270   12.60280    0.20710  120.82070    1.96370   94.69910   12.60280  114.25500   99.82860    0.20710    2.59290    0.33730    1.96370    2.59290  -25.99780  385.66850  393.61350    2.42140    0.38050  120.82070    0.16880
 8350.00000    2.36080   -0.89660   66.31390   12.57500    0.21030  114.64210    1.50100   99.47090   12.57500    -999.25    -999.25    0.21030    1.68610    -999.25    1.50100    1.68610  -25.78430  593.08470  654.10210    2.36080    -999.25  114.64210    0.20420
 8400.00000    -999.25    -999.25   38.60360    -999.25    -999.25  129.82070    -999.25   57.90540    -999.25    -999.25    -999.25    -999.25    -999.25    -999.25    -999.25    -999.25    -999.25    -999.25    -999.25    -999.25    -999.25  129.82070    -999.25
 8450.00000    -999.25    -999.25   82.50920    -999.25    -999.25  149.29920    -999.25  123.76380    -999.25    -999.25    -999.25    -999.25    -999.25    -999.25    -999.25    -999.25    -999.25    -999.25    -999.25    -999.25    -999.25  149.29920    -999.25
 8500.00000    -999.25    -999.25   91.45920    -999.25    -999.25  164.56600    -999.25  137.18880    -999.25    -999.25    -999.25    -999.25    -999.25    -999.25    -999.25    -999.25    -999.25    -999.25    -999.25    -999.25    -999.25  164.56600    -999.25
 8550.00000    -999.25    -999.25   80.60330    -999.25    -999.25  164.99490    -999.25  120.90500    -999.25    -999.25    -999.25    -999.25    -999.25    -999.25    -999.25    -999.25    -999.25    -999.25    -999.25    -999.25    -999.25  164.99490    -999.25
