~Version ---------------------------------------------------
VERS.      2.0 : CWLS log ASCII Standard -VERSION 2.0
WRAP.       NO : One line per depth step
CREA. 01/14/16 : LAS Creation Date
~Well ------------------------------------------------------
STRT.FT                 1850.0 : START DEPTH
STOP.FT                10350.0 : STOP DEPTH
STEP.FT               50.00000 : STEP LENGTH
NULL.                  -999.25 : NULL VALUE
COMP.       BRG LONE STAR, LTD : COMPANY
WELL.      ELLISON GAS UNIT #2 : WELL
FLD .               BEAR GRASS : FIELD
LOC .                          : LOCATION
CNTY.                     LEON : COUNTY
STAT.                    TEXAS : STATE
CTRY. UNITED STATES OF AMERICA : COUNTRY
SRVC.              Weatherford : SERVICE COMPANY
DATE.              23-Jun-2010 : LOGDATE
API .           42289318670000 : API NUMBER
UWI .           42289318670000 : UNIQUE WELL ID
SLAT.WGS84       31.3769769316 : SURFACE LATITUDE
SLON.WGS84      -96.1967743319 : SURFACE LONGITUDE
~Curve Information -----------------------------------------
DEPT  .FT    : Depth Curve
CONDWS.MMHO  : CONDUCTIVITY [1000/DRESWS]
DRESWS.OHMM  : DEEP RESISTIVITY [ILDED]
GRRED .GAPI  : GAMMA RAY FROM AIT-RSFE LOG
GRWS  .GAPI  : GAMMA RAY [GRRED]
ILDED .OHMM  : DEEP INDUCTION RESISTIVITY FROM AIT-RSFE LOG
ILMED .OHMM  : MEDIUM INDUCTION RESISTIVITY FROM AIT-RSFE LOG
MRESWS.OHMM  : MEDIUM RESISTIVITY [ILMED]
SFEED .OHMM  : SHALLOW FOCUSED ELECTRIC LOG FROM AIT-RSFE LOG
SPRED .MV    : SPONTANEOUS POTENTIAL FROM AIT-RSFE LOG
SPWS  .MV    : SPONTANEOUS POTENTIAL [BASELINE 0 MV, SPRED]
SRESWS.OHMM  : SHALLOW RESISTIVITY [SFEED]
TENRED.LBF   : TENSION FROM AIT-RSFE LOG
~Params ----------------------------------------------------
PD  .                     GL : PERMANENT DATUM
EPD .FT                  488 : ELEVATION PERMANENT DATUM
LMF .                     KB : LOG MEASURED FROM
DAPD.FT                 14.6 : FEET ABOVE PERMANENT DATUM
DMF .                     KB : DRILLING MEASURED FROM
EKB .FT                502.6 : KELLY BUSHING
EDF .FT                501.6 : DRILLING FLOOR
EGL .FT                  488 : GROUND LEVEL
DATE.               06/23/10 : RUN DATE
RUN .                      1 : RUN NUMBER
DD  .FT                10400 : DEPTH DRILLER
DL  .FT                10398 : DEPTH LOGGER
BLI .FT                10397 : BOTTOM LOG INTERVAL
TLI .FT                 1893 : TOP LOG INTERVAL
CS  .IN                8.625 : CASING SIZE
CBD .FT                 1893 : CASING BOTTOM DRILLER
CBL .FT                 1893 : CASING BOTTOM LOGGER
BS  .IN                7.875 : BIT SIZE
BSD .FT                10400 : BIT SIZE AT DEPTH
DFT .             WATER BASE : DRILLING FLUID TYPE
DFD .                   10.6 : DRILLING FLUID DENSITY
DFV .                     43 : DRILLING FLUID VISCOSITY
DFPH.                      8 : DRILLING FLUID PH
DFL .                   14.1 : DRILLING FLUID LOSS
MSS .                MUD PIT : MUD SAMPLE SOURCE
RMS .OHMM               0.79 : RESISTIVITY MUD SAMPLE
MST .DEGF                 82 : MUD SAMPLE TEMPERATURE
RMF .OHMM               0.59 : RESISTIVITY MUD FILTRATE SAMPLE
MFST.DEGF                 82 : MUD FILTRATE SAMPLE TEMPERATURE
RMC .OHMM               0.98 : RESISTIVITY MUD CAKE
MCST.DEGF                 82 : MUD CAKE SAMPLE TEMPERATURE
MFSS.                   CALC : MUD FILTRATE SAMPLE SOURCE
MCSS.                   CALC : MUD CAKE SAMPLE SOURCE
RMB .OHMM               0.26 : RESISTIVITY MUD AT BHT
TCS .HRS                   6 : TIME CIRCULATED STOPPED
LUN .                  13097 : LOGGING UNIT NUMBER
LUL .                  TYLER : LOGGING UNIT LOCATION
ENGI.                 PORTER : RECORDING ENGINEER
WITN.                  FLYNN : WITNESSED BY
CLNT.                A2DTECH : CLIENT CODE
ORIG.               2" PRINT : ORIGIN OF DATA
UWI .         42289318670000 : UNIQUE WELL ID
DICO. A2D Technologies, Inc. : DIGITIZING COMPANY
~Other -----------------------------------------------------
AIT-RSFE LOG RUN
INDUCTION TOOL FAILED ON BOTTOM
~ASCII -----------------------------------------------------
# ...
 7450.00000    1.52150  657.24070   40.68730   40.68730  657.24070 2000.00000 2000.00000   26.13490  -23.42680   -5.43760   26.13490 2706.57130
 7500.00000    6.12280  163.32310   63.43230   63.43230  163.32310 2000.00000 2000.00000    6.47770  -22.64790   -4.95420    6.47770 2672.66310
 7550.00000    3.42640  291.84790   53.97020   53.97020  291.84790 2000.00000 2000.00000    3.83520  -27.09320   -9.69490    3.83520 2640.76540
 7600.00000    4.14260  241.39330   42.75530   42.75530  241.39330 2000.00000 2000.00000   27.82590  -24.27060   -7.16780   27.82590 2692.93820
 7650.00000    3.93240  254.29640   55.86800   55.86800  254.29640 2000.00000 2000.00000    4.76110  -19.92130   -3.11390    4.76110 2696.37010
 7700.00000    2.47050  404.77570   56.48180   56.48180  404.77570 2000.00000 2000.00000   11.40290  -24.50950   -7.99750   11.40290 2740.57030
 7750.00000    0.93400 1070.61730   62.98990   62.98990 1070.61730 2000.00000 2000.00000    5.56230  -22.17050   -5.95400    5.56230 2675.11690
 7800.00000    0.50000 2000.00000   50.89070   50.89070 2000.00000 2000.00000 2000.00000   29.72830  -20.43180   -4.51070   29.72830 2720.01170
 7850.00000    0.79990 1250.14140   29.47810   29.47810 1250.14140 2000.00000 2000.00000   73.66960  -30.48410  -14.85850   73.66960 2719.76340
 7900.00000    0.50000 2000.00000   43.06100   43.06100 2000.00000 2000.00000 2000.00000    3.61300  -25.20520   -9.87500    3.61300 2746.45460
 7950.00000    0.50000 2000.00000   37.06280   37.06280 2000.00000 2000.00000 2000.00000   40.59830  -21.76590   -6.73110   40.59830 2739.46610
 8000.00000    2.84630  351.32910   35.93980   35.93980  351.32910 2000.00000 2000.00000   13.46850  -20.64280   -5.90350   13.46850 2722.33760
 8050.00000    3.69720  270.47560   51.52290   51.52290  270.47560 2000.00000 2000.00000    3.82880  -21.44950   -7.00560    3.82880 2760.30810
 8100.00000    3.68410  271.43640   38.18190   38.18190  271.43640 2000.00000 2000.00000   20.81000  -20.69000   -6.54150   20.81000 2736.97830
 8150.00000    3.79080  263.79800   59.27240   59.27240  263.79800 2000.00000 2000.00000    6.07920  -17.94000   -4.08700    6.07920 2765.53690
 8200.00000    4.00270  249.82940   53.52970   53.52970  249.82940 2000.00000 2000.00000   47.25400  -28.98860  -15.43100   47.25400 2797.16700
 8250.00000    0.50000 2000.00000   28.86580   28.86580 2000.00000 2000.00000 2000.00000  130.13190  -20.54440   -7.28230  130.13190 2851.26420
 8300.00000    0.50000 2000.00000   38.27660   38.27660 2000.00000 2000.00000 2000.00000   26.26180  -37.03440  -24.06770   26.26180 2863.62890
 8350.00000    0.50000 2000.00000   36.32290   36.32290 2000.00000 2000.00000 2000.00000   79.76130  -49.45450  -36.78320   79.76130 2908.97460
 8400.00000    0.50000 2000.00000   43.74850   43.74850 2000.00000 2000.00000 2000.00000   23.30460  -20.91030   -8.53450   23.30460 2886.08470
 8450.00000    0.50000 2000.00000   48.92500   48.92500 2000.00000 2000.00000 2000.00000   39.38610  -17.52900   -5.44860   39.38610 2917.38820
 8500.00000    0.50000 2000.00000   44.19800   44.19800 2000.00000 2000.00000 2000.00000   70.11260  -65.42620  -53.64120   70.11260 2966.81200
 8550.00000    5.04240  198.31840   15.57640   15.57640  198.31840 2000.00000 2000.00000   24.78350 -141.41430 -129.92480   24.78350 2946.70530
 8600.00000    0.50000 2000.00000   29.40930   29.40930 2000.00000 2000.00000 2000.00000   35.01460 -126.52590 -115.33180   35.01460 2973.17290
 8650.00000    4.20170  238.00150   46.24550   46.24550  238.00150 2000.00000 2000.00000   13.25190  -17.86870   -6.97010   13.25190 2999.50540
 8700.00000    0.50000 2000.00000   49.65760   49.65760 2000.00000 2000.00000 2000.00000   24.10510  -26.65880  -16.05560   24.10510 3008.87430
 8750.00000    0.50000 2000.00000   51.10220   51.10220 2000.00000 2000.00000 2000.00000   64.87330  -21.07930  -10.77150   64.87330 2997.48490
 8800.00000    0.50000 2000.00000   91.13660   91.13660 2000.00000 2000.00000 2000.00000    4.18610  -18.67990   -8.66760    4.18610 3021.83200
 8850.00000    0.50000 2000.00000   87.57330   87.57330 2000.00000 2000.00000 2000.00000    4.23340  -14.97600   -5.25910    4.23340 3040.48660
 8900.00000    0.50000 2000.00000   75.45920   75.45920 2000.00000 2000.00000 2000.00000    5.13030  -12.81120   -3.38980    5.13030 3053.65210
 8950.00000    0.50000 2000.00000   95.77950   95.77950 2000.00000 2000.00000 2000.00000    9.83650  -13.25150   -4.12550    9.83650 3062.56520
 9000.00000    0.50000 2000.00000   91.70200   91.70200 2000.00000 2000.00000 2000.00000    7.63230  -11.20310   -2.37250    7.63230 3009.63820
 9050.00000    0.50000 2000.00000   55.27150   55.27150 2000.00000 2000.00000 2000.00000   13.69620  -13.38900   -4.85390   13.69620 3023.74880
 9100.00000    0.50000 2000.00000   90.37500   90.37500 2000.00000 2000.00000 2000.00000    5.71120  -13.33820   -4.51910    5.71120 3084.27880
 9150.00000    0.50000 2000.00000   95.75130   95.75130 2000.00000 2000.00000 2000.00000    8.07180  -10.79410   -1.44280    8.07180 3120.37260
 9200.00000    0.50000 2000.00000   43.17390   43.17390 2000.00000 2000.00000 2000.00000   91.85920  -29.10560  -19.22200   91.85920 3132.95290
 9250.00000    0.50000 2000.00000   47.11660   47.11660 2000.00000 2000.00000 2000.00000   54.87760  -69.22500  -58.80920   54.87760 3128.65870
 9300.00000    0.50000 2000.00000   45.17360   45.17360 2000.00000 2000.00000 2000.00000   28.14830  -68.71140  -57.76330   28.14830 3107.41600
 9350.00000    0.50000 2000.00000   44.07240   44.07240 2000.00000 2000.00000 2000.00000  103.36180  -74.62220  -63.14190  103.36180 3137.81710
 9400.00000    0.50000 2000.00000   51.62290   51.62290 2000.00000 2000.00000 2000.00000   66.00590  -25.41230  -13.39970   66.00590 3127.79790
 9450.00000    0.50000 2000.00000   37.41260   37.41260 2000.00000 2000.00000 2000.00000   70.50200  -48.97230  -36.42750   70.50200 3161.27910
 9500.00000    0.50000 2000.00000   24.18220   24.18220 2000.00000 2000.00000 2000.00000   28.87890  -99.05130  -85.97420   28.87890 3159.28860
 9550.00000    5.55810  179.91750   49.25810   49.25810  179.91750 2000.00000 2000.00000   24.64640  -53.77030  -40.16100   24.64640 3178.78100
 9600.00000    6.29460  158.86700   78.51060   78.51060  158.86700 2000.00000 2000.00000    7.30640  -21.98020   -7.83860    7.30640 3143.15140
 9650.00000    4.76440  209.89190   89.89620   89.89620  209.89190 2000.00000 2000.00000    4.02570  -42.16850  -28.14450    4.02570 3161.95830
 9700.00000    3.63190  275.34080   44.18130   44.18130  275.34080 2000.00000 2000.00000    3.32430  -72.36530  -58.50040    3.32430 3175.04300
 9750.00000    2.53660  394.23080   84.05880   84.05880  394.23080 2000.00000 2000.00000   18.83220  -24.38290  -10.67710   18.83220 3177.19780
 9800.00000    3.48460  286.98110  113.29270  113.29270  286.98110 2000.00000 2000.00000    2.96310  -25.96770  -12.42100    2.96310 3203.12040
 9850.00000    4.10170  243.80210   57.87980   57.87980  243.80210 2000.00000 2000.00000   11.74970  -48.49600  -35.10840   11.74970 3197.82350
 9900.00000    1.24450  803.54810   85.37280   85.37280  803.54810 2000.00000 2000.00000    4.86440  -26.37910  -13.15060    4.86440 3198.85940
 9950.00000    4.27460  233.93750  110.97440  110.97440  233.93750 2000.00000 2000.00000    6.59570  -20.94310   -7.62010    6.59570 3263.04080
 10000.00000    4.81380  207.73530   56.06320   56.06320  207.73530 2000.00000 2000.00000    9.61470  -59.65730  -46.22370    9.61470 3240.40230
 10050.00000    2.13210  469.01160   40.17040   40.17040  469.01160 2000.00000 2000.00000   17.84170  -56.46470  -42.92050   17.84170 3298.09400
 10100.00000    4.71690  212.00500   81.08260   81.08260  212.00500 2000.00000 2000.00000    3.45510  -61.05460  -47.39980    3.45510 3302.86570
 10150.00000  222.41500    4.49610   53.72970   53.72970    4.49610   22.85220   22.85220    9.83200  -57.46550  -43.70010    9.83200 3378.77610
 10200.00000  213.38340    4.68640  107.71900  107.71900    4.68640   15.96770   15.96770   10.53240  -53.39230  -39.51630   10.53240 3410.40870
