~Version ---------------------------------------------------
VERS. 2.0 : CWLS log ASCII Standard -VERSION 2.0
WRAP.  NO : ONE LINE PER DEPTH STEP
~Well ------------------------------------------------------
STRT.F                   800.0 : START DEPTH
STOP.F                  6850.0 : STOP DEPTH
STEP.F                50.00000 : STEP LENGTH
NULL.                  -999.25 : NULL VALUE
COMP.       GALAXY OIL COMPANY : COMPANY
WELL.            GROCE J. G #2 : WELL
FLD .              ROCKY CREEK : FIELD
LOC .                          : LOCATION
CNTY.                   DIMMIT : COUNTY
STAT.                    TEXAS : STATE
CTRY. UNITED STATES OF AMERICA : COUNTRY
SRVC.             Schlumberger : SERVICE COMPANY
DATE.              31-Aug-1978 : LOGDATE
API .           42127317320000 : API NUMBER
UWI .           42127317320000 : UNIQUE WELL ID
SLAT.WGS84       28.5651809878 : SURFACE LATITUDE
SLON.WGS84      -99.9243050245 : SURFACE LONGITUDE
~Curve Information -----------------------------------------
DEPT.F                 : 
CILD.MMHO 07 110 46 00 : CONDUCTIVITY INDUCTION LOG DEEP
SPR .MV   07 010 01 00 : SPONTANEOUS POTENTIAL FROM RES.
ILD .OHMM 07 120 46 00 : INDUCTION LOG DEEP
LL8 .OHMM 07 220 08 00 : LATEROLOG-8 RES.
CALD.IN   45 280 60 00 : CALIPER FDC LOG
CORR.G/C3 45 356 01 00 : DENSITY CORRECTION
RHOB.G/C3 45 350 01 00 : BULK DENSITY
GRD .GAPI 45 310 01 00 : GAMMA RAY FROM DENSITY LOG
DPHI.DEC  45 890 10 00 : DENSITY POROSITY LIMESTONE
NPHI.DEC  42 890 01 00 : NEUTRON POROSITY LIMESTONE
~Params ----------------------------------------------------
PD  .                     GL : PERMANENT DATUM
EPD .F                631.36 : ELEVATION PERMANENT DATUM
LMF .                     KB : LOG MEASURED FROM
DMF .                     KB : DRILLING MEASURED FROM
EKB .F                641.36 : KELLING BUSHING
EDF .F                640.36 : DRILLING FLOOR
EGL .F                631.36 : GROUND LEVEL
DATE.               08-31-78 : RUN DATE
RUN .                      1 : RUN NUMBER
DD  .F                  6500 : DEPTH DRILLER
DL  .F                  6880 : DEPTH LOGGER
BLI .F                  6879 : BOTTOM LOG INTERVAL
TLI .F                  2850 : TOP LOG INTERVAL
CS  .IN                8.625 : CASING SIZE
CBD .F                   805 : CASING BOTTOM DRILLER
CBL .F                   806 : CASING BOTTOM LOGGER
BS  .IN                7.875 : BIT SIZE
BSD .F                  6500 : BIT SIZE AT DEPTH
DFT .                  LIGNO : DRILLING FLUID TYPE
DFD .                    9.6 : DRILLING FLUID DENSITY
DFV .                     35 : DRILLING FLUID VISCOSITY
DFPH.                    9.5 : DRILLING FLUID PH
DFL .                   12.3 : DRILLING FLUID LOSS
MSS .                    PIT : MUD SAMPLE SOURCE
RMS .OHMM                1.4 : RESISTIVITY MUD SAMPLE
MST .F                    83 : MUD SAMPLE TEMPERATURE
RMF .OHMM                  1 : RESISTIVITY MUD FILTRATE SAMPLE
MFST.F                    83 : MUD FILTRATE SAMPLE TEMPERATURE
RMC .OHMM                  2 : RESISTIVITY MUD CAKE
MCST.F                    83 : MUD CAKE SAMPLE TEMPERATURE
MFSS.                      M : MUD FILTRATE SAMPLE SOURCE
MCSS.                      C : MUD CAKE SAMPLE SOURCE
RMB .OHMM               0.63 : RESISTIVITY MUD AT BHT
MRT .F                   184 : MAXIMUM RECORDED TEMPERATURE
LUN .                   7739 : LOGGING UNIT NUMBER
LUL .                 LAREDO : LOGGING UNIT LOCATION
WITN.                  ELLIO : WITNESSED BY
CLNT.                A2DTECH : CLIENT CODE
ORIG.          1" 2.5" PRINT : ORIGIN OF DATA
UWI .         42127317320000 : UNIQUE WELL ID
DICO. A2D Technologies, Inc. : DIGITIZING COMPANY
~Other -----------------------------------------------------
~ASCII -----------------------------------------------------
# ...
 4100.00000  124.34650  -32.86950    8.50960    9.34920    9.40810    0.00780    2.59950   63.70000    0.04990    0.08160
 4150.00000  119.16840  -27.67690    8.33120    9.16970   10.05050    0.02650    2.60230   52.12410    0.05050    0.07440
 4200.00000  135.17490  -31.00790    7.34280    8.17470   10.15210   -0.00480    2.60830   70.06680    0.04320    0.08690
 4250.00000  151.29400  -30.18660    6.94380    7.38030   10.00400    0.02010    2.65250   51.60120    0.02900    0.06820
 4300.00000  114.88880  -33.86830    8.60490    9.05100    9.68630    0.01600    2.64320   51.78120    0.02920    0.06060
 4350.00000  176.86340  -30.51370    6.13850    6.54110    9.84980   -0.00470    2.61610   52.27130    0.02740    0.05630
 4400.00000   48.28730  -37.67700   20.40020   21.91760    9.39920   -0.00050    2.68560   37.48910    0.01870    0.03770
 4450.00000   65.09860  -33.45200   14.91330   17.54180    9.11070    0.01690    2.66070   39.45230    0.02340    0.05350
 4500.00000   63.96840  -25.30340   10.68490   16.80150    9.20220   -0.01020    2.60450   37.04800    0.02500    0.04800
 4550.00000  131.13350  -31.54040    6.55070    7.64990    8.98330   -0.00580    2.66510   39.64760    0.01790    0.03480
 4600.00000   31.30430  -39.08300   31.62900   34.01860    8.97300    0.00720    2.65140   26.65170    0.02360    0.02500
 4650.00000   98.84400  -30.42780   10.69190   17.61010    9.30990    0.08040    2.40890   67.06710    0.09530    0.11270
 4700.00000   40.78270  -37.54760   28.02360   28.67290    8.91330    0.00540    2.63500   26.99640    0.01710    0.03320
 4750.00000   47.04970  -40.52140   22.76960   25.13960    8.88480    0.00410    2.62130   28.09330    0.03530    0.04810
 4800.00000   29.34780  -43.68050   22.43130   35.64150    8.82510    0.01960    2.63250   21.92980    0.02800    0.03850
 4850.00000   35.24850  -48.40210   23.91860   28.87390    8.69390    0.00410    2.58830   29.13510    0.04410    0.06050
 4900.00000   47.19210  -40.36120   21.02920   26.50710    8.69720    0.00830    2.61540   28.07870    0.03450    0.05970
 4950.00000   35.24850  -40.26950   27.94100   32.66120    8.72910    0.00240    2.52820   23.65140    0.05920    0.06340
 5000.00000   46.98600  -45.19360   23.19930   26.84480    8.64940    0.01080    2.59280   45.79110    0.03960    0.05900
 5050.00000   33.77330  -34.04670   30.81260   30.91090    8.57670   -0.00350    2.61600   63.90770    0.02980    0.05420
 5100.00000   11.41310  -60.79570   75.09090   72.18430    9.10930    0.08230    2.44460   56.10530    0.05990    0.04390
 5150.00000    7.79730  -26.52210   36.94440   54.06280    8.45150    0.00770    2.60300   79.48920    0.04880    0.05600
 5200.00000   22.23340  -34.70020   44.47930   78.09420    8.44310   -0.01930    2.57610   62.65430    0.05820    0.06880
 5250.00000   35.38890  -25.13280   25.43700   43.67460    8.45510    0.01910    2.62230   66.54920    0.03970    0.06820
 5300.00000   34.96120  -26.27320   27.17360   40.01650    8.49670   -0.00520    2.52620   70.48700    0.06860    0.10160
 5350.00000   80.48650  -26.68050   11.14620   17.16840    9.07340    0.04220    2.58080   50.42950    0.03130    0.14630
 5400.00000   28.45100  -43.20900   36.86760   52.65490    8.57550    0.00460    2.51410   97.71930    0.08800    0.11420
 5450.00000   18.85780  -20.82970   57.01350  104.67200    8.49020    0.02300    2.51430   73.70750    0.09270    0.12820
 5500.00000   13.85290  -56.91900   65.08600   77.54500    8.49560    0.00320    2.45610   99.23850    0.10160    0.13530
 5550.00000    2.79500  -20.03610  199.36850  199.53160    8.63740   -0.00230    2.56960   17.27360    0.06070    0.02740
 5600.00000   10.33810  -73.82910  114.05550  199.64040   11.35870    0.12360    2.48530   18.02040    0.09720    0.02230
 5650.00000    2.58190  -61.01430  197.08560  198.34980    8.17010    0.10490    2.64690   17.77250    0.04900    0.01790
 5700.00000  159.70510   -6.04790    5.66870    9.33620    9.45120    0.20260    2.46570   68.25240    0.06210    0.10900
 5750.00000  443.79620  -10.95940    2.47310    3.27520   11.91910    0.14860    2.21750   89.95030    0.20430    0.19010
 5800.00000  373.54580   -9.09080    2.54070    3.34330   11.08160    0.16970    2.17550   94.22470    0.22410    0.19880
 5850.00000  457.14290   -9.79680    2.42970    2.72060   11.57080    0.16060    2.12390   94.09690    0.22330    0.20040
 5900.00000  302.30370  -12.13190    3.56630    4.60860    9.69760    0.11360    2.48930   79.47840    0.11530    0.22630
 5950.00000   14.19850  -11.69750   58.11410   68.49850    9.12130    0.15090    2.61840   16.10850    0.02120    0.01010
 6000.00000    9.71380  -40.47090  114.86260   91.40200    9.37340    0.21060    2.54190   18.78840    0.11770    0.00930
 6050.00000   21.46350  -26.36100   47.69550  199.33370    8.08020   -0.00700    2.69110   23.15630    0.00280    0.00750
 6100.00000    7.04200  -28.31880  110.44490  178.78880    8.35430    0.21770    2.61560   18.01760    0.07690    0.00500
 6150.00000   13.06950  -16.24660   88.64880   76.79270    8.43340    0.10870    2.55890   21.30270    0.05120    0.01240
 6200.00000   14.30310  -37.52290   67.23900   58.51420    8.09160    0.01540    2.70120   17.32240    0.02140    0.01630
 6250.00000    9.44770  -28.85680  100.86420  103.45760    8.37190    0.03040    2.72950   14.76810   -0.00680    0.01230
 6300.00000    9.43850  -37.07020   41.99450   75.66590    9.51240    0.16390    2.56010   17.68860    0.05520    0.01940
 6350.00000    2.00830  -48.24490  108.44860  143.87910   10.18340    0.21980    2.48640   28.12640    0.12340    0.01070
 6400.00000   21.48030  -58.16930   45.78990   44.43870    7.93550    0.01170    2.58400   29.40660    0.03820    0.02570
 6450.00000    3.77850  -67.59260  198.79630  178.06320    8.03550    0.09100    2.78570   41.59210   -0.04210    0.01340
 6500.00000    2.72690  -91.43260    -999.25  200.00000    7.99630    0.00680    2.93000   15.13910   -0.08850    0.00280
 6550.00000   33.28160    1.98400   30.19930   40.76720    8.05130   -0.00580    2.67260   37.71540    0.01290    0.04840
 6600.00000   64.38490  -14.14290   14.93740   16.11350    8.00760    0.01950    2.73560   46.76240   -0.01130    0.06060
 6650.00000    4.76190  -50.50670  160.89530  173.76500    8.05250    0.08650    2.62370   73.28610    0.02900    0.02950
 6700.00000   10.93360  -93.27070  199.56360  185.06330   10.02870    0.14460    2.03460   79.06840    0.21380    0.01740
 6750.00000    3.57360  -88.52470    -999.25    -999.25    7.93230    0.03750    2.79140   28.48440   -0.03610    0.00900
 6800.00000    1.76610  -99.63490    -999.25  171.72920    7.94270    0.01140    2.64540   32.23330    0.04090    0.01770
 6850.00000    1.81160 -125.73980    -999.25    -999.25    7.99680    0.07100    2.70380   29.55390    0.00340    0.01200
