~Version ---------------------------------------------------
VERS. 2.0 : CWLS log ASCII Standard -VERSION 2.0
WRAP.  NO : ONE LINE PER DEPTH STEP
~Well ------------------------------------------------------
STRT.F                  3000.0 : START DEPTH
STOP.F                 12550.0 : STOP DEPTH
STEP.F                50.00000 : STEP LENGTH
NULL.                  -999.25 : NULL VALUE
COMP.       QMG HOLDINGS, INC. : COMPANY
WELL.              LEACHMAN #1 : WELL
FLD .                  WILDCAT : FIELD
LOC .                          : LOCATION
CNTY.                 BURLESON : COUNTY
STAT.                    TEXAS : STATE
CTRY. UNITED STATES OF AMERICA : COUNTRY
SRVC.             Schlumberger : SERVICE COMPANY
DATE.              23-Mar-1981 : LOGDATE
API .           42051311590000 : API NUMBER
UWI .           42051311590000 : UNIQUE WELL ID
SLAT.WGS84           30.445344 : SURFACE LATITUDE
SLON.WGS84          -96.315711 : SURFACE LONGITUDE
~Curve Information -----------------------------------------
DEPT   .F    0   1   0  0 : 1 MEASURED DEPTH
NPHI_SS.DEC  42 890 03 00 : NEUTRON POROSITY SANDSTONE
GRR    .GAPI 07 310 01 00 : GAMMA RAY FROM RESISTIVITY LOG
SPR    .MV   07 010 01 00 : SPONTANEOUS POTENTIAL FROM RESISTIVITY LOG
DRHO   .G/C3 45 356 01 00 : BULK DENSITY CORRECTION
DCALR  .IN   07 280 01 00 : DIFFERENTIAL CALIPER FROM RESISTIVITY LOG
ILD    .OHMM 07 120 46 00 : INDUCTION DEEP RESISTIVITY
SFLU   .OHMM 07 220 01 00 : SHALLOW FOCUSED RESISTIVITY (UNAVERAGED)
ILM    .OHMM 07 120 44 00 : INDUCTION MEDIUM RESISTIVITY
DPHI_SS.DEC  45 890 12 00 : DENSITY POROSITY SANDSTONE
NPHI_LS.DEC  42 890 01 00 : NEUTRON POROSITY LIMESTONE
DPHI_LS.DEC  45 890 10 00 : DENSITY POROSITY LIMESTONE
~Params ----------------------------------------------------
PD  .                     GL : PERMANENT DATUM
EPD .FT                  210 : ELEVATION PERMANENT DATUM
LMF .                     KB : LOG MEASURED FROM
DAPD.FT                 18.2 : FEET ABOVE PERMANENT DATUM
DMF .                     KB : DRILLING MEASURED FROM
EKB .FT                228.2 : KELLY BUSHING
EDF .FT                227.2 : DRILLING FLOOR
EGL .FT                  210 : GROUND LEVEL
DATE.               03/23/81 : RUN DATE
RUN .                      2 : RUN NUMBER
DD  .FT                12568 : DEPTH DRILLER
DL  .FT                12562 : DEPTH LOGGER
BLI .FT                12556 : BOTTOM LOG INTERVAL
TLI .FT                10872 : TOP LOG INTERVAL
CS  .IN                7.625 : CASING SIZE
CBD .FT                10876 : CASING BOTTOM DRILLER
CBL .FT                10872 : CASING BOTTOM LOGGER
BS  .IN                 6.05 : BIT SIZE
BSD .FT                12568 : BIT SIZE AT DEPTH
DFT .                LIGNITE : DRILLING FLUID TYPE
DFD .                    9.6 : DRILLING FLUID DENSITY
DFV .                     40 : DRILLING FLUID VISCOSITY
DFPH.                     10 : DRILLING FLUID PH
DFL .                      8 : DRILLING FLUID LOSS
MSS .               CIRC PIT : MUD SAMPLE SOURCE
RMS .OHMM              0.894 : RESISTIVITY MUD SAMPLE
MST .DEGF                 80 : MUD SAMPLE TEMPERATURE
RMF .OHMM               1.36 : RESISTIVITY MUD FILTRATE SAMPLE
MFST.DEGF                 66 : MUD FILTRATE SAMPLE TEMPERATURE
RMC .OHMM                1.3 : RESISTIVITY MUD CAKE
MCST.DEGF                 80 : MUD CAKE SAMPLE TEMPERATURE
MFSS.                      M : MUD FILTRATE SAMPLE SOURCE
MCSS.                      C : MUD CAKE SAMPLE SOURCE
RMB .OHMM               0.45 : RESISTIVITY MUD AT BHT
TCS .HRS                 200 : TIME CIRCULATED STOPPED
TLAB.HRS                1130 : TIME LOGGER AT BOTTOM
LUN .                   8176 : LOGGING UNIT NUMBER
LUL .                BRCNHAM : LOGGING UNIT LOCATION
ENGI.                 WRIGHT : RECORDING ENGINEER
WITN.          FISCHER BURXY : WITNESSED BY
CLNT.                A2DTECH : CLIENT CODE
ORIG.               5" PRINT : ORIGIN OF DATA
UWI .         42051311590000 : UNIQUE WELL ID
DICO. A2D Technologies, Inc. : DIGITIZING COMPANY
~Other -----------------------------------------------------
~ASCII -----------------------------------------------------
 3000.00000    0.64280   56.99570    -999.25    -999.25    -999.25    -999.25    -999.25    -999.25    -999.25    -999.25    -999.25
 3050.00000    0.41320   83.25700  -16.87910    0.02950    2.25510    1.46690    1.74500    1.41540    0.23330    -999.25    -999.25
 3100.00000    0.44140   87.56210  -20.12700    0.02030    2.32930    0.96570    1.08330    0.90260    0.33390    -999.25    -999.25
 3150.00000    0.51700   83.75140  -25.24560    0.01790    1.80100    1.22230    1.30990    1.17350    0.41540    -999.25    -999.25
 3200.00000    0.50600   74.81820  -34.29590    0.02710    3.40030    2.29230    2.97920    2.22290    0.18680    -999.25    -999.25
 3250.00000    0.44890   80.52940  -38.55770    0.07190    2.81750    3.09680    2.97490    3.28520    0.38490    -999.25    -999.25
 3300.00000    0.37610   38.34510  -70.38390    0.01550    0.06690    2.38040    4.03320    2.91190    0.26880    -999.25    -999.25
 3350.00000    0.42200   64.76210  -56.62200    0.02890    0.57160    3.05410    5.15850    3.55400    0.22040    -999.25    -999.25
 3400.00000    0.37060   62.46430  -53.60120    0.04170    0.80900    3.52160    4.61880    3.93320    0.22480    -999.25    -999.25
 3450.00000    0.36780   76.76030  -55.59160    0.02280    0.68160    2.92920    4.24490    3.33880    0.23290    -999.25    -999.25
 3500.00000    0.36880  111.71000  -33.03440    0.05480    0.73180    2.64270    2.98970    2.76970    0.16220    -999.25    -999.25
 3550.00000    0.35480  102.71230  -53.86180    0.03260   -0.07330    3.40820    4.85000    3.81410    0.19240    -999.25    -999.25
 3600.00000    0.32540   60.99350  -81.27050    0.00070    0.13790    1.75310    3.63680    2.20500    0.27990    -999.25    -999.25
 3650.00000    0.45820  101.63170  -45.75700    0.00630    0.29580    3.12020    3.92660    3.33940    0.12690    -999.25    -999.25
 3700.00000    0.31560   96.64580  -42.94820    0.02000    0.68750    2.13870    2.59250    2.32110    0.16190    -999.25    -999.25
 3750.00000    0.42380   70.54920  -49.24410    0.05010    0.92780    1.46900    1.68540    1.67670    0.26710    -999.25    -999.25
 3800.00000    0.32380   71.26120  -82.86670    0.03290    0.05730    1.52110    3.68190    1.98240    0.27670    -999.25    -999.25
 3850.00000    0.33880   80.62640  -68.98800    0.05420    0.92130    2.09600    4.25200    2.93930    0.23040    -999.25    -999.25
 3900.00000    0.30470   92.81170  -51.30440    0.06490    1.25910    2.52630    3.27010    2.88240    0.17710    -999.25    -999.25
 3950.00000    0.34700   62.63980  -75.06780    0.00570    0.05640    1.88090    4.27150    2.35820    0.27260    -999.25    -999.25
 4000.00000    0.34070   94.99260  -65.86540    0.03320    0.30820    2.55270    4.68920    3.26960    0.22870    -999.25    -999.25
 4050.00000    0.32760   71.98180  -73.51330    0.04810    0.51790    2.21120    4.98140    3.02270    0.23240    -999.25    -999.25
 4100.00000    0.33720  111.81030  -56.75060    0.04130    0.68370    2.51090    4.25140    3.03250    0.18520    -999.25    -999.25
 4150.00000    0.34930   98.12070  -61.61700    0.04740    0.71590    2.43270    4.50360    3.07930    0.17260    -999.25    -999.25
 4200.00000    0.34780   73.74330  -74.73670    0.02970   -0.03330    1.83910    4.48860    2.46930    0.23580    -999.25    -999.25
 4250.00000    0.34540   77.16880  -69.67750    0.03810    0.28620    1.78310    3.87130    2.42500    0.20250    -999.25    -999.25
 4300.00000    0.35570   68.58730  -79.20830    0.05520    0.41750    1.68400    3.75210    2.47100    0.22080    -999.25    -999.25
 4350.00000    0.38230  103.75460  -39.35810    0.04570    0.64010    1.73730    1.91100    1.90730    0.19160    -999.25    -999.25
 4400.00000    0.31410   95.65930  -44.23880    0.03470    0.10310    2.23160    4.15740    2.52370    0.18090    -999.25    -999.25
 4450.00000    0.31570   72.82490  -83.47220    0.03060   -0.10490    1.30960    3.96760    1.66730    0.23540    -999.25    -999.25
 4500.00000    0.31070   89.32310  -60.45280    0.05330   -0.05470    1.84760    4.11660    2.27840    0.18060    -999.25    -999.25
 4550.00000    0.33240  101.83430  -51.05460    0.05640    0.33540    2.26350    3.69340    2.76770    0.16630    -999.25    -999.25
 4600.00000    0.31060   65.22140  -94.64470    0.04020   -0.17330    1.13460    4.15340    1.72590    0.21130    -999.25    -999.25
 4650.00000    0.32690   80.32910  -79.46370    0.03040   -0.13560    1.30890    4.19120    1.80570    0.23460    -999.25    -999.25
 4700.00000    0.31750   72.17310  -96.23440    0.04370   -0.28090    0.98420    3.76010    1.44200    0.26200    -999.25    -999.25
 4750.00000    0.31020  108.19450  -42.56530    0.09520    0.76630    1.57000    2.07160    1.69480    0.15700    -999.25    -999.25
 4800.00000    0.59790   92.74540  -54.94520    0.00350    1.21670    1.98990    2.84310    2.51970    0.53480    -999.25    -999.25
 4850.00000    0.29000   97.11630  -65.40960    0.03440    1.08380    1.90700    4.56450    2.62210    0.15990    -999.25    -999.25
 4900.00000    0.33290   72.95510  -75.16680    0.04280    0.03950    1.41150    4.02910    1.82510    0.17390    -999.25    -999.25
 4950.00000    0.31000   90.18180  -97.70060    0.01630   -0.02560    0.96390    4.18780    1.51900    0.24600    -999.25    -999.25
 5000.00000    0.30030   82.62630  -94.91450    0.02420    0.02640    1.09590    4.44130    1.60600    0.24700    -999.25    -999.25
 5050.00000    0.29770   78.67020  -92.01120    0.04360    0.24360    1.19070    4.71580    1.67880    0.24120    -999.25    -999.25
 5100.00000    0.58840   72.83370  -18.37240   -0.02580    0.58260   10.53390   28.28780   10.25240    0.70200    -999.25    -999.25
 5150.00000    0.29880   61.99040 -110.69540    0.02620   -0.25620    0.64990    2.91680    0.93060    0.25160    -999.25    -999.25
 5200.00000    0.30610   64.22600 -114.92530    0.00960   -0.43640    0.90870    4.14290    1.30810    0.26640    -999.25    -999.25
 5250.00000    0.29480   54.18870 -117.22740    0.01610   -0.40980    0.36310    1.05590    0.42160    0.26460    -999.25    -999.25
 5300.00000    0.31590   62.74310 -106.21300    0.02580   -0.40860    0.56720    3.28040    0.86780    0.26680    -999.25    -999.25
 5350.00000    0.28640   63.53420 -116.47050    0.02280   -0.40120    0.45390    2.43490    0.59190    0.25200    -999.25    -999.25
 5400.00000    0.28990   60.14860 -119.22020    0.02040   -0.35790    0.37660    1.52190    0.47300    0.25910    -999.25    -999.25
 5450.00000    0.32460   58.91000  -97.53660    0.03630   -0.28820    0.29800    0.43100    0.36370    0.26210    -999.25    -999.25
 5500.00000    0.33130   53.74120 -111.87010    0.01870   -0.05880    0.34490    0.91170    0.35960    0.25180    -999.25    -999.25
 5550.00000    0.24920   46.81650 -105.61600    0.02020   -0.03320    0.38110    0.67190    0.46520    0.21860    -999.25    -999.25
 5600.00000    0.27670   57.78400 -116.12130    0.03420    0.15850    0.36260    1.90400    0.51160    0.25280    -999.25    -999.25
 5650.00000    0.28340   86.64310  -92.15610    0.04080   -0.11870    0.79610    4.16750    1.26140    0.21410    -999.25    -999.25
 5700.00000    0.26760   87.56670  -79.13210    0.02330    0.12660    0.95370    4.94270    1.49000    0.22010    -999.25    -999.25
 5750.00000    0.26280   69.16150 -108.97340    0.02850    0.07440    0.66970    4.06930    1.00060    0.23540    -999.25    -999.25
 5800.00000    0.27010   59.51110 -119.16460    0.03670    0.08690    0.57770    3.72040    0.77030    0.23330    -999.25    -999.25
 5850.00000    0.27340  115.31110  -32.57560    0.04760    1.27150    1.97060    2.65760    2.09380    0.08380    -999.25    -999.25
 5900.00000    0.25220   51.91880 -115.92850    0.01790    0.04300    0.37710    1.08270    0.46580    0.22750    -999.25    -999.25
 5950.00000    0.27640  134.51540  -14.47800    0.00440    0.77490    2.49180    2.51640    2.59330    0.08880    -999.25    -999.25
 6000.00000    0.23400   87.62630 -108.70660    0.04210    0.17700    1.53220    5.03570    2.22220    0.16590    -999.25    -999.25
