~Version ---------------------------------------------------
VERS. 2.0 : CWLS log ASCII Standard -VERSION 2.0
WRAP.  NO : One line per depth step
~Well ------------------------------------------------------
STRT.FT                       300.0 : START DEPTH
STOP.FT                     12600.0 : STOP DEPTH
STEP.FT                    50.00000 : STEP LENGTH
NULL.                       -999.25 : NULL VALUE
COMP. STANDARD OIL COMPANY OF TEXAS : COMPANY
WELL.               J T CALLIHAM #1 : WELL
FLD .                      CALLIHAM : FIELD
LOC .                               : LOCATION
CNTY.                     MC MULLEN : COUNTY
STAT.                         TEXAS : STATE
CTRY.      UNITED STATES OF AMERICA : COUNTRY
SRVC.                  Schlumberger : SERVICE COMPANY
DATE.                   25-Aug-1958 : LOGDATE
API .                42311006770000 : API NUMBER
UWI .                42311006770000 : UNIQUE WELL ID
SLAT.WGS84            28.4820300337 : SURFACE LATITUDE
SLON.WGS84           -98.3483794592 : SURFACE LONGITUDE
~Curve Information -----------------------------------------
DEPT  .FT    : DEPTH
ASNED .OHMM  : AMPLIFIED SHORT NORMAL 16 IN.
CILDED.MMHO  : CONDUCTIVITY FROM LOG
CONDWS.MMHO  : CONDUCTIVITY (1000/DRESWS)
DRESWS.OHMM  : DEEP RESISTIVITY (IF ILDED<1, THEN 1000/CILDED)
DTED  .US/F  : DELTA TIME  (ADJ TO RES.)
DTWS  .US/F  : DELTA TIME  (DTE)
ILDED .OHMM  : DEEP INDUCTION RESISTIVITY
SPWS  .MV    : SPONTANEOUS POTENTIAL BASELINE 0 MV (SPRED)
SPRED .MV    : SPONTANEOUS POTENTIAL FROM RESISTIVITY
SRESWS.OHMM  : SHALLOW RESISTIVITY (ASNED)
~Params ----------------------------------------------------
PD  .                     GL : PERMANENT DATUM
LMF .                     GL : LOG MEASURED FROM
DAPD.F                  16.0 : FEET ABOVE PERMANENT DATUM
DMF .                     GL : DRILLING MEASURED FROM
EKB .F                   244 : KELLING BUSHING
EGL .F                   228 : GROUND LEVEL
DATE.                8/25/58 : RUN DATE
RUN .                      2 : RUN NUMBER
DD  .F                 12605 : DEPTH DRILLER
DL  .F                 12632 : DEPTH LOGGER
BLI .F                 12628 : BOTTOM LOG INTERVAL
TLI .F                 12435 : TOP LOG INTERVAL
CBD .F                 12287 : CASING BOTTOM DRILLER
BS  .IN                6.125 : BIT SIZE
BSD .F                 12605 : BIT SIZE AT DEPTH
DFT .     L.B.-13% OIL  EMUL : DRILLING FLUID TYPE
DFD .                   10.3 : DRILLING FLUID DENSITY
DFV .                     71 : DRILLING FLUID VISCOSITY
DFPH.                      9 : DRILLING FLUID PH
DFL .                    3.4 : DRILLING FLUID LOSS
RMS .OHMM                0.6 : RESISTIVITY MUD SAMPLE
MST .F                   120 : MUD SAMPLE TEMPERATURE
RMF .OHMM               0.15 : RESISTIVITY MUD FILTRATE SAMPLE
MFST.F                   270 : MUD FILTRATE SAMPLE TEMPERATURE
RMB .OHMM               0.27 : RESISTIVITY MUD AT BHT
TCS .HRS                   2 : TIME CURCULATED STOPPED
LUN .                   2501 : LOGGING UNIT NUMBER
LUL .                  FREER : LOGGING UNIT LOCATION
ENGI.                  BRITT : RECORDING ENGINEER
WITN.               LINSCOMB : WITNESSED BY
CLNT.                A2DTECH : CLIENT CODE
ORIG.               5",PRINT : ORIGIN OF DATA
UWI .         42311006770000 : UNIQUE WELL ID
DICO. A2D Technologies, Inc. : DIGITIZING COMPANY
~Other -----------------------------------------------------
~ASCII -----------------------------------------------------
# ...
 10200.00000    2.93110  341.98790  362.73940    2.75680    -999.25    -999.25    2.75680   -3.20630  -21.58470    2.93110
 10250.00000    3.11590  333.42630  360.98480    2.77020    -999.25    -999.25    2.77020   -3.61590  -21.99430    3.11590
 10300.00000    3.01110  477.66170  343.65440    2.90990    -999.25    -999.25    2.90990  -10.03690  -28.41530    3.01110
 10350.00000    2.65220  417.33070  416.51050    2.40090    -999.25    -999.25    2.40090   -6.39640  -24.77480    2.65220
 10400.00000    2.63400  404.42640  349.05230    2.86490    -999.25    -999.25    2.86490   -6.82490  -25.20330    2.63400
 10450.00000    2.85870  386.25500  373.73400    2.67570    -999.25    -999.25    2.67570   -4.25030  -22.62870    2.85870
 10500.00000    3.06880  410.15940  336.36060    2.97300    -999.25    -999.25    2.97300   -8.99290  -27.37130    3.06880
 10550.00000    2.15040  516.13540  506.84230    1.97300    -999.25    -999.25    1.97300   -9.91000  -28.28840    2.15040
 10600.00000    3.07620  368.24570  370.00040    2.70270    -999.25    -999.25    2.70270   -4.86480  -23.24320    3.07620
 10650.00000    2.75000  429.88050  430.23710    2.32430    -999.25    -999.25    2.32430   -3.71620  -22.09460    2.75000
 10700.00000    2.85330  404.66420  385.41590    2.59460    -999.25    -999.25    2.59460   -1.30630  -19.68470    2.85330
 10750.00000    2.48100  485.45820  420.45070    2.37840    -999.25    -999.25    2.37840   -5.15630  -23.51350    2.48100
 10800.00000    2.55230  440.59310  393.62330    2.54050    -999.25    -999.25    2.54050   -4.91510  -23.24320    2.55230
 10850.00000    2.82570  358.81930  334.33630    2.99100    -999.25    -999.25    2.99100   -5.68750  -23.98650    2.82570
 10900.00000    3.17430  366.14590  326.47730    3.06300    -999.25    -999.25    3.06300   -6.73010  -25.00000    3.17430
 10950.00000    2.95650  396.93730  370.00040    2.70270    -999.25    -999.25    2.70270   -5.88080  -24.12160    2.95650
 11000.00000    2.94930  378.92370  370.00040    2.70270    -999.25    -999.25    2.70270   -5.30170  -23.51350    2.94930
 11050.00000    2.49660  405.67730  468.36220    2.13510    -999.25    -999.25    2.13510   -5.66860  -23.85130    2.49660
 11100.00000    2.41130  499.80080  440.47040    2.27030    -999.25    -999.25    2.27030   -6.84640  -25.00000    2.41130
 11150.00000    2.60870  468.42630  397.85160    2.51350    -999.25    -999.25    2.51350   -5.86200  -23.98650    2.60870
 11200.00000    2.91670  378.56330  393.60780    2.54060    -999.25    -999.25    2.54060   -6.22880  -24.32430    2.91670
 11250.00000    3.04620  359.96020  350.71720    2.85130    -999.25    -999.25    2.85130   -5.24450  -23.31090    3.04620
 11300.00000    2.68480  428.84800  406.58670    2.45950    -999.25    -999.25    2.45950   -5.88160  -23.91890    2.68480
 11350.00000    2.50000  431.67330  408.84750    2.44590    -999.25    -999.25    2.44590   -7.59990  -25.60810    2.50000
 11400.00000    2.65220  453.18730  396.43210    2.52250    -999.25    -999.25    2.52250   -4.00310  -21.98230    2.65220
 11450.00000    2.85600  390.43830  284.25240    3.51800    -999.25    -999.25    3.51800   -2.45530  -20.40540    2.85600
 11500.00000    2.71560  413.84950  339.45480    2.94590    -999.25    -999.25    2.94590   -4.60150  -22.52250    2.71560
 11550.00000    2.97730  405.37850  317.60150    3.14860    -999.25    -999.25    3.14860   -4.54050  -22.43240    2.97730
 11600.00000    3.03620  375.24540  349.05230    2.86490    -999.25    -999.25    2.86490   -5.92100  -23.78380    3.03620
 11650.00000    3.61960  336.45420  333.33330    3.00000    -999.25    -999.25    3.00000   -2.71960  -20.67590    3.61960
 11700.00000    5.09240  243.84350  233.68310    4.27930    -999.25    -999.25    4.27930   -4.17020  -22.97300    5.09240
 11750.00000    6.76900  196.81270  164.56300    6.07670    -999.25    -999.25    6.07670   -3.99940  -23.64870    6.76900
 11800.00000    6.10870  216.53390  201.81630    4.95500    -999.25    -999.25    4.95500   -1.93660  -22.43240    6.10870
 11850.00000    8.90220  123.30680  125.06880    7.99560    -999.25    -999.25    7.99560   -2.37390  -23.71620    8.90220
 11900.00000    4.90630  281.07570  258.73890    3.86490    -999.25    -999.25    3.86490   -0.81910  -22.56760    4.90630
 11950.00000    -999.25    -999.25    -999.25    -999.25    -999.25    -999.25    -999.25    1.05960  -20.87840    -999.25
 12000.00000    6.97190  200.27890  175.27870    5.70520    -999.25    -999.25    5.70520    1.58690  -20.54050    6.97190
 12050.00000   33.51310   38.12750   34.19480   29.24420    -999.25    -999.25   29.24420   -2.68310  -25.00000   33.51310
 12100.00000   41.23990   28.24700   24.81600   40.29650    -999.25    -999.25   40.29650   -3.16940  -25.67570   41.23990
 12150.00000   58.96780   16.77290   16.86360   59.29920    -999.25    -999.25   59.29920   -6.04300  -28.73880   58.96780
 12200.00000   62.97580   15.85680   12.16390   82.21020    -999.25    -999.25   82.21020   -8.46620  -31.35140   62.97580
 12250.00000   39.70470   18.92430   13.86290   72.13510    -999.25    -999.25   72.13510   -1.13700  -24.21160   39.70470
 12300.00000   89.16300   26.48130   27.22930   36.72510   54.72320   54.72320   36.72510  -12.52880  -58.91980   89.16300
 12350.00000   60.18140   58.72510   29.00660   34.47490   52.39110   52.39110   34.47490  -10.37770  -55.40460   60.18140
 12400.00000  139.32980   12.29080   20.72620   48.24800   51.54980   51.54980   48.24800  -18.76980  -62.43250  139.32980
 12450.00000    -999.25   99.52990   38.49540   25.97710   56.28480   56.28480   25.97710   -2.22850  -44.52710    -999.25
 12500.00000    -999.25   96.99590   33.80480   29.58160   57.47810   57.47810   29.58160  -11.09200  -53.10810    -999.25
 12550.00000    -999.25  111.55380   47.84570   20.90050   54.95610   54.95610   20.90050   -5.24090  -47.09460    -999.25
 12600.00000    -999.25   53.36550   28.79670   34.72620   55.30850   55.30850   34.72620   -4.79510  -46.48650    -999.25
