~Version ---------------------------------------------------
VERS. 2.0 : CWLS log ASCII Standard -VERSION 2.0
WRAP. YES : MULTIPLE LINES PER DEPTH STEP
~Well ------------------------------------------------------
STRT.FT                   400.0 : START DEPTH
STOP.FT                  7700.0 : STOP DEPTH
STEP.FT                50.00000 : STEP LENGTH
NULL.                   -999.25 : NULL VALUE
COMP. ENCANA OIL & GAS USA INC. : COMPANY
WELL.            BARCLAY 162 #2 : WELL
FLD .                   CHITTIM : FIELD
LOC .                           : LOCATION
CNTY.                  MAVERICK : COUNTY
STAT.                     TEXAS : STATE
CTRY.  UNITED STATES OF AMERICA : COUNTRY
SRVC.              Schlumberger : SERVICE COMPANY
DATE.               22-Oct-2006 : LOGDATE
API .            42323329160000 : API NUMBER
UWI .            42323329160000 : UNIQUE WELL ID
SLAT.WGS84        28.8174515047 : SURFACE LATITUDE
SLON.WGS84      -100.3519501945 : SURFACE LONGITUDE
~Curve Information -----------------------------------------
DEPT  .FT    : DEPTH FEET
AF10ED.OHMM  : 10 INCH ARRAY RESISTIVITY FOUR FOOT RESOLUTION
AF20ED.OHMM  : 20 INCH ARRAY RESISTIVITY FOUR FOOT RESOLUTION
AF30ED.OHMM  : 30 INCH ARRAY RESISTIVITY FOUR FOOT RESOLUTION
AF60ED.OHMM  : 60 INCH ARRAY RESISTIVITY FOUR FOOT RESOLUTION
AF90ED.OHMM  : 90 INCH ARRAY RESISTIVITY FOUR FOOT RESOLUTION
BITED .IN    : BIT SIZE FROM LOG HEADER
CALWS .IN    : CALIPER [(DCALED+BITED)]
CONDWS.MMHO  : CONDUCTIVITY [1000/DRESWS]
DCALED.IN    : DIFFERENTIAL CALIPER FROM DENSITY LOG
DCORWS.G/C3  : DENSITY CORRECTION [HDRAED]
DENWS .G/C3  : BULK DENSITY [M=2.71 F=1.0] [CALCULATED FROM DPOWS]
DPHZED.V/V   : DENSITY POROSITY [M=2.71 F=1.0] FROM DENSITY LOG
DPOWS .V/V   : DENSITY POROSITY [M=2.71 F=1.0] [DPHZED]
DRESWS.OHMM  : DEEP RESISTIVITY [AF90ED]
DT1ED .US/F  : DELTA TIME SHEAR LOWER DIPOLE FROM DIPOLE SONIC LOG
DT4PED.US/F  : DELTA TIME COMP - P & S FROM DIPOLE SONIC LOG
DTSWS .US/F  : DELTA TIME SHEAR [DT1ED]
DTWS  .US/F  : DELTA TIME [DT4PED]
GRRED .GAPI  : GAMMA RAY FROM RESISTIVITY LOG
GRWS  .GAPI  : GAMMA RAY [GRRED. CASED ABOVE 620]
HDRAED.G/C3  : DENSITY CORRECTION FROM DENSITY LOG
MRESWS.OHMM  : MEDIUM RESISTIVITY [AF30ED]
NPOWS .V/V   : NEUTRON POROSITY LIMESTONE [TNPHED. CASED ABOVE 620]
PEFWS .B/E   : PHOTOELECTRIC FACTOR [PEFZED]
PEFZED.B/E   : PHOTOELECTRIC FACTOR STANDARD RESOLUTION FROM DENSITY LOG
SPHIED.V/V   : SONIC POROSITY FROM SONIC LOG
SPOWS .V/V   : SONIC POROSITY [SPHIED]
SPRED .MV    : SPONTANEOUS POTENTIAL FROM RESISTIVITY LOG
SPWS  .MV    : SPONTANEOUS POTENTIAL [BASELINE 0 MV] [SPRED]
SRESWS.OHMM  : SHALLOW RESISTIVITY [AF20ED]
TENRED.LBF   : TENSION FROM RESISTIVITY LOG
TNPHED.V/V   : THERMAL NEUTRON POROSITY LIMESTONE FROM DENSITY LOG
~Params ----------------------------------------------------
PD  .                           GL : PERMANENT DATUM
EPD .FT                      770.7 : ELEVATION PERMANENT DATUM
LMF .                           KB : LOG MEASURED FROM
DAPD.FT                         25 : FEET ABOVE PERMANENT DATUM
DMF .                           KB : DRILLING MEASURED FROM
EKB .FT                      795.7 : KELLY BUSHING
EDF .FT                      794.7 : DRILLING FLOOR
EGL .FT                      770.7 : GROUND LEVEL
DATE.                     10/22/08 : RUN DATE
RUN .                            2 : RUN NUMBER
DD  .FT                       7700 : DEPTH DRILLER
DL  .FT                       7716 : DEPTH LOGGER
BLI .FT                       7708 : BOTTOM LOG INTERVAL
TLI .FT                       6610 : TOP LOG INTERVAL
CS  .IN                      7.875 : CASING SIZE
CBD .FT                       6600 : CASING BOTTOM DRILLER
CBL .FT                       6610 : CASING BOTTOM LOGGER
BS  .IN                       6.75 : BIT SIZE
BSD .FT                       7700 : BIT SIZE AT DEPTH
DFT .                    FRESH MUD : DRILLING FLUID TYPE
DFD .                         16.4 : DRILLING FLUID DENSITY
DFV .                           64 : DRILLING FLUID VISCOSITY
DFPH.                         10.1 : DRILLING FLUID PH
DFL .                          5.2 : DRILLING FLUID LOSS
MSS .                    FLOW LINE : MUD SAMPLE SOURCE
RMS .OHMM                    0.425 : RESISTIVITY MUD SAMPLE
MST .DEGF                      114 : MUD SAMPLE TEMPERATURE
RMF .OHMM                    0.306 : RESISTIVITY MUD FILTRATE SAMPLE
MFST.DEGF                      114 : MUD FILTRATE SAMPLE TEMPERATURE
RMC .OHMM                     0.55 : RESISTIVITY MUD CAKE
MCST.DEGF                      114 : MUD CAKE SAMPLE TEMPERATURE
MFSS.                     COMPUTED : MUD FILTRATE SAMPLE SOURCE
MCSS.                     COMPUTED : MUD CAKE SAMPLE SOURCE
RMB .OHMM                    0.241 : RESISTIVITY MUD AT BHT
TCS .HRS                      1330 : TIME CIRCULATED STOPPED
TLAB.HRS                      2342 : TIME LOGGER AT BOTTOM
LUN .                         2024 : LOGGING UNIT NUMBER
LUL .                    LAREDO TX : LOGGING UNIT LOCATION
ENGI. CARLOS DOSTAL CURT LADBETLER : RECORDING ENGINEER
WITN.                   JEFF FABER : WITNESSED BY
CLNT.                      A2DTECH : CLIENT CODE
ORIG.               1" 2" 5" PRINT : ORIGIN OF DATA
UWI .               42323329160000 : UNIQUE WELL ID
DICO.       A2D Technologies, Inc. : DIGITIZING COMPANY
~Other -----------------------------------------------------
1. CURVE AF20ED WAS CHOSEN FOR SRESWS BECAUSE AF10ED SEEMED TO BEHAVE ERRATICALLY OVER PART OF RUN 1.
~ASCII -----------------------------------------------------
# ...
 7000.00000    4.49290    4.25600    4.08930    3.97670    3.83120    6.75000    6.91240  261.01480    0.16240    0.00720    2.63360    0.04470    0.04470    3.83120    -999.25    -999.25    -999.25    -999.25   77.65370   77.65370    0.00720    4.08930    0.15820    3.90800    3.90800    -999.25    -999.25   10.69380   -6.19420    4.25600 2363.90620    0.15820
 7050.00000  194.07630   80.80240   80.36980   74.60780   67.78940    6.75000    6.86270   14.75160    0.11270    0.01850    2.72060   -0.00620   -0.00620   67.78940    -999.25    -999.25    -999.25    -999.25   43.97310   43.97310    0.01850   80.36980    0.02350    5.40050    5.40050    -999.25    -999.25    2.51720  -13.23620   80.80240 2339.94730    0.02350
 7100.00000   16.41720   15.31390   14.74930   14.27970   13.88490    6.75000    6.86400   72.02070    0.11400    0.01290    2.67750    0.01900    0.01900   13.88490    -999.25    -999.25    -999.25    -999.25   43.02160   43.02160    0.01290   14.74930    0.06580    4.38240    4.38240    -999.25    -999.25    1.11830  -13.50050   15.31390 2441.64280    0.06580
 7150.00000   40.47870   29.24160   27.51230   25.31210   23.07260    6.75000    6.80770   43.34150    0.05770    0.02120    2.68320    0.01570    0.01570   23.07260    -999.25    -999.25    -999.25    -999.25   43.01550   43.01550    0.02120   27.51230    0.05020    3.94220    3.94220    -999.25    -999.25   -0.50160  -13.98570   29.24160 2409.24830    0.05020
 7200.00000   33.76190   30.78560   28.47910   26.23270   21.90260    6.75000    6.87310   45.65670    0.12310    0.00970    2.63080    0.04630    0.04630   21.90260    -999.25    -999.25    -999.25    -999.25   48.94380   48.94380    0.00970   28.47910    0.04830    4.00550    4.00550    -999.25    -999.25    4.47380   -7.87570   30.78560 2496.40430    0.04830
 7250.00000    8.27070    8.04290    7.72000    7.45010    7.21280    6.75000    6.93340  138.64240    0.18340    0.01560    2.60430    0.06180    0.06180    7.21280    -999.25    -999.25    -999.25    -999.25   62.88010   62.88010    0.01560    7.72000    0.13030    4.23440    4.23440    -999.25    -999.25  -11.60200  -17.51190    8.04290 2455.40990    0.13030
 7300.00000   26.87720   25.61620   24.62660   21.08880   20.15190    6.75000    6.80090   49.62310    0.05090    0.02610    2.66400    0.02690    0.02690   20.15190    -999.25    -999.25    -999.25    -999.25   38.99630   38.99630    0.02610   24.62660    0.04740    4.29610    4.29610    -999.25    -999.25  -14.89200  -12.65360   25.61620 2465.50420    0.04740
 7350.00000   10.05800    9.46550    8.80570    8.17770    7.54700    6.75000    6.85620  132.50300    0.10620    0.00920    2.62210    0.05140    0.05140    7.54700    -999.25    -999.25    -999.25    -999.25   67.75790   67.75790    0.00920    8.80570    0.12200    4.02730    4.02730    -999.25    -999.25  -26.36500  -15.87220    9.46550 2549.40800    0.12200
 7400.00000   10.64820    9.03720    8.25260    7.54360    6.90760    6.75000    7.05170  144.76810    0.30170    0.01400    2.63460    0.04410    0.04410    6.90760    -999.25    -999.25    -999.25    -999.25   69.33330   69.33330    0.01400    8.25260    0.14160    3.84800    3.84800    -999.25    -999.25  -27.82930   -9.08200    9.03720 2487.37260    0.14160
 7450.00000   39.08640   35.67830   31.61980   29.55630   27.51160    6.75000    6.83780   36.34830    0.08780    0.02720    2.72520   -0.00890   -0.00890   27.51160    -999.25    -999.25    -999.25    -999.25   41.86460   41.86460    0.02720   31.61980    0.01360    4.86890    4.86890    -999.25    -999.25  -34.81220   -7.81050   35.67830 2537.30440    0.01360
 7500.00000    7.00890    6.24460    5.73240    5.05490    4.63350    6.75000    6.85620  215.81960    0.10620    0.01300    2.63170    0.04580    0.04580    4.63350    -999.25    -999.25    -999.25    -999.25   73.92890   73.92890    0.01300    5.73240    0.13270    4.19240    4.19240    -999.25    -999.25  -55.55320  -20.29710    6.24460 3074.78100    0.13270
 7550.00000   10.00090    9.50450    8.90260    7.88310    7.35830    6.75000    6.78000  135.90100    0.03000    0.01060    2.61120    0.05780    0.05780    7.35830    -999.25    -999.25    -999.25    -999.25   98.94880   98.94880    0.01060    8.90260    0.17350    4.84100    4.84100    -999.25    -999.25  -55.50600  -11.99540    9.50450 2540.26710    0.17350
 7600.00000   10.09770    9.70370    9.13960    8.48030    7.60910    6.75000    6.80870  131.42160    0.05870    0.00350    2.69380    0.00950    0.00950    7.60910    -999.25    -999.25    -999.25    -999.25   73.84790   73.84790    0.00350    9.13960    0.10640    3.68210    3.68210    -999.25    -999.25  -59.73420   -7.96920    9.70370 2540.19870    0.10640
 7650.00000   19.81630   15.62790   13.66360   13.38410   13.24110    6.75000    6.76420   75.52240    0.01420    0.01750    2.69920    0.00630    0.00630   13.24110    -999.25    -999.25    -999.25    -999.25   64.32120   64.32120    0.01750   13.66360    0.05150    5.16070    5.16070    -999.25    -999.25  -63.90320   -3.88380   15.62790 2499.05620    0.05150
 7700.00000   94.73380   49.07820   52.31290   54.85410   39.98220    6.75000    5.77070   25.01110   -0.97930    0.06440    -999.25    -999.25    -999.25   39.98220    -999.25    -999.25    -999.25    -999.25    -999.25    -999.25    0.06440   52.31290    -999.25    -999.25    -999.25    -999.25    -999.25 -100.08850  -39.57380   49.07820 2537.95390    -999.25
