~Version ---------------------------------------------------
VERS. 2.0 : CWLS log ASCII Standard -VERSION 2.0
WRAP. YES : Multiple lines per depth step
~Well ------------------------------------------------------
STRT.FT                   3900.0 : START DEPTH
STOP.FT                   8150.0 : STOP DEPTH
STEP.FT                 50.00000 : STEP LENGTH
NULL.                    -999.25 : NULL VALUE
COMP. CHAMPLIN PETROLEUM COMPANY : COMPANY
WELL.          RAYMOND ZBORIL #1 : WELL
FLD .                   GIDDINGS : FIELD
LOC .                            : LOCATION
CNTY.                   BURLESON : COUNTY
STAT.                      TEXAS : STATE
CTRY.   UNITED STATES OF AMERICA : COUNTRY
SRVC.               Schlumberger : SERVICE COMPANY
DATE.                29-Aug-1980 : LOGDATE
API .             42051309240000 : API NUMBER
UWI .             42051309240000 : UNIQUE WELL ID
SLAT.WGS84         30.3934292239 : SURFACE LATITUDE
SLON.WGS84        -96.7526949791 : SURFACE LONGITUDE
~Curve Information -----------------------------------------
DEPT    .FT    : DEPTH
CALWS   .IN    : CALIPER (DCALED+8.75)
CONDWS  .MMHO  : CONDUCTIVITY (1000/DRESWS)
DCALED  .IN    : DIFFERENTIAL CALIPER
DCORWS  .G/C3  : DENSITY CORRECTION (DRHOED)
DENWS   .G/C3  : BULK DENSITY  (DPHISSED M=2.65 F=1/DPHILSED M=2.71 F=1)
DPHILSED.V/V   : DENSITY POROSITY LIMESTONE  (EDITED TOOL PULLS)
DPHISSED.V/V   : DENSITY POROSITY SANDSTONE  (EDITED TOOL PULLS)
DPOWS   .V/V   : DENSITY POROSITY (M=2.71 F=1 FROM DENWS)
DRESWS  .OHMM  : DEEP RESISTIVITY (ILDED)
DRHOED  .G/C3  : DENSITY CORRECTION (FILLED MISSING)(EDITED TOOL PULLS)
GRRED   .GAPI  : GAMMA RAY  (EDITED TOOL PULLS)
GRWS    .GAPI  : GAMMA RAY  (GRRED)
ILDED   .OHMM  : DEEP INDUCTION RESISTIVITY  (EDITED TOOL PULLS)
ILMED   .OHMM  : MEDIUM INDUCTION RESISTIVITY (EDITED TOOL PULLS)
MRESWS  .OHMM  : MEDIUM RESISTIVITY (ILMED)
NPHILSED.V/V   : NEUTRON POROSITY LIMESTONE (EDITED TOOL PULLS)
NPHISSED.V/V   : NEUTRON POROSITY SANDSTONE (EDITED TOOL PULLS)
NPOWS   .V/V   : NEUTRON POROSITY LIMESTONE (NPHISSED CONVERTED TO LS/NPHILSED)
SFLUED  .OHMM  : SPHERICALLY FOCUSED RESISTIVITY (EDITED TOOL PULLS)
SPRED   .MV    : SPONTANEOUS POTENTIAL  (EDITED TOOL PULLS)
SPWS    .MV    : SPONTANEOUS POTENTIAL BASELINE 0 MV (SPRED)
SRESWS  .OHMM  : SHALLOW RESISTIVITY (SFLUED)
~Params ----------------------------------------------------
PD  .                     GL : PERMANENT DATUM
EPD .FT                  334 : ELEVATION PERMANENT DATUM
LMF .                     KB : LOG MEASURED FROM
DAPD.FT                   14 : FEET ABOVE PERMANENT DATUM
DMF .                     KB : DRILLING MEASURED FROM
EKB .FT                  348 : KELLY BUSHING
EDF .FT                  347 : DRILLING FLOOR
EGL .FT                  334 : GROUND LEVEL
DATE.               08/29/80 : RUN DATE
RUN .                      1 : RUN NUMBER
DD  .FT                 8167 : DEPTH DRILLER
DL  .FT                 8178 : DEPTH LOGGER
BLI .FT                 8172 : BOTTOM LOG INTERVAL
TLI .FT                 3865 : TOP LOG INTERVAL
CS  .IN                9.625 : CASING SIZE
CBD .FT                 3850 : CASING BOTTOM DRILLER
CBL .FT                 3865 : CASING BOTTOM LOGGER
BS  .IN                 8.75 : BIT SIZE
BSD .FT                 8167 : BIT SIZE AT DEPTH
DFT .                 BEN-EX : DRILLING FLUID TYPE
DFD .                    9.7 : DRILLING FLUID DENSITY
DFV .                     38 : DRILLING FLUID VISCOSITY
DFPH.                      9 : DRILLING FLUID PH
DFL .                    9.6 : DRILLING FLUID LOSS
MSS .              CIRC TANK : MUD SAMPLE SOURCE
RMS .OHMM               1.37 : RESISTIVITY MUD SAMPLE
MST .DEGF                 75 : MUD SAMPLE TEMPERATURE
RMF .OHMM               1.02 : RESISTIVITY MUD FILTRATE SAMPLE
MFST.DEGF                 75 : MUD FILTRATE SAMPLE TEMPERATURE
RMC .OHMM                2.1 : RESISTIVITY MUD CAKE
MCST.DEGF                 75 : MUD CAKE SAMPLE TEMPERATURE
MFSS.                      M : MUD FILTRATE SAMPLE SOURCE
MCSS.                      C : MUD CAKE SAMPLE SOURCE
RMB .OHMM               0.56 : RESISTIVITY MUD AT BHT
TCS .HRS                2400 : TIME CIRCULATED STOPPED
TLAB.HRS                1800 : TIME LOGGER AT BOTTOM
CLNT.                A2DTECH : CLIENT CODE
ORIG.            2" 5" PRINT : ORIGIN OF DATA
UWI .         42051309240000 : UNIQUE WELL ID
DICO. A2D Technologies, Inc. : DIGITIZING COMPANY
~Other -----------------------------------------------------
~ASCII -----------------------------------------------------
 3900.00000   12.81110  134.46640    4.06110    0.04510    2.20470    -999.25    0.26990    0.29550    7.43680    0.04510   59.65640   59.65640    7.43680    8.33530    8.33530    -999.25    0.37640    0.41290   13.48470  -50.52340  -15.08780   13.48470
 3950.00000   11.57250  196.52930    2.82250    0.05110    2.33140    -999.25    0.19310    0.22140    5.08830    0.05110   65.40900   65.40900    5.08830    5.58220    5.58220    -999.25    0.37990    0.41540    7.88850  -52.48580  -10.23280    7.88850
 4000.00000    9.88280   95.32800    1.13280    0.05960    2.42920    -999.25    0.13380    0.16420   10.49010    0.05960   43.08410   43.08410   10.49010   13.49390   13.49390    -999.25    0.21930    0.28800   28.42930  -66.77550  -26.62420   28.42930
 4050.00000    9.53680  125.16580    0.78680    0.00270    2.26470    -999.25    0.23350    0.26040    7.98940    0.00270   66.24990   66.24990    7.98940    8.33020    8.33020    -999.25    0.37280    0.41020   13.05000  -56.77910  -18.72950   13.05000
 4100.00000   11.11700  213.88090    2.36700    0.07380    2.24570    -999.25    0.24500    0.27150    4.67550    0.07380   69.53160   69.53160    4.67550    5.33230    5.33230    -999.25    0.36930    0.40770    7.45710  -51.88310  -15.93520    7.45710
 4150.00000   10.88910  194.96220    2.13910    0.04550    2.21080    -999.25    0.26620    0.29190    5.12920    0.04550   66.37430   66.37430    5.12920    5.94070    5.94070    -999.25    0.34630    0.39050   11.34280  -63.87670  -29.52710   11.34280
 4200.00000   11.26560  242.49480    2.51560    0.06430    2.23950    -999.25    0.24880    0.27520    4.12380    0.06430   75.61800   75.61800    4.12380    5.03770    5.03770    -999.25    0.35630    0.39810    8.85290  -59.81590  -26.24330    8.85290
 4250.00000   12.65730  356.32840    3.90730    0.08090    2.38860    -999.25    0.15840    0.18790    2.80640    0.08090   85.54730   85.54730    2.80640    2.63230    2.63230    -999.25    0.36580    0.40510    4.19860  -35.63530   -2.83960    4.19860
 4300.00000   10.75870  382.42380    2.00870    0.02460    1.93290    -999.25    0.43460    0.45440    2.61490    0.02460   82.95910   82.95910    2.61490    2.49250    2.49250    -999.25    0.42280    0.44610    3.86160  -35.07320   -3.05440    3.86160
 4350.00000   11.76100  338.52400    3.01100    0.06850    2.30680    -999.25    0.20800    0.23580    2.95400    0.06850   74.28400   74.28400    2.95400    2.84730    2.84730    -999.25    0.39890    0.42920    4.09360  -37.46100   -6.21920    4.09360
 4400.00000   11.29200  368.97640    2.54200    0.08040    2.36590    -999.25    0.17220    0.20120    2.71020    0.08040   82.23390   82.23390    2.71020    2.59560    2.59560    -999.25    0.39150    0.42390    3.77060  -34.58270   -4.11780    3.77060
 4450.00000   11.11030  322.48700    2.36030    0.02600    2.41340    -999.25    0.14340    0.17350    3.10090    0.02600   72.81190   72.81190    3.10090    3.00470    3.00470    -999.25    0.32390    0.37350    5.51150  -36.13440   -6.44650    5.51150
 4500.00000   10.55820  391.49670    1.80820    0.08340    2.35880    -999.25    0.17650    0.20540    2.55430    0.08340   85.16960   85.16960    2.55430    2.47260    2.47260    -999.25    0.33000    0.37820    3.97680  -31.95120   -3.04020    3.97680
 4550.00000   10.26100  410.12180    1.51100    0.10000    2.36720    -999.25    0.17140    0.20050    2.43830    0.10000   85.06470   85.06470    2.43830    2.35460    2.35460    -999.25    0.38020    0.41570    3.81060  -30.40670   -2.27270    3.81060
 4600.00000    9.18020  610.35160    0.43020    0.10000    2.38190    -999.25    0.16250    0.19190    1.63840    0.10000   93.97120   93.97120    1.63840    1.58780    1.58780    -999.25    0.39710    0.42790    2.71630  -29.65350   -1.75190    2.71630
 4650.00000    8.96920  413.05250    0.21920    0.06700    2.49320    -999.25    0.09500    0.12680    2.42100    0.06700   88.06300   88.06300    2.42100    2.35560    2.35560    -999.25    0.32360    0.37330    3.75840  -29.64860   -1.94470    3.75840
 4700.00000   10.81060  557.41360    2.06060    0.04510    2.49800    -999.25    0.09210    0.12400    1.79400    0.04510   85.95210   85.95210    1.79400    1.73860    1.73860    -999.25    0.34600    0.39030    2.90120  -27.66980   -0.16360    2.90120
 4750.00000   10.95890  602.37340    2.20890    0.07340    2.50550    -999.25    0.08760    0.11960    1.66010    0.07340   83.22460   83.22460    1.66010    1.60620    1.60620    -999.25    0.35360    0.39600    2.97910  -28.68310   -1.37460    2.97910
 4800.00000   10.95350  546.86650    2.20350    0.06030    2.49190    -999.25    0.09580    0.12750    1.82860    0.06030   90.46490   90.46490    1.82860    1.76130    1.76130    -999.25    0.34960    0.39300    2.80600  -30.07860   -2.96780    2.80600
 4850.00000   10.50180  691.70640    1.75180    0.08090    2.44010    -999.25    0.12720    0.15780    1.44570    0.08090   90.65310   90.65310    1.44570    1.40110    1.40110    -999.25    0.41590    0.44130    2.29520  -30.19530   -3.28220    2.29520
 4900.00000   10.22050  516.55560    1.47050    0.05780    2.49010    -999.25    0.09690    0.12860    1.93590    0.05780  100.19690  100.19690    1.93590    1.87620    1.87620    -999.25    0.33270    0.38030    3.14530  -30.41630   -3.70090    3.14530
 4950.00000   11.07420  666.48900    2.32420    0.07310    2.33420    -999.25    0.19140    0.21980    1.50040    0.07310   91.06410   91.06410    1.50040    1.45040    1.45040    -999.25    0.39460    0.42610    2.46290  -29.40140   -2.88370    2.46290
 5000.00000   10.90380  838.78550    2.15380    0.08950    2.39380    -999.25    0.15530    0.18490    1.19220    0.08950   88.80620   88.80620    1.19220    1.15500    1.15500    -999.25    0.38150    0.41660    1.83960  -26.36010   -0.04010    1.83960
 5050.00000   10.55000  662.95420    1.80000    0.09000    2.43830    -999.25    0.12830    0.15890    1.50840    0.09000   80.26070   80.26070    1.50840    1.47780    1.47780    -999.25    0.32170    0.37180    2.96300  -29.53600   -3.41370    2.96300
 5100.00000    9.86070  500.77620    1.11070    0.09730    2.40530    -999.25    0.14830    0.17820    1.99690    0.09730   79.72100   79.72100    1.99690    1.93090    1.93090    -999.25    0.31380    0.36570    3.06750  -30.38410   -4.45950    3.06750
 5150.00000    9.22940  727.64320    0.47940    0.10070    2.42210    -999.25    0.13810    0.16830    1.37430    0.10070   70.10660   70.10660    1.37430    1.41390    1.41390    -999.25    0.32560    0.37480    2.62060  -44.79160  -19.06470    2.62060
 5200.00000   11.15830  961.16880    2.40830    0.10000    2.31290    -999.25    0.20430    0.23220    1.04040    0.10000   85.93730   85.93730    1.04040    1.01330    1.01330    -999.25    0.43600    0.45530    1.71460  -27.62310   -2.09390    1.71460
 5250.00000   10.87980  693.33700    2.12980    0.06370    2.43340    -999.25    0.13130    0.16180    1.44230    0.06370   77.06940   77.06940    1.44230    1.39280    1.39280    -999.25    0.35670    0.39840    2.13830  -26.26040   -0.95820    2.13830
 5300.00000    8.97610  498.65370    0.22610    0.07430    2.46220    -999.25    0.11380    0.14490    2.00540    0.07430   77.70100   77.70100    2.00540    1.95220    1.95220    -999.25    0.30630    0.35990    3.08140  -28.56340   -3.70320    3.08140
 5350.00000    8.77060  506.79100    0.02060    0.10000    2.46240    -999.25    0.11370    0.14480    1.97320    0.10000   59.49310   59.49310    1.97320    1.90280    1.90280    -999.25    0.24020    0.30590    5.02190  -29.73120   -5.31290    5.02190
 5400.00000    8.99030  564.62080    0.24030    0.10000    2.45050    -999.25    0.12090    0.15170    1.77110    0.10000   72.21650   72.21650    1.77110    1.71810    1.71810    -999.25    0.31550    0.36700    3.29920  -27.49290   -3.51650    3.29920
 5450.00000   10.61680  850.70180    1.86680    0.10000    2.28850    -999.25    0.21910    0.24650    1.17550    0.10000   88.65680   88.65680    1.17550    1.15360    1.15360    -999.25    0.41480    0.44050    2.02550  -30.32380   -6.78930    2.02550
