~Version ---------------------------------------------------
VERS. 2.0 : CWLS log ASCII Standard -VERSION 2.0
WRAP.  NO : ONE LINE PER DEPTH STEP
~Well ------------------------------------------------------
STRT.F                    3800.0 : START DEPTH
STOP.F                    8500.0 : STOP DEPTH
STEP.F                  50.00000 : STEP LENGTH
NULL.                    -999.25 : NULL VALUE
COMP. CHAMPLIN PETROLEUM COMPANY : COMPANY
WELL.     MARYANN ZGABAY UNIT #1 : WELL
FLD .                   GIDDINGS : FIELD
LOC .                            : LOCATION
CNTY.                   BURLESON : COUNTY
STAT.                      TEXAS : STATE
CTRY.   UNITED STATES OF AMERICA : COUNTRY
SRVC.               Schlumberger : SERVICE COMPANY
DATE.                22-Jun-1980 : LOGDATE
API .             42051306560000 : API NUMBER
UWI .             42051306560000 : UNIQUE WELL ID
SLAT.WGS84         30.3487905786 : SURFACE LATITUDE
SLON.WGS84        -96.7442146113 : SURFACE LONGITUDE
~Curve Information -----------------------------------------
DEPT   .F                 : 
ILD    .OHMM 07 120 46 00 : INDUCTION DEEP RESISTIVITY
ILM    .OHMM 07 120 44 00 : INDUCTION MEDIUM RESISTIVITY
SFLU   .OHMM 07 220 01 00 : SHALLOW FOCUSED RESISTIVITY (UNAVERAGED)
SPR    .MV   07 010 01 00 : SPONTANEOUS POTENTIAL FROM RESISTIVITY LOG
GRR    .GAPI 07 310 01 00 : GAMMA RAY FROM RESISTIVITY LOG
DT     .US/F 60 500 00 00 : DELTA-T (INTERVAL TRANSIT TIME)
CALS   .IN   60 280 50 00 : CALIPER FROM SONIC LOG
DPHI_1 .DEC  45 890 00 00 : DENSITY POROSITY
GRS    .GAPI 60 310 01 00 : GAMMA RAY FROM SONIC LOG
SPHI   .DEC  60 890 00 00 : SONIC POROSITY
DPHI_SS.DEC  45 890 12 00 : DENSITY POROSITY SANDSTONE
NPHI_LS.DEC  42 890 01 00 : NEUTRON POROSITY LIMESTONE
DPHI_LS.DEC  45 890 10 00 : DENSITY POROSITY LIMESTONE
GRD    .GAPI 45 310 01 00 : GAMMA RAY FROM DENSITY LOG
CALD   .IN   45 280 60 00 : CALIPER FROM DENSITY LOG
RHOB   .G/C3 45 350 01 00 : BULK DENSITY
DRHO   .G/C3 45 356 01 00 : BULK DENSITY CORRECTION
NPHI_SS.DEC  42 890 03 00 : NEUTRON POROSITY SANDSTONE
~Params ----------------------------------------------------
PD  .                     GL : PERMANENT DATUM
EPD .FT                  279 : ELEVATION PERMANENT DATUM
LMF .                     KB : LOG MEASURED FROM
DAPD.FT                 16.3 : FEET ABOVE PERMANENT DATUM
DMF .                     KB : DRILLING MEASURED FROM
EKB .FT                295.3 : KELLY BUSHING
EDF .FT                294.3 : DRILLING FLOOR
EGL .FT                  279 : GROUND LEVEL
DATE.                6-22-80 : RUN DATE
RUN .                      1 : RUN NUMBER
DD  .FT                 8522 : DEPTH DRILLER
DL  .FT                 8523 : DEPTH LOGGER
BLI .FT                 8516 : BOTTOM LOG INTERVAL
TLI .FT                 3796 : TOP LOG INTERVAL
CS  .IN                9.625 : CASING SIZE
CBD .FT                 3784 : CASING BOTTOM DRILLER
CBL .FT                 3796 : CASING BOTTOM LOGGER
BS  .IN                 8.75 : BIT SIZE
BSD .FT                 8522 : BIT SIZE AT DEPTH
DFT .                 BEN-EX : DRILLING FLUID TYPE
DFD .                    9.5 : DRILLING FLUID DENSITY
DFV .                     44 : DRILLING FLUID VISCOSITY
DFPH.                    9.5 : DRILLING FLUID PH
DFL .                    6.6 : DRILLING FLUID LOSS
MSS .               MUD TANK : MUD SAMPLE SOURCE
RMS .OHMM               2.06 : RESISTIVITY MUD SAMPLE
MST .DEGF                 94 : MUD SAMPLE TEMPERATURE
RMF .OHMM               1.52 : RESISTIVITY MUD FILTRATE SAMPLE
MFST.DEGF                 94 : MUD FILTRATE SAMPLE TEMPERATURE
RMC .OHMM               3.04 : RESISTIVITY MUD CAKE
MCST.DEGF                 94 : MUD CAKE SAMPLE TEMPERATURE
MFSS.                      C : MUD FILTRATE SAMPLE SOURCE
MCSS.                      C : MUD CAKE SAMPLE SOURCE
RMB .OHMM              0.988 : RESISTIVITY MUD AT BHT
TCS .HRS                 300 : TIME CIRCULATED STOPPED
TLAB.HRS                1000 : TIME LOGGER AT BOTTOM
LUN .                   7750 : LOGGING UNIT NUMBER
LUL .                BRENHAM : LOGGING UNIT LOCATION
ENGI.            KRONEBITTER : RECORDING ENGINEER
WITN.             PRESTRIDGE : WITNESSED BY
CLNT.                A2DTECH : CLIENT CODE
ORIG.          1" 2.5" PRINT : ORIGIN OF DATA
UWI .         42051306560000 : UNIQUE WELL ID
DICO. A2D Technologies, Inc. : DIGITIZING COMPANY
~Other -----------------------------------------------------
~ASCII -----------------------------------------------------
 3800.00000   15.38850   98.10700   21.79100   -7.80960   34.82140  120.65840    -999.25    -999.25    -999.25    -999.25    0.28240    -999.25    -999.25   59.29200   10.47060    2.18600    0.01840    0.33570
 3850.00000    8.72070    9.31090   12.80140  -20.49000   30.22960  103.63560    -999.25    -999.25    -999.25    -999.25    0.30820    -999.25    -999.25   56.85790   10.11760    2.13840    0.02360    0.38290
 3900.00000    7.02900    8.15180   11.89780  -30.59100   25.00000  102.09580    -999.25    -999.25    -999.25    -999.25    0.27050    -999.25    -999.25   65.48740   10.11760    2.19010    0.04650    0.36340
 3950.00000    6.42390    7.28770   11.57230  -26.89310   22.09820  102.54490    -999.25    -999.25    -999.25    -999.25    0.32070    -999.25    -999.25   51.32710   10.42650    2.11610    0.04570    0.32900
 4000.00000    5.13080    5.60370    8.14030    4.02370   52.23210   94.91250    -999.25    -999.25    -999.25    -999.25    0.15490    -999.25    -999.25  108.67210   10.11760    2.39140    0.08850    0.36820
 4050.00000    7.12720    7.23750   11.71900   -1.44970   40.69920   91.16900    -999.25    -999.25    -999.25    -999.25    0.36620    -999.25    -999.25   91.88640   10.11770    2.25460    0.05090    0.34200
 4100.00000    5.32840    5.52680   10.03900  -11.36090   33.48210   94.01200    -999.25    -999.25    -999.25    -999.25    0.25770    -999.25    -999.25   70.73720    9.29410    2.22920    0.05970    0.37020
 4150.00000    6.24840    6.99160   10.95890  -22.30620   24.55580  100.00070    -999.25    -999.25    -999.25    -999.25    0.29130    -999.25    -999.25   48.67260    9.28570    2.17010    0.02900    0.36340
 4200.00000    6.87900    7.00440   10.44900  -18.16570   28.57430  100.99810    -999.25    -999.25    -999.25    -999.25    0.29570    -999.25    -999.25   52.87670    9.40880    2.16070    0.02730    0.33390
 4250.00000    6.57400    7.97290    9.88300  -18.90500   24.25610   96.40650    -999.25    -999.25    -999.25    -999.25    0.27700    -999.25    -999.25   55.45650    8.86760    2.15480    0.03690    0.35710
 4300.00000    4.09570    4.07700    7.43010   13.49190   44.64290   96.10780    -999.25    -999.25    -999.25    -999.25    0.21460    -999.25    -999.25   93.36320    9.44110    2.31250    0.09610    0.34080
 4350.00000    6.59790    8.38530   19.08940   -9.63380   26.78860   87.85290    -999.25    -999.25    -999.25    -999.25    0.23380    -999.25    -999.25   51.10600    8.58830    2.26190    0.07300    0.31070
 4400.00000    3.85940    3.94590    5.30190   14.67460   46.87500  100.29940    -999.25    -999.25    -999.25    -999.25    0.19660    -999.25    -999.25   93.36280    8.88250    2.33080    0.03070    0.39550
 4450.00000    4.79160    5.22930    9.88300  -79.11240   29.46430   94.76050    -999.25    -999.25    -999.25    -999.25    0.26370    -999.25    -999.25   62.16810    8.66180    2.20980    0.01180    0.34460
 4500.00000    3.88440    3.98020    6.52440  -41.04640   47.61900   98.12820    -999.25    -999.25    -999.25    -999.25    0.17720    -999.25    -999.25  101.76990    8.92010    2.35460    0.05040    0.35540
 4550.00000    4.45130    4.61730    6.47950  -45.53090   44.04760   95.06040    -999.25    -999.25    -999.25    -999.25    0.19220    -999.25    -999.25   97.34510    9.21010    2.32740    0.01680    0.36600
 4600.00000    3.01980    3.03300    4.94790  -22.60520   45.98210   96.40840    -999.25    -999.25    -999.25    -999.25    0.15080    -999.25    -999.25  100.00000   10.29090    2.40180    0.00960    0.30760
 4650.00000    2.97830    3.17860    9.32810  -49.57620   37.72410   96.85570    -999.25    -999.25    -999.25    -999.25    0.23920    -999.25    -999.25   74.55790    8.92650    2.25570    0.02210    0.39430
 4700.00000    3.16760    3.11910    4.36890  -30.29340   48.66070   95.80990    -999.25    -999.25    -999.25    -999.25    0.13800    -999.25    -999.25   84.51330    9.47060    2.42110    0.05830    0.35340
 4750.00000    2.78450    2.77330    4.70600  -17.59850   49.18170   97.64220    -999.25    -999.25    -999.25    -999.25    0.14330    -999.25    -999.25   99.85200    9.52940    2.41820    0.07890    0.32750
 4800.00000    2.77900    2.76800    4.49130  -21.12280   42.41050   97.00750    -999.25    -999.25    -999.25    -999.25    0.14670    -999.25    -999.25   93.36280    9.93810    2.42610    0.08920    0.34360
 4850.00000    2.22150    2.19320    3.59160  -14.31810   43.97450   97.95380    -999.25    -999.25    -999.25    -999.25    0.16030    -999.25    -999.25   95.35400    9.80880    2.38840    0.10100    0.36150
 4900.00000    2.52220    2.47810    4.49140  -15.20710   40.62500   95.66100    -999.25    -999.25    -999.25    -999.25    0.12580    -999.25    -999.25   92.47790   10.52940    2.43900    0.08380    0.32210
 4950.00000    1.77160    1.71290    3.91120  -16.53850   47.32070  102.39590    -999.25    -999.25    -999.25    -999.25    0.14960    -999.25    -999.25  102.43340   11.50000    2.39660    0.08550    0.38110
 5000.00000    1.68760    1.68250    3.91130  -10.47340   45.09070  102.39520    -999.25    -999.25    -999.25    -999.25    0.13940    -999.25    -999.25   93.81470   11.20590    2.42410    0.06420    0.38290
 5050.00000    1.96560    2.00000    3.92040   -9.88170   51.93450   97.25580    -999.25    -999.25    -999.25    -999.25    0.14250    -999.25    -999.25   97.34510   11.04200    2.42070    0.07640    0.32750
 5100.00000    1.85830    1.82820    4.32900   -9.58580   48.21430   97.00600    -999.25    -999.25    -999.25    -999.25    0.15670    -999.25    -999.25   95.57520   11.08970    2.37950    0.09660    0.31930
 5150.00000    1.57860    1.54850    3.65000   -8.15600   50.00150  100.74850    -999.25    -999.25    -999.25    -999.25    0.16030    -999.25    -999.25   92.92030   11.94120    2.38760    0.11280    0.35390
 5200.00000    1.47400    1.46960    3.45330   -6.33220   47.76790  102.39680    -999.25    -999.25    -999.25    -999.25    0.16140    -999.25    -999.25   96.68070   13.05880    2.37600    0.08330    0.35440
 5250.00000    1.80660    1.77580    4.10500   -8.40240   45.98510   98.18720    -999.25    -999.25    -999.25    -999.25    0.20620    -999.25    -999.25   96.45980   12.36760    2.29090    0.05680    0.36120
 5300.00000    1.39480    1.40980    3.40600   -7.80940   49.55190   98.20550    -999.25    -999.25    -999.25    -999.25    0.16920    -999.25    -999.25  104.71950   12.20590    2.37620    0.09220    0.35220
 5350.00000    1.29200    1.29730    3.35930   -4.70410   48.43840  101.59680    -999.25    -999.25    -999.25    -999.25    0.17050    -999.25    -999.25   97.34440   11.63230    2.37200    0.09290    0.35390
 5400.00000    0.93260    0.95660    2.15810   -4.72550   55.35620  111.37900    -999.25    -999.25    -999.25    -999.25    0.13790    -999.25    -999.25  110.36580   11.38240    2.42600    0.03170    0.40980
 5450.00000    1.87900    1.80890    3.85760  -10.07880   39.50980   92.06590    -999.25    -999.25    -999.25    -999.25    0.08990    -999.25    -999.25   85.08170   11.17650    2.50890    0.08130    0.28360
 5500.00000    2.02870    2.56040   20.56180  -29.11050   25.00000   82.03590    -999.25    -999.25    -999.25    -999.25    0.15400    -999.25    -999.25   56.19470    9.64710    2.39730    0.04640    0.24740
 5550.00000    1.07880    1.06870    3.35920   -5.44380   40.40180  110.62940    -999.25    -999.25    -999.25    -999.25    0.16840    -999.25    -999.25   95.79650   11.99510    2.36900    0.05310    0.41170
 5600.00000    1.51560    1.47640    3.96580   -3.07690   50.29730   99.10260    -999.25    -999.25    -999.25    -999.25    0.11120    0.32930    0.11100   88.93810   11.67640    2.46880    0.02160    0.32930
 5650.00000    2.04200    2.07050    4.16490   -5.96150   41.18280   89.29600    -999.25    -999.25    -999.25    -999.25    -999.25    0.23000    0.11470   77.65210   10.36760    2.49630    0.04790    -999.25
 5700.00000    1.97240    1.91190    3.31320   -4.85210   43.75110   91.31910    -999.25    -999.25    -999.25    -999.25    -999.25    0.25690    0.12950   80.53130   10.58820    2.49260    0.12170    -999.25
