~Version ---------------------------------------------------
VERS. 2.0 : CWLS log ASCII Standard -VERSION 2.0
WRAP.  NO : ONE LINE PER DEPTH STEP
~Well ------------------------------------------------------
STRT.F                   300.0 : START DEPTH
STOP.F                 12950.0 : STOP DEPTH
STEP.F                50.00000 : STEP LENGTH
NULL.                  -999.25 : NULL VALUE
COMP.        ADOBE OIL COMPANY : COMPANY
WELL.            REAGAN R L #1 : WELL
FLD .             BALD PRAIRIE : FIELD
LOC .                          : LOCATION
CNTY.                ROBERTSON : COUNTY
STAT.                    TEXAS : STATE
CTRY. UNITED STATES OF AMERICA : COUNTRY
SRVC.             Schlumberger : SERVICE COMPANY
DATE.              20-Jan-1977 : LOGDATE
API .           42395300370000 : API NUMBER
UWI .           42395300370000 : UNIQUE WELL ID
SLAT.WGS84        31.250529485 : SURFACE LATITUDE
SLON.WGS84      -96.4607191376 : SURFACE LONGITUDE
~Curve Information -----------------------------------------
DEPT.F                 : 
CILD.MMHO 07 110 46 00 : CONDUCTIVITY INDUCTION LOG DEEP
CALD.IN   45 280 60 00 : CALIPER FROM DENSITY LOG
DRHO.G/C3 45 356 01 00 : DENSITY CORRECTION
RHOB.G/C3 45 350 01 00 : BULK DENSITY
GRD .GAPI 45 310 01 00 : GAMMA RAY FROM DENSITY LOG
DPHI.DEC  45 890 10 00 : DENSITY POROSITY LIMESTONE
NPHI.DEC  42 890 01 00 : NEUTRON POROSITY LIMESTONE
SPR .MV   07 010 01 00 : SPONTANEOUS POTENTIAL FROM RES.
ALL8.OHMM 07 221 08 00 : AMPLIFIED LATEROLOG-8
ILD .OHMM 07 120 46 00 : INDUCTION LOG DEEP
~Params ----------------------------------------------------
PD  .                     GL : PERMANENT DATUM
EPD .F                   469 : ELEVATION PERMANENT DATUM
LMF .                     KB : LOG MEASURED FROM
DAPD.F                    20 : FEET ABOVE PERMANENT DATUM
DMF .                     KB : DRILLING MEASURED FROM
EKB .F                   489 : KELLING BUSHING
EDF .F                   488 : DRILLING FLOOR
EGL .F                   469 : GROUND LEVEL
DATE.              1-20-1977 : RUN DATE
RUN .                      1 : RUN NUMBER
DD  .F                 12948 : DEPTH DRILLER
DL  .F                 12954 : DEPTH LOGGER
BLI .F                 12948 : BOTTOM LOG INTERVAL
TLI .F                  4215 : TOP LOG INTERVAL
CS  .IN                9.625 : CASING SIZE
CBD .F                  4212 : CASING BOTTOM DRILLER
CBL .F                  4215 : CASING BOTTOM LOGGER
BS  .IN                 8.75 : BIT SIZE
BSD .F                 12948 : BIT SIZE AT DEPTH
DFT .                CLS/LCM : DRILLING FLUID TYPE
DFD .                   11.2 : DRILLING FLUID DENSITY
DFV .                     38 : DRILLING FLUID VISCOSITY
DFPH.                   11.0 : DRILLING FLUID PH
DFL .                   10.4 : DRILLING FLUID LOSS
MSS .               FLOWLINE : MUD SAMPLE SOURCE
RMS .OHMM               0.64 : RESISTIVITY MUD SAMPLE
MST .F                   104 : MUD SAMPLE TEMPERATURE
RMF .OHMM               0.66 : RESISTIVITY MUD FILTRATE SAMPLE
MFST.F                    66 : MUD FILTRATE SAMPLE TEMPERATURE
RMC .OHMM               0.91 : RESISTIVITY MUD CAKE
MCST.F                   104 : MUD CAKE SAMPLE TEMPERATURE
MFSS.                      M : MUD FILTRATE SAMPLE SOURCE
MCSS.                      C : MUD CAKE SAMPLE SOURCE
RMB .OHMM               0.25 : RESISTIVITY MUD AT BHT
TCS .HRS                1930 : TIME CURCULATED STOPPED
TLAB.HRS                1430 : TIME LOGGER AT BOTTOM
LUN .                   7720 : LOGGING UNIT NUMBER
LUL .                 PLEAS. : LOGGING UNIT LOCATION
ENGI.               BRENETTI : RECORDING ENGINEER
WITN.            DEFFENBANCH : WITNESSED BY
CLNT.                A2DTECH : CLIENT CODE
ORIG.               5" PRINT : ORIGIN OF DATA
UWI .         42395300370000 : UNIQUE WELL ID
DICO. A2D Technologies, Inc. : DIGITIZING COMPANY
~Other -----------------------------------------------------
~ASCII -----------------------------------------------------
# ...
 3600.00000    -999.25    -999.25    -999.25    -999.25   45.97660    -999.25    -999.25    -999.25    -999.25    -999.25
 3650.00000    -999.25    -999.25    -999.25    -999.25   44.42480    -999.25    -999.25    -999.25    -999.25    -999.25
 3700.00000    -999.25    -999.25    -999.25    -999.25   43.85340    -999.25    -999.25    -999.25    -999.25    -999.25
 3750.00000    -999.25    -999.25    -999.25    -999.25   46.86180    -999.25    -999.25    -999.25    -999.25    -999.25
 3800.00000    -999.25    -999.25    -999.25    -999.25   49.74150    -999.25    -999.25    -999.25    -999.25    -999.25
 3850.00000    -999.25    -999.25    -999.25    -999.25   40.54580    -999.25    -999.25    -999.25    -999.25    -999.25
 3900.00000    -999.25    -999.25    -999.25    -999.25   41.02660    -999.25    -999.25    -999.25    -999.25    -999.25
 3950.00000    -999.25    -999.25    -999.25    -999.25   38.77400    -999.25    -999.25    -999.25    -999.25    -999.25
 4000.00000    -999.25    -999.25    -999.25    -999.25   23.15360    -999.25    -999.25    -999.25    -999.25    -999.25
 4050.00000    -999.25    -999.25    -999.25    -999.25   22.04710    -999.25    -999.25    -999.25    -999.25    -999.25
 4100.00000    -999.25    -999.25    -999.25    -999.25   24.70460    -999.25    -999.25    -999.25    -999.25    -999.25
 4150.00000    -999.25    -999.25    -999.25    -999.25   19.77170    -999.25    0.31070    -999.25    -999.25    -999.25
 4200.00000    -999.25    -999.25    -999.25    -999.25   23.97240    -999.25    0.25890    -999.25    -999.25    -999.25
 4250.00000  464.46730   13.56760    0.01280    2.47920   48.49040    0.17140    0.20960  -53.88100    4.05130    2.78640
 4300.00000 1445.26680   11.95400    0.03480    2.17070   84.49930    0.28830    0.40360  -46.38420    1.33700    0.57100
 4350.00000  862.27070   16.52600    0.06530    2.45470   80.30360    0.15760    0.35040  -43.48730    1.61440    0.91330
 4400.00000  870.20540   16.93680    0.04460    2.41380   78.75600    0.18260    0.33450  -42.16050    1.59380    0.89780
 4450.00000  783.17040   16.89680    0.05630    2.45620   77.43280    0.17320    0.32280  -42.42610    1.74770    1.11450
 4500.00000  826.53810   16.83950    0.02210    2.45620   75.66310    0.16250    0.31530  -40.83370    1.69230    0.95980
 4550.00000  948.10970   16.85360    0.04300    2.47550   84.05740    0.15220    0.31080  -42.49230    1.69640    0.74300
 4600.00000  557.89590   16.86850    0.03650    2.49850   84.05790    0.13040    0.28180  -44.61520    2.58670    1.45510
 4650.00000  533.06400   16.83770    0.00740    2.40640   86.15730    0.18480    0.30060  -43.02300    2.95180    1.69760
 4700.00000  392.87520   15.95980    0.00450    2.44870   76.76730    0.15000    0.29330  -43.75280    4.15380    2.22220
 4750.00000  689.75430   16.82700    0.04560    2.44800   70.14230    0.17450    0.32860  -43.08930    2.31380    1.27790
 4800.00000 1248.13500   16.85040    0.02530    1.90710   55.56000    0.49050    0.44930  -39.63970    1.35180    0.58820
 4850.00000 1056.52720   16.81470   -0.05280    1.44060   41.86370    -999.25    0.44770  -36.43300    1.43800    0.61920
 4900.00000   89.40080   12.94730    0.01340    2.66050   12.26140    0.01690    0.01510  -54.72140   20.02670   11.98140
 4950.00000  212.59960   13.60510    0.01560    2.63970   24.41120    0.04390    0.10520  -50.56110    6.26670    4.49950
 5000.00000  522.60930   15.23100    0.03050    2.50000   37.61000    0.08180    0.17140  -41.91180    2.96830    1.97110
 5050.00000  160.85850   13.03020    0.00370    2.65750   20.67820    0.02950    0.04220  -47.19430   10.22560    7.37530
 5100.00000   75.62780   12.26640    0.01120    2.65680   13.41830    0.03680    0.02350  -59.52010   20.02050   11.76820
 5150.00000   83.76570   12.36430    0.01120    2.67610   14.29550    0.03050    0.02170  -60.08140   19.39200   11.62020
 5200.00000  159.11100   12.52800    0.01560    2.65450   21.55310    0.03260    0.04580  -46.67190   11.85520    6.34690
 5250.00000  105.99710   12.48920    0.01560    2.68420   16.71550    0.01980    0.02840  -46.96210   15.95770    9.94150
 5300.00000  114.30630   12.69330    0.04020    2.62780   17.59620    0.02210    0.03950  -48.68410   13.92640   11.45540
 5350.00000  111.93480   12.51820    0.01120    2.67460   19.57610    0.01790    0.07540  -45.89780   15.42530    8.81060
 5400.00000   60.63810   11.05040    0.08080    2.63520   17.37670    0.04070    0.08180  -46.98140   18.70060   12.13550
 5450.00000  177.35770   12.25670    0.08110    2.49930   52.12710    0.14180    0.31530  -48.45200    6.21590    3.28340
 5500.00000  110.15390   11.54500    0.04240    2.65010   28.81230    0.03710    0.12590  -72.98850   18.01210    9.50480
 5550.00000  252.96280   11.99280    0.05800    2.62260   38.48770    0.04780    0.17920  -45.12380    8.82250    3.48040
 5600.00000   73.31180   10.89130    0.02830    2.66940   28.81230    0.01430    0.05400  -57.97190   23.94720   13.88040
 5650.00000  260.93410   11.26160    0.00070    2.61370   42.62210    0.05890    0.14400  -43.57590    6.77360    3.90090
 5700.00000  202.07960   11.77370    0.02750    2.66200   43.61190    0.03930    0.15330  -43.73060    6.29060    3.66350
 5750.00000  231.43160   11.51340    0.01340    2.56540   64.22630    0.08480    0.21640  -44.81420    5.98160    3.92930
 5800.00000  163.82510   11.05700    0.00000    2.60400   34.97930    0.08170    0.12920  -44.81410    9.71370    5.49540
 5850.00000   66.35150   10.46030    0.00970    2.65210   30.41740    0.03620    0.06030  -48.83900   21.97010   12.06660
 5900.00000  299.81740   12.03670    0.04020    2.57140   36.78620    0.06230    0.20800  -43.88540    4.86740    2.41490
 5950.00000  835.42630   14.59380    0.02830    1.86290   47.66210    0.46450    0.43060  -40.41770    2.40380    1.08100
 6000.00000  295.30650   11.07300    0.10950    2.49040   36.80450    0.16910    0.22670  -42.27540    3.76690    3.00830
 6050.00000  429.95910   11.52150    0.03870    2.62910   35.73450    0.01920    0.12280  -42.81780    3.74070    1.89630
 6100.00000  115.67880   10.69370    0.01340    2.65280   29.53970    0.02860    0.03450  -44.62850   12.06540    8.82350
 6150.00000  109.34310   10.69340   -0.00890    2.65160   25.58570    0.02370    0.04830  -46.43960   13.69440    8.45700
 6200.00000   63.89860   10.66360    0.01120    2.67980   37.24560    0.01660    0.02460  -46.61000   36.22290   16.38270
 6250.00000  374.34550   12.27020    0.04170    2.50000   31.15050    0.06880    0.07280  -45.34390    5.60370    4.17600
 6300.00000  141.35930   11.81790    0.01340    2.64580   36.41970    0.03310    0.09920  -44.90710    8.14240    7.85190
 6350.00000   87.62280   10.98800    0.00300    2.67160   53.03980    0.01060    0.04850  -44.87600   18.43100    9.13590
 6400.00000   97.10900   10.69280    0.00890    2.66390   37.54320    0.03130    0.05700  -42.33760   21.39920    9.37040
 6450.00000  252.94780   11.68970    0.08050    2.59210   39.37790    0.02530    0.11410  -40.68280    3.84160    5.53080
 6500.00000  549.33530   14.32850    0.07680    1.91540   54.13770    0.43460    0.37540  -41.56420    2.30860    1.50620
 6550.00000   85.98530   10.90390    0.00820    2.63200   41.22360    0.05170    0.12220  -42.95680   21.75840    9.21270
 6600.00000   79.31800   10.67420    0.02160    2.67800   27.63560    0.01210    0.04500  -43.88540   23.25100   14.44450
 6650.00000   78.58480   10.30400    0.01270    2.67210   32.61230    0.00980    0.06230  -46.91350   39.99660   12.25310
 6700.00000   59.45090   10.89010    0.04210    2.68180   20.89140    0.00770    0.00800  -46.20740   47.85150   16.21380
 6750.00000  186.17870   10.28470   -0.01640    2.49630   37.66510    0.15080    0.21590  -42.67620    7.42930    4.92260
 6800.00000  115.27030   10.54260    0.05590    2.66990   28.36370    0.03520    0.09970  -42.02790   11.69770   10.16510
 6850.00000  193.18720   11.50640    0.02650    2.52070   38.43610    0.06340    0.13840  -37.84830    8.50930    4.13840
