~Version ---------------------------------------------------
VERS. 2.0 : CWLS log ASCII Standard -VERSION 2.0
WRAP.  NO : ONE LINE PER DEPTH STEP
~Well ------------------------------------------------------
STRT.F                     600.0 : START DEPTH
STOP.F                    4800.0 : STOP DEPTH
STEP.F                  50.00000 : STEP LENGTH
NULL.                    -999.25 : NULL VALUE
COMP. CONVEST ENERGY CORPORATION : COMPANY
WELL.             J. L. MILLS #1 : WELL
FLD .                         WC : FIELD
LOC .                            : LOCATION
CNTY.                     WILSON : COUNTY
STAT.                      TEXAS : STATE
CTRY.   UNITED STATES OF AMERICA : COUNTRY
SRVC.               Schlumberger : SERVICE COMPANY
DATE.                08-Jul-1977 : LOGDATE
API .             42493303910000 : API NUMBER
UWI .             42493303910000 : UNIQUE WELL ID
SLAT.WGS84         29.1940227328 : SURFACE LATITUDE
SLON.WGS84        -98.1349556038 : SURFACE LONGITUDE
~Curve Information -----------------------------------------
DEPT.F                 : 
DT  .MS/F 60 500 00 00 : DELTA-T (INTERVAL TRANSIT TIME)
SPR .MV   07 010 01 00 : SPONTANEOUS POTENTIAL FROM RESISTIVITY LOG
GRN .GAPI 35 310 01 00 : GAMMA RAY FROM GRN LOG
NEUT.NAPI 35 330 01 00 : NEUTRON
CALD.IN   45 280 60 00 : CALIPER FROM DENSITY LOG
GRD .GAPI 45 310 01 00 : GAMMA RAY FROM DENSITY LOG
RHOB.G/C3 45 350 01 00 : BULK DENSITY
CORR.G/C3 45 356 01 00 : DENSITY CORRECTION
DPHI.DEC  45 890 01 00 : DENSITY POROSITY
ILM .OHMM 07 120 44 00 : INDUCTION MEDIUM RESISTIVITY
LL8 .OHMM 07 220 08 00 : LATEROLOG 8
ILD .OHMM 07 120 46 00 : INDUCTION DEEP RESISTIVITY
~Params ----------------------------------------------------
PD  .                     GL : PERMANENT DATUM
EPD .FT                490.8 : ELEVATION PERMANENT DATUM
LMF .                     KB : LOG MEASURED FROM
DAPD.FT                   11 : FEET ABOVE PERMANENT DATUM
DMF .                     KB : DRILLING MEASURED FROM
EKB .FT                501.8 : KELLY BUSHING
EDF .FT                500.8 : DRILLING FLOOR
EGL .FT                490.8 : GROUND LEVEL
DATE.                 7/8/77 : RUN DATE
RUN .                      1 : RUN NUMBER
DD  .FT                 4805 : DEPTH DRILLER
DL  .FT                 4831 : DEPTH LOGGER
BLI .FT                 4825 : BOTTOM LOG INTERVAL
TLI .FT                  594 : TOP LOG INTERVAL
CS  .IN                8.625 : CASING SIZE
CBD .FT                  595 : CASING BOTTOM DRILLER
CBL .FT                  594 : CASING BOTTOM LOGGER
BS  .IN                7.875 : BIT SIZE
BSD .FT                 4805 : BIT SIZE AT DEPTH
DFT .         RD 111 LIG CMC : DRILLING FLUID TYPE
DFD .                   10.1 : DRILLING FLUID DENSITY
DFV .                     56 : DRILLING FLUID VISCOSITY
DFPH.                     10 : DRILLING FLUID PH
DFL .                    6.6 : DRILLING FLUID LOSS
MSS .                    PIT : MUD SAMPLE SOURCE
RMS .OHMM               1.86 : RESISTIVITY MUD SAMPLE
MST .DEGF                 91 : MUD SAMPLE TEMPERATURE
RMF .OHMM               1.65 : RESISTIVITY MUD FILTRATE SAMPLE
MFST.DEGF                 91 : MUD FILTRATE SAMPLE TEMPERATURE
RMC .OHMM                1.5 : RESISTIVITY MUD CAKE
MCST.DEGF                 91 : MUD CAKE SAMPLE TEMPERATURE
MFSS.                  CHART : MUD FILTRATE SAMPLE SOURCE
MCSS.                  CHART : MUD CAKE SAMPLE SOURCE
RMB .OHMM               1.18 : RESISTIVITY MUD AT BHT
TCS .HRS                 630 : TIME CIRCULATED STOPPED
TLAB.HRS                1300 : TIME LOGGER AT BOTTOM
LUN .                   7799 : LOGGING UNIT NUMBER
LUL .                  PLEAS : LOGGING UNIT LOCATION
ENGI.                  OSTER : RECORDING ENGINEER
WITN.                  CLARK : WITNESSED BY
CLNT.                A2DTECH : CLIENT CODE
ORIG.        1" 5" 25" PRINT : ORIGIN OF DATA
UWI .         42493303910000 : UNIQUE WELL ID
DICO. A2D Technologies, Inc. : DIGITIZING COMPANY
~Other -----------------------------------------------------
~ASCII -----------------------------------------------------
# ...
 3400.00000  124.65750  -45.96580    -999.25    -999.25    9.35200   88.83170    2.33120    0.08790    0.20660    1.14250    1.70750    1.29210
 3450.00000  125.52050  -48.98460    -999.25    -999.25   11.03820   89.57440    2.19530    0.13410    0.25110    1.35200    1.86160    1.55090
 3500.00000  124.74400  -47.11990    -999.25    -999.25    8.94730   90.53070    2.26170    0.14560    0.23260    1.28970    1.82720    1.47420
 3550.00000  102.07460  -51.54700    -999.25    -999.25    7.95630   83.37610    2.43100    0.13080    0.14940    2.21750    3.81370    2.66490
 3600.00000  109.18050  -54.94710    -999.25    -999.25    9.46260   90.50370    2.38400    0.17540    0.18320    1.66010    2.34120    1.90310
 3650.00000  118.09170  -55.17190    -999.25    -999.25   10.13680   91.80930    2.17450    0.14110    0.23730    1.30120    1.85450    1.48590
 3700.00000  106.77900  -57.21330    -999.25    -999.25    8.05780   74.96030    2.43430    0.02520    0.12230    2.29010    3.31850    2.51690
 3750.00000  117.24920  -58.50020    -999.25    -999.25   10.29830   95.02630    2.35110    0.13740    0.19600    1.42100    1.95490    1.59370
 3800.00000  102.20630  -52.94240    -999.25    -999.25    8.58000   84.43510    2.46580    0.10070    0.11980    2.27550    3.12850    2.68110
 3850.00000  106.55740  -48.53630    -999.25    -999.25    8.81900   90.94900    2.36600    0.12500    0.16910    1.58010    2.15190    1.83460
 3900.00000  118.84170  -42.57050    -999.25    -999.25    9.36440  136.22860    2.28470    0.10570    0.30140    0.87670    1.05340    1.06120
 3950.00000  107.99480  -41.30060    -999.25    -999.25    9.63160   95.03950    2.36400    0.09810    0.16860    1.61020    2.05400    1.87180
 4000.00000  104.37960  -38.68420   43.60730  434.78490    8.59870  103.66340    2.39820    0.03550    0.17860    1.32800    1.79520    1.50090
 4050.00000   96.93680  -45.82450   43.84160  444.59060    8.30590   89.08050    2.40230    0.02950    0.14930    2.44890    3.00150    2.78250
 4100.00000  116.06030  -38.99320   47.30210  285.86250   10.57570  109.81420    2.30870    0.03570    0.19750    1.02790    1.46220    1.20330
 4150.00000  119.59990  -40.57270   51.70500  232.80330   10.63930  111.52080    2.32270    0.10960    0.19920    0.95670    1.43630    1.14700
 4200.00000  111.68580  -42.90820   54.12940  256.51040   11.69340  105.69560    2.36270    0.03280    0.15870    1.36070    1.85270    1.54720
 4250.00000   95.57630  -43.40740   55.48470  348.61050   11.46070   99.42210    2.43960    0.02590    0.11820    2.04050    2.65460    2.37400
 4300.00000  103.29350  -45.08110   55.12460  297.24480   10.68010  102.58670    2.43650    0.04660    0.13650    1.79480    2.30040    1.98410
 4350.00000   90.94400  -44.38340   49.04450  120.60260    9.87530   74.80180    2.53710    0.00290    0.11470    2.98200    3.32330    3.35200
 4400.00000   86.39410  -43.64130   38.78450   87.92200    9.80160   60.54900    2.54570   -0.00420    0.07900    3.62540    4.72140    4.11300
 4450.00000   98.29520  -34.15390   39.77160  132.41660    9.95370   67.10180    2.45540    0.00980    0.12670    2.80700   17.84800    7.63900
 4500.00000   92.89020  -23.25680   41.13870  125.42560   10.25760   74.36220    2.52570    0.00580    0.11700    2.51100    3.22300    2.41700
 4550.00000   83.90370  -28.92260   32.70940  280.10790    9.64740   51.14080    2.52680    0.00230    0.12190    3.54000    4.21400    3.37000
 4600.00000   80.65940  -32.25190   28.31590  132.96010   10.64970   46.65760    2.55240    0.01410    0.10020    3.06100    4.70700    3.58800
 4650.00000   72.11450  -41.23170   29.20330  293.60750    9.25420   46.83760    2.57310    0.01150    0.07100    4.95200    7.42800    5.36300
 4700.00000   66.16180  -41.81710   15.33540  429.66140    8.41900   29.59290    2.61350    0.00450    0.06890    8.71300   13.78200    9.62500
 4750.00000   98.36080  -24.27610   67.11530  102.58970    8.48850  112.95640    2.42320    0.00920    0.18250    4.58400    8.75800    4.95200
 4800.00000   58.38740  -76.80000   11.65860  625.31870    8.05850   24.48530    2.62790    0.01730    0.04580    6.58800    8.18600    7.08100
