~Version ---------------------------------------------------
VERS. 2.0 : CWLS log ASCII Standard -VERSION 2.0
WRAP.  NO : ONE LINE PER DEPTH STEP
~Well ------------------------------------------------------
STRT.F                   2550.0 : START DEPTH
STOP.F                  14350.0 : STOP DEPTH
STEP.F                 50.00000 : STEP LENGTH
NULL.                   -999.25 : NULL VALUE
COMP. GENERAL CRUDE OIL COMPANY : COMPANY
WELL.    A G HENKES GAS UNIT #1 : WELL
FLD .                   WILDCAT : FIELD
LOC .                           : LOCATION
CNTY.                    LAVACA : COUNTY
STAT.                     TEXAS : STATE
CTRY.  UNITED STATES OF AMERICA : COUNTRY
SRVC.                   Unknown : SERVICE COMPANY
DATE.               29-Aug-1977 : LOGDATE
API .            42285307220000 : API NUMBER
UWI .            42285307220000 : UNIQUE WELL ID
SLAT.WGS84        29.3839239903 : SURFACE LATITUDE
SLON.WGS84       -96.9359395822 : SURFACE LONGITUDE
~Curve Information -----------------------------------------
DEPT   .F    0   1   0  0 : 1 MEASURED DEPTH
SPR    .MV   06 010 01 00 : SPONTANEOUS POTENTIAL FROM RESISTIVITY LOG
CALR   .IN   06 280 01 00 : CALIPER FROM RESISTIVITY LOG
ILD    .OHMM 06 120 46 00 : INDUCTION DEEP RESISTIVITY
ILM    .OHMM 06 120 44 00 : INDUCTION MEDIUM RESISTIVITY
LL8    .OHMM 06 220 08 00 : LATEROLOG 8
DT     .US/F 60 500 00 00 : DELTA-T (INTERVAL TRANSIT TIME)
CALD   .IN   45 280 60 00 : CALIPER FROM DENSITY LOG
DPHI_SS.DEC  45 890 10 00 : DENSITY POROSITY SANDSTONE
NPHI_LS.DEC  42 890 01 00 : NEUTRON POROSITY LIMESTONE
DPHI_LS.DEC  45 890 10 00 : DENSITY POROSITY LIMESTONE
RHOB   .G/C3 45 350 01 00 : BULK DENSITY
CORR   .G/C3 45 356 01 00 : DENSITY CORRECTION
GRD    .GAPI 45 310 01 00 : GAMMA RAY FROM DENSITY LOG
~Params ----------------------------------------------------
PD  .                     GL : PERMANENT DATUM
EPD .FT                  260 : ELEVATION PERMANENT DATUM
LMF .                     KB : LOG MEASURED FROM
DAPD.FT                   18 : FEET ABOVE PERMANENT DATUM
DMF .                     KB : DRILLING MEASURED FROM
EKB .FT                  278 : KELLY BUSHING
EDF .FT                  277 : DRILLING FLOOR
EGL .FT                  260 : GROUND LEVEL
DATE.              8-29-1977 : RUN DATE
RUN .                      4 : RUN NUMBER
DD  .FT                14505 : DEPTH DRILLER
DL  .FT                14401 : DEPTH LOGGER
BLI .FT                14394 : BOTTOM LOG INTERVAL
TLI .FT                13663 : TOP LOG INTERVAL
CS  .IN                    7 : CASING SIZE
CBD .FT                13646 : CASING BOTTOM DRILLER
CBL .FT                13663 : CASING BOTTOM LOGGER
BS  .IN                    6 : BIT SIZE
DFT .                CLS-LIG : DRILLING FLUID TYPE
DFD .                    1.6 : DRILLING FLUID DENSITY
DFV .                     45 : DRILLING FLUID VISCOSITY
DFPH.                    1.0 : DRILLING FLUID PH
DFL .                    3.8 : DRILLING FLUID LOSS
MSS .               CIRC PIT : MUD SAMPLE SOURCE
RMS .OHMM              0.865 : RESISTIVITY MUD SAMPLE
MST .DEGF                 75 : MUD SAMPLE TEMPERATURE
RMF .OHMM               0.57 : RESISTIVITY MUD FILTRATE SAMPLE
MFST.DEGF                 75 : MUD FILTRATE SAMPLE TEMPERATURE
RMC .OHMM                1.3 : RESISTIVITY MUD CAKE
MCST.DEGF                 75 : MUD CAKE SAMPLE TEMPERATURE
MFSS.               MEASURED : MUD FILTRATE SAMPLE SOURCE
MCSS.             CALCULATED : MUD CAKE SAMPLE SOURCE
LUN .                   8005 : LOGGING UNIT NUMBER
LUL .                   VICT : LOGGING UNIT LOCATION
CLNT.                A2DTECH : CLIENT CODE
ORIG.            2" 5" PRINT : ORIGIN OF DATA
UWI .         42285307220000 : UNIQUE WELL ID
DICO. A2D Technologies, Inc. : DIGITIZING COMPANY
~Other -----------------------------------------------------
~ASCII -----------------------------------------------------
# ...
 10350.00000  -14.99400    -999.25    1.26510    1.26620    1.49170   91.95210   13.14890    0.18860    0.35900    -999.25    2.36330   -0.13260    -999.25
 10400.00000  -15.54800    -999.25    1.98150    2.02800    2.12000   83.40250   12.89080    0.09260    0.25660    -999.25    2.52480   -0.01050    -999.25
 10450.00000  -14.83330    -999.25    1.09430    1.11610    1.31220   98.14030   13.01330    0.15700    0.34490    -999.25    2.41400   -0.04670    -999.25
 10500.00000  -14.30960    -999.25    1.01900    1.03660    1.22010  100.34790   14.56140    0.17040    0.34270    -999.25    2.39550   -0.06420    -999.25
 10550.00000  -14.12720    -999.25    1.12960    1.11090    1.28380   99.67010   14.72430    0.13390    0.36510    -999.25    2.44640   -0.04860    -999.25
 10600.00000  -15.35620    -999.25    1.22680    1.20890    1.24690  101.84460   12.03790    0.14200    0.33370    -999.25    2.44420   -0.01660    -999.25
 10650.00000  -27.66490    -999.25    2.53670    2.25430    1.70260   86.60570   16.39380    0.16490    0.20700    -999.25    2.40090    0.00900    -999.25
 10700.00000  -21.44990    -999.25    1.12110    1.08260    1.08210   99.13370   20.49510    0.15840    0.30460    -999.25    2.41400   -0.01370    -999.25
 10750.00000  -20.13020    -999.25    0.88210    0.86000    1.07780  109.09320   18.87190    0.13770    0.27940    -999.25    2.44990   -0.00430    -999.25
 10800.00000  -18.15140    -999.25    2.14550    2.10840    2.24070   88.77170   11.52460    0.08190    0.24090    -999.25    2.54060    0.01350    -999.25
 10850.00000  -17.56490    -999.25    2.42420    2.35600    2.98490   82.06530   11.47450    0.08780    0.26840    -999.25    2.53170   -0.00700    -999.25
 10900.00000  -16.62400    -999.25    2.05420    2.00320    2.08580   87.33390   14.21270    0.06760    0.28400    -999.25    2.56080   -0.00270    -999.25
 10950.00000  -17.74580    -999.25    1.78270    1.72170    2.00920   90.11750   13.90940    0.10890    0.33710    -999.25    2.49420   -0.03480    -999.25
 11000.00000  -19.77030    -999.25    2.45790    2.39940    2.76290   91.15100   11.32180    0.08690    0.23730    -999.25    2.53500   -0.00220    -999.25
 11050.00000  -44.71810    -999.25   12.23920   11.94820   10.89980   78.06740    9.00870    0.20130    0.15980    -999.25    2.34660   -0.03310    -999.25
 11100.00000  -18.10130    -999.25    3.22000    3.37850    3.69940   79.85720   11.53930    0.08210    0.16970    -999.25    2.54450    0.00540    -999.25
 11150.00000  -17.79950    -999.25    2.69780    2.69650    2.70320   78.52040   11.41750    0.06510    0.23110    -999.25    2.56680    0.00370    -999.25
 11200.00000  -20.35670    -999.25    2.69230    2.56130    2.26550   84.11430   13.68670    0.14050    0.26580    -999.25    2.43430   -0.04820    -999.25
 11250.00000  -25.67070    -999.25    2.86490    2.85740    2.98000   79.00260   11.59550    0.10100    0.21690    -999.25    2.50430    0.00350    -999.25
 11300.00000  -18.92550    -999.25    2.58570    2.70360    2.60880   81.78580   11.34410    0.07900    0.26840    -999.25    2.54630   -0.00040    -999.25
 11350.00000  -18.32760    -999.25    2.93290    2.90980    3.24360   81.29290   11.43550    0.05880    0.23530    -999.25    2.58270    0.01180    -999.25
 11400.00000  -18.73420    -999.25    3.42870    3.52520    3.30770   79.54820   11.30450    0.05820    0.24000    -999.25    2.57800    0.00350    -999.25
 11450.00000  -19.90070    -999.25    3.39630    3.44700    3.85140   79.80650   11.50510    0.05910    0.21240    -999.25    2.58040    0.00180    -999.25
 11500.00000  -20.64920    -999.25    4.52330    4.46600    4.35000   76.70020   11.87030    0.06080    0.20460    -999.25    2.57530    0.00050    -999.25
 11550.00000  -19.06280    -999.25    3.30430    3.36820    3.39540   80.47490   12.41920    0.05950    0.26100    -999.25    2.57800   -0.00510    -999.25
 11600.00000  -18.57000    -999.25    2.64720    2.67490    2.78110   84.12560   12.66390    0.07820    0.28050    -999.25    2.54630   -0.02330    -999.25
 11650.00000  -18.80160    -999.25    1.86180    1.90620    2.04960   90.38030   14.56710    0.12890    0.35420    -999.25    2.46070   -0.03470    -999.25
 11700.00000  -18.10790    -999.25    2.49080    2.56710    2.92390   81.62780   12.60330    0.08380    0.27380    -999.25    2.53850    0.00050    -999.25
 11750.00000  -18.72890    -999.25    1.78550    1.74640    1.91830   87.08810   14.74370    0.14290    0.34830    -999.25    2.44500   -0.03730    -999.25
 11800.00000  -19.17570    -999.25    2.30350    2.46840    2.72500   83.54360   16.07870    0.12030    0.30060    -999.25    2.47490   -0.03210    -999.25
 11850.00000  -19.51370    -999.25    2.38040    2.26010    2.72070   83.90330   15.49640    0.14180    0.32730    -999.25    2.44730   -0.03470    -999.25
 11900.00000  -17.64760    -999.25    2.34330    2.43550    2.67480   86.98830   13.40550    0.10110    0.31170    -999.25    2.51430   -0.01670    -999.25
 11950.00000  -16.78150    -999.25    2.95100    3.03750    3.22360   84.44940   11.95150    0.07830    0.25120    -999.25    2.54800   -0.00440    -999.25
 12000.00000  -17.11390    -999.25    2.22540    2.16900    2.45790   86.74150   13.06020    0.12400    0.26770    -999.25    2.47160   -0.02030    -999.25
 12050.00000  -18.48990    -999.25    2.74400    3.07760    3.38700   80.68670   12.24500    0.04930    0.19010    -999.25    2.59380   -0.00620    -999.25
 12100.00000  -19.15620    -999.25    2.71930    2.65470    3.03110   83.11020   13.03090    0.08380    0.22050    -999.25    2.53770   -0.01620    -999.25
 12150.00000  -16.66990    -999.25    3.21920    3.38600    3.74220   81.36990   12.37900    0.06300    0.21870    -999.25    2.57200    0.00280    -999.25
 12200.00000  -19.10520    -999.25    2.82900    2.92100    3.30300   82.63100   12.25140    0.06020    0.19820    -999.25    2.57650   -0.00230    -999.25
 12250.00000  -20.37730    -999.25    4.95670    4.01530    3.76630   82.82240   10.96760    0.08900    0.20970    -999.25    2.52880   -0.01110    -999.25
 12300.00000  -19.51050    -999.25    3.92000    3.51040    3.46450   78.67850   12.43820    0.09540    0.20450    -999.25    2.51770    0.01590    -999.25
 12350.00000  -18.08160    -999.25    2.95730    2.79150    2.78440   80.11020   13.49500    0.12950    0.21990    -999.25    2.47030   -0.03450    -999.25
 12400.00000  -21.83570    -999.25    2.89520    2.83730    2.67070   79.36690   13.58490    0.11340    0.25280    -999.25    2.48130   -0.02680    -999.25
 12450.00000  -18.37460    -999.25    2.58940    2.60740    2.79900   80.44000   12.03820    0.07600    0.19040    -999.25    2.54950   -0.00650    -999.25
 12500.00000  -19.27890    -999.25    2.48680    2.36980    2.06540   85.45870   13.95790    0.12890    0.29640    -999.25    2.46260   -0.03560    -999.25
 12550.00000  -19.32660    -999.25    5.71390    5.93520    6.53860   69.55310   10.20160    0.06930    0.17750    -999.25    2.55980   -0.00400    -999.25
 12600.00000  -19.34210    -999.25    5.30120    5.02210    4.77290   76.57080   12.42340    0.06680    0.35760    -999.25    2.56290   -0.00050    -999.25
 12650.00000  -19.00370    -999.25    2.29670    2.44690    2.52400   82.18260   13.54010    0.13620    0.29660    -999.25    2.45600   -0.01580    -999.25
 12700.00000  -18.49900    -999.25    3.21060    3.11330    3.80830   78.88230   12.21440    0.07130    0.23100    -999.25    2.56040   -0.00680    -999.25
 12750.00000  -17.56770    -999.25    2.40200    2.44710    2.70060   85.00840   12.87590    0.07170    0.22480    -999.25    2.55700   -0.00300    -999.25
 12800.00000  -18.09630    -999.25    2.18500    2.22510    2.60120   85.43690   12.42840    0.08090    0.22940    -999.25    2.54350   -0.00090    -999.25
 12850.00000  -17.45940    -999.25    2.35090    2.42380    2.62090   85.63820   12.89880    0.08220    0.22100    -999.25    2.54220   -0.01120    -999.25
 12900.00000  -18.24350    -999.25    3.05320    3.13760    3.54480   78.38820   12.44280    0.03220    0.18830    -999.25    2.61870    0.00200    -999.25
