~Version ---------------------------------------------------
VERS.      2.0 : CWLS log ASCII Standard -VERSION 2.0
WRAP.      YES : Multiple lines per depth step
CREA. 02/26/13 : LAS Creation Date
~Well ------------------------------------------------------
STRT.FT                 2300.0 : START DEPTH
STOP.FT                 9950.0 : STOP DEPTH
STEP.FT               50.00000 : STEP LENGTH
NULL.                  -999.25 : NULL VALUE
COMP.       APACHE CORPORATION : COMPANY
WELL.             C. BARRON #3 : WELL
FLD .                   JEWETT : FIELD
LOC .                          : LOCATION
CNTY.                     LEON : COUNTY
STAT.                    TEXAS : STATE
CTRY. UNITED STATES OF AMERICA : COUNTRY
SRVC.             Schlumberger : SERVICE COMPANY
DATE.              10-Jan-1991 : LOGDATE
API .           42289310950000 : API NUMBER
UWI .           42289310950000 : UNIQUE WELL ID
SLAT.WGS84       31.3592876733 : SURFACE LATITUDE
SLON.WGS84      -96.1250620138 : SURFACE LONGITUDE
~Curve Information -----------------------------------------
DEPT    .FT    : DEPTH FEET
CALDED  .IN    : CALIPER FROM DENSITY LOG
CALWS   .IN    : CALIPER [CALDED]
CONDWS  .MMHO  : CONDUCTIVITY [1000/DRESWS]
DCALED  .IN    : DIFFERENTIAL CALIPER FROM RESISTIVITY LOG
DCORWS  .G/C3  : DENSITY CORRECTION [DRHOED]
DENWS   .G/C3  : FORMATION BULK DENSITY [RHOBED]
DPHILSED.V/V   : DENSITY POROSITY LIME [M=2.71, F=1.0] FROM DENSITY LOG
DPOWS   .V/V   : DENSITY POROSITY LIME [DPHILSED]
DRESWS  .OHMM  : DEEP RESISTIVITY [ILDED]
DRHOED  .G/C3  : BULK DENSITY CORRECTION FROM DENSITY LOG
GRDED   .GAPI  : GAMMA RAY FROM DENSITY LOG
GRWS    .GAPI  : GAMMA RAY [GRDED]
ILDED   .OHMM  : DEEP INDUCTION FROM RESISTIVITY LOG
ILMED   .OHMM  : MEDIUM INDUCTION FROM RESISTIVITY LOG
MRESWS  .OHMM  : MEDIUM RESISTIVITY [ILMED]
NPHILSED.V/V   : NEUTRON POROSITY LIME FROM DENSITY LOG
NPOWS   .V/V   : NEUTRON POROSITY LIME [NPHILSED]
PEFED   .B/E   : PHOTOELECTRIC FACTOR FROM DENSITY LOG
PEFWS   .B/E   : PHOTOELECTRIC FACTOR [PEFED]
RHOBED  .G/C3  : BULK DENSITY FROM DENSITY LOG
SFLUED  .OHMM  : SHALLOW FOCUSED RESISTIVITY (UNAVERAGED) FROM RESISTIVITY LOG
SPRED   .MV    : SPONTANEOUS POTENTIAL FROM RESISTIVITY LOG
SPWS    .MV    : SPONTANEOUS POTENTIAL [BASELINE 0 MV, SPRED]
SRESWS  .OHMM  : SHALLOW RESISTIVITY [SFLUED]
TENDED  .LBF   : TENSION FROM DENSITY LOG
~Params ----------------------------------------------------
PD  .                     GL : PERMANENT DATUM
EPD .FT                  485 : ELEVATION PERMANENT DATUM
LMF .                     KB : LOG MEASURED FROM
DAPD.FT                   12 : FEET ABOVE PERMANENT DATUM
DMF .                     KB : DRILLING MEASURED FROM
EKB .FT                  497 : KELLY BUSHING
EDF .FT                  498 : DRILLING FLOOR
EGL .FT                  485 : GROUND LEVEL
DATE.               01/10/91 : RUN DATE
RUN .                      1 : RUN NUMBER
DD  .FT                 9950 : DEPTH DRILLER
DL  .FT                 9957 : DEPTH LOGGER
BLI .FT                 9946 : BOTTOM LOG INTERVAL
TLI .FT                 2234 : TOP LOG INTERVAL
CS  .IN                9.625 : CASING SIZE
CBD .FT                 2298 : CASING BOTTOM DRILLER
CBL .FT                 2294 : CASING BOTTOM LOGGER
BS  .IN                 6.75 : BIT SIZE
BSD .FT                 9950 : BIT SIZE AT DEPTH
DFT .           LIGHTLY DISP : DRILLING FLUID TYPE
DFD .                   10.3 : DRILLING FLUID DENSITY
DFV .                     60 : DRILLING FLUID VISCOSITY
DFPH.                    9.5 : DRILLING FLUID PH
DFL .                     74 : DRILLING FLUID LOSS
MSS .               FLOWLINE : MUD SAMPLE SOURCE
RMS .OHMM               2.45 : RESISTIVITY MUD SAMPLE
MST .DEGF                 75 : MUD SAMPLE TEMPERATURE
MFST.DEGF                 75 : MUD FILTRATE SAMPLE TEMPERATURE
RMC .OHMM               2.75 : RESISTIVITY MUD CAKE
MCST.DEGF                 75 : MUD CAKE SAMPLE TEMPERATURE
MFSS.                   MEAS : MUD FILTRATE SAMPLE SOURCE
MCSS.                   CALC : MUD CAKE SAMPLE SOURCE
RMB .OHMM                885 : RESISTIVITY MUD AT BHT
TCS .HRS                1700 : TIME CIRCULATED STOPPED
LUN .                   8407 : LOGGING UNIT NUMBER
LUL .                  TYLER : LOGGING UNIT LOCATION
CLNT.                A2DTECH : CLIENT CODE
ORIG.          1" 2.5" PRINT : ORIGIN OF DATA
UWI .         42289310950000 : UNIQUE WELL ID
DICO. A2D Technologies, Inc. : DIGITIZING COMPANY
~Other -----------------------------------------------------
TOOL RUN:DISFL-CN-LDT LOG
~ASCII -----------------------------------------------------
# ...
 7900.00000   13.71820   13.71820  747.32830    4.93230    0.09820    2.06850    0.41870    0.41870    1.33810    0.09820   61.83180   61.83180    1.33810    1.37770    1.37770    0.38840    0.38840    2.51060    2.51060    2.06850    1.78610  -38.54340  -10.59590    1.78610 3688.28470
 7950.00000   11.40810   11.40810  150.53440    2.66830    0.00230    2.66580    0.02770    0.02770    6.64300    0.00230   32.15390   32.15390    6.64300    8.62500    8.62500    0.05350    0.05350    4.31090    4.31090    2.66580   15.46370  -35.41760   -7.13610   15.46370 3817.76170
 8000.00000   12.77610   12.77610  506.20100    4.12070   -0.02320    1.63650    0.60570    0.60570    1.97550   -0.02320   59.57750   59.57750    1.97550    2.23080    2.23080    0.36160    0.36160    2.45320    2.45320    1.63650    2.36120  -35.96020   -7.34470    2.36120 3757.47090
 8050.00000   11.35460   11.35460  250.13760    2.63600   -0.01040    2.65000    0.03380    0.03380    3.99780   -0.01040   42.89000   42.89000    3.99780    5.90250    5.90250    0.08690    0.08690    5.00280    5.00280    2.65000   11.51640  -30.45890   -1.50940   11.51640 3761.10160
 8100.00000   11.99980   11.99980  549.42040    3.41510    0.02770    2.00380    0.39250    0.39250    1.82010    0.02770   57.46870   57.46870    1.82010    2.06030    2.06030    0.29270    0.29270    2.63680    2.63680    2.00380    1.83270  -37.49560   -9.97750    1.83270 3896.73100
 8150.00000   10.38240   10.38240  176.12460    1.65010    0.00080    2.66730    0.02180    0.02180    5.67780    0.00080   29.77050   29.77050    5.67780    9.14690    9.14690    0.00590    0.00590    4.86660    4.86660    2.66730   62.26760  -28.31620   -2.22950   62.26760 3771.75220
 8200.00000   10.25540   10.25540   65.21500    1.52800   -0.00540    2.65490    0.03140    0.03140   15.33390   -0.00540   37.73200   37.73200   15.33390   16.59050   16.59050    0.02070    0.02070    4.59460    4.59460    2.65490   22.32560  -41.53220  -15.02100   22.32560 3776.32030
 8250.00000   10.37120   10.37120  121.38720    1.65810    0.05060    2.67870    0.01840    0.01840    8.23810    0.05060   32.12760   32.12760    8.23810    7.13300    7.13300    0.03710    0.03710    4.46460    4.46460    2.67870   20.92630  -30.61050   -3.18140   20.92630 3854.01880
 8300.00000   11.67740   11.67740  478.95010    3.47450   -0.00110    1.91530    0.53460    0.53460    2.08790   -0.00110   55.63850   55.63850    2.08790    2.36160    2.36160    0.23380    0.23380    2.27940    2.27940    1.91530    2.20730  -40.31740  -14.32320    2.20730 3846.83500
 8350.00000   10.15640   10.15640  138.86000    1.42620   -0.00030    2.66230    0.03080    0.03080    7.20150   -0.00030   36.77270   36.77270    7.20150    7.84840    7.84840    0.04790    0.04790    4.75330    4.75330    2.66230    7.41460  -26.73370   -2.27250    7.41460 3818.76150
 8400.00000   12.13670   12.13670  304.23800    3.40510    0.00440    2.55760    0.08150    0.08150    3.28690    0.00440   47.01170   47.01170    3.28690    4.73640    4.73640    0.08520    0.08520    3.57530    3.57530    2.55760   10.33170  -31.68020   -8.12630   10.33170 3779.58230
 8450.00000   10.78620   10.78620  108.64020    2.05480    0.00070    2.68610    0.00690    0.00690    9.20470    0.00070   32.96230   32.96230    9.20470   11.78280   11.78280    0.01160    0.01160    4.71140    4.71140    2.68610   17.35650  -26.33490   -3.62640   17.35650 3846.73850
 8500.00000   11.57120   11.57120  131.30080    2.81460    0.02610    2.62200    0.02840    0.02840    7.61610    0.02610   35.20120   35.20120    7.61610    9.86130    9.86130    0.05910    0.05910    4.92440    4.92440    2.62200   24.81470  -30.82100   -8.39240   24.81470 3854.40970
 8550.00000   10.86730   10.86730   44.45610    2.11760    0.00360    2.64040    0.04130    0.04130   22.49410    0.00360   26.40380   26.40380   22.49410   26.59350   26.59350    0.01040    0.01040    4.58430    4.58430    2.64040   44.63400  -43.25750  -20.01930   44.63400 3860.13090
 8600.00000   11.07970   11.07970   42.53640    2.36120    0.07360    2.64750    0.03590    0.03590   23.50930    0.07360   40.63220   40.63220   23.50930   26.44770   26.44770    0.00550    0.00550    4.27330    4.27330    2.64750   85.74160  -40.76730  -17.01400   85.74160 3849.69970
 8650.00000   10.79690   10.79690   27.76980    2.04430    0.15950    2.70960   -0.00140   -0.00140   36.01040    0.15950   32.96240   32.96240   36.01040   38.62210   38.62210    0.00500    0.00500    4.84540    4.84540    2.70960   56.88530  -42.74140  -18.66810   56.88530 3921.81050
 8700.00000   11.34500   11.34500   62.75970    2.59970    0.01800    2.71560   -0.02140   -0.02140   15.93380    0.01800   30.30970   30.30970   15.93380   19.38360   19.38360    0.00880    0.00880    5.00030    5.00030    2.71560   57.20090  -28.58310   -5.80120   57.20090 3979.55350
 8750.00000   10.54370   10.54370  187.71590    1.78760   -0.00970    2.64140    0.03920    0.03920    5.32720   -0.00970   51.50310   51.50310    5.32720    5.62520    5.62520    0.10860    0.10860    4.06510    4.06510    2.64140    6.05910  -20.71100   -2.16550    6.05910 3933.40890
 8800.00000   11.08600   11.08600  135.89170    2.37370    0.05910    2.52430    0.12000    0.12000    7.35880    0.05910   61.95950   61.95950    7.35880    7.77080    7.77080    0.09260    0.09260    3.87280    3.87280    2.52430    8.35600  -26.14550   -2.27310    8.35600 3912.54050
 8850.00000   10.06260   10.06260  107.43560    1.33880    0.01610    2.57800    0.07840    0.07840    9.30790    0.01610   21.59890   21.59890    9.30790   10.08910   10.08910    0.05870    0.05870    4.46560    4.46560    2.57800   21.72410 -124.52450 -101.52890   21.72410 3879.94460
 8900.00000   10.86840   10.86840   27.20130    2.11810    0.13610    2.69470    0.01260    0.01260   36.76290    0.13610   23.23340   23.23340   36.76290   40.06600   40.06600    0.00500    0.00500    4.95820    4.95820    2.69470  112.80510  -35.83580  -13.73730  112.80510 4757.97070
 8950.00000   10.18520   10.18520   27.67020    1.39580   -0.01000    2.59850    0.07330    0.07330   36.14000   -0.01000   31.60200   31.60200   36.14000   40.20400   40.20400    0.00900    0.00900    4.61230    4.61230    2.59850   47.74550  -40.46470  -19.26330   47.74550 3903.64180
 9000.00000   10.34430   10.34430   73.27350    1.60300    0.00060    2.66540    0.02610    0.02610   13.64750    0.00060   37.92250   37.92250   13.64750   14.44880   14.44880    0.03050    0.03050    4.69620    4.69620    2.66540   16.98220  -29.40510  -10.17990   16.98220 4003.53300
 9050.00000   10.04040   10.04040  104.31550    1.28360   -0.00340    2.68010    0.01590    0.01590    9.58630   -0.00340   52.18710   52.18710    9.58630   10.43090   10.43090    0.05370    0.05370    4.34950    4.34950    2.68010   15.37640  -20.54240   -4.17620   15.37640 3985.38940
 9100.00000   12.49860   12.49860  404.85830    3.82390    0.11850    2.43300    0.16030    0.16030    2.47000    0.11850   86.24980   86.24980    2.47000    3.00990    3.00990    0.26700    0.26700    3.14780    3.14780    2.43300    2.83820  -25.59250  -11.14690    2.83820 4040.42680
 9150.00000   11.01200   11.01200  154.89710    2.36510   -0.00170    2.44540    0.17160    0.17160    6.45590   -0.00170   46.41630   46.41630    6.45590    9.41000    9.41000    0.08760    0.08760    2.94040    2.94040    2.44540   40.87080  -31.15710  -17.50510   40.87080 4036.81960
 9200.00000   12.69490   12.69490  272.93320    4.22350    0.07150    2.32900    0.17240    0.17240    3.66390    0.07150   89.39290   89.39290    3.66390    4.14410    4.14410    0.22220    0.22220    3.22830    3.22830    2.32900    4.84430  -30.47970  -17.62120    4.84430 3988.65060
 9250.00000   10.85460   10.85460  202.09780    2.07980    0.12290    2.53000    0.11210    0.11210    4.94810    0.12290  115.21470  115.21470    4.94810    5.55970    5.55970    0.21890    0.21890    3.38660    3.38660    2.53000    7.99250  -24.70690  -12.64200    7.99250 4015.89280
