~Version ---------------------------------------------------
VERS.      2.0 : CWLS log ASCII Standard -VERSION 2.0
WRAP.      YES : Multiple lines per depth step
CREA. 02/26/13 : LAS Creation Date
~Well ------------------------------------------------------
STRT.FT                 2300.0 : START DEPTH
STOP.FT                 9950.0 : STOP DEPTH
STEP.FT               50.00000 : STEP LENGTH
NULL.                  -999.25 : NULL VALUE
COMP.       APACHE CORPORATION : COMPANY
WELL.             C. BARRON #3 : WELL
FLD .                   JEWETT : FIELD
LOC .                          : LOCATION
CNTY.                     LEON : COUNTY
STAT.                    TEXAS : STATE
CTRY. UNITED STATES OF AMERICA : COUNTRY
SRVC.             Schlumberger : SERVICE COMPANY
DATE.              10-Jan-1991 : LOGDATE
API .           42289310950000 : API NUMBER
UWI .           42289310950000 : UNIQUE WELL ID
SLAT.WGS84       31.3592876733 : SURFACE LATITUDE
SLON.WGS84      -96.1250620138 : SURFACE LONGITUDE
~Curve Information -----------------------------------------
DEPT    .FT    : DEPTH FEET
CALDED  .IN    : CALIPER FROM DENSITY LOG
CALWS   .IN    : CALIPER [CALDED]
CONDWS  .MMHO  : CONDUCTIVITY [1000/DRESWS]
DCALED  .IN    : DIFFERENTIAL CALIPER FROM RESISTIVITY LOG
DCORWS  .G/C3  : DENSITY CORRECTION [DRHOED]
DENWS   .G/C3  : FORMATION BULK DENSITY [RHOBED]
DPHILSED.V/V   : DENSITY POROSITY LIME [M=2.71, F=1.0] FROM DENSITY LOG
DPOWS   .V/V   : DENSITY POROSITY LIME [DPHILSED]
DRESWS  .OHMM  : DEEP RESISTIVITY [ILDED]
DRHOED  .G/C3  : BULK DENSITY CORRECTION FROM DENSITY LOG
GRDED   .GAPI  : GAMMA RAY FROM DENSITY LOG
GRWS    .GAPI  : GAMMA RAY [GRDED]
ILDED   .OHMM  : DEEP INDUCTION FROM RESISTIVITY LOG
ILMED   .OHMM  : MEDIUM INDUCTION FROM RESISTIVITY LOG
MRESWS  .OHMM  : MEDIUM RESISTIVITY [ILMED]
NPHILSED.V/V   : NEUTRON POROSITY LIME FROM DENSITY LOG
NPOWS   .V/V   : NEUTRON POROSITY LIME [NPHILSED]
PEFED   .B/E   : PHOTOELECTRIC FACTOR FROM DENSITY LOG
PEFWS   .B/E   : PHOTOELECTRIC FACTOR [PEFED]
RHOBED  .G/C3  : BULK DENSITY FROM DENSITY LOG
SFLUED  .OHMM  : SHALLOW FOCUSED RESISTIVITY (UNAVERAGED) FROM RESISTIVITY LOG
SPRED   .MV    : SPONTANEOUS POTENTIAL FROM RESISTIVITY LOG
SPWS    .MV    : SPONTANEOUS POTENTIAL [BASELINE 0 MV, SPRED]
SRESWS  .OHMM  : SHALLOW RESISTIVITY [SFLUED]
TENDED  .LBF   : TENSION FROM DENSITY LOG
~Params ----------------------------------------------------
PD  .                     GL : PERMANENT DATUM
EPD .FT                  485 : ELEVATION PERMANENT DATUM
LMF .                     KB : LOG MEASURED FROM
DAPD.FT                   12 : FEET ABOVE PERMANENT DATUM
DMF .                     KB : DRILLING MEASURED FROM
EKB .FT                  497 : KELLY BUSHING
EDF .FT                  498 : DRILLING FLOOR
EGL .FT                  485 : GROUND LEVEL
DATE.               01/10/91 : RUN DATE
RUN .                      1 : RUN NUMBER
DD  .FT                 9950 : DEPTH DRILLER
DL  .FT                 9957 : DEPTH LOGGER
BLI .FT                 9946 : BOTTOM LOG INTERVAL
TLI .FT                 2234 : TOP LOG INTERVAL
CS  .IN                9.625 : CASING SIZE
CBD .FT                 2298 : CASING BOTTOM DRILLER
CBL .FT                 2294 : CASING BOTTOM LOGGER
BS  .IN                 6.75 : BIT SIZE
BSD .FT                 9950 : BIT SIZE AT DEPTH
DFT .           LIGHTLY DISP : DRILLING FLUID TYPE
DFD .                   10.3 : DRILLING FLUID DENSITY
DFV .                     60 : DRILLING FLUID VISCOSITY
DFPH.                    9.5 : DRILLING FLUID PH
DFL .                     74 : DRILLING FLUID LOSS
MSS .               FLOWLINE : MUD SAMPLE SOURCE
RMS .OHMM               2.45 : RESISTIVITY MUD SAMPLE
MST .DEGF                 75 : MUD SAMPLE TEMPERATURE
MFST.DEGF                 75 : MUD FILTRATE SAMPLE TEMPERATURE
RMC .OHMM               2.75 : RESISTIVITY MUD CAKE
MCST.DEGF                 75 : MUD CAKE SAMPLE TEMPERATURE
MFSS.                   MEAS : MUD FILTRATE SAMPLE SOURCE
MCSS.                   CALC : MUD CAKE SAMPLE SOURCE
RMB .OHMM                885 : RESISTIVITY MUD AT BHT
TCS .HRS                1700 : TIME CIRCULATED STOPPED
LUN .                   8407 : LOGGING UNIT NUMBER
LUL .                  TYLER : LOGGING UNIT LOCATION
CLNT.                A2DTECH : CLIENT CODE
ORIG.          1" 2.5" PRINT : ORIGIN OF DATA
UWI .         42289310950000 : UNIQUE WELL ID
DICO. A2D Technologies, Inc. : DIGITIZING COMPANY
~Other -----------------------------------------------------
TOOL RUN:DISFL-CN-LDT LOG
~ASCII -----------------------------------------------------
 2300.00000   12.73780   12.73780  391.52730    4.10940    0.03340    2.02610    0.39550    0.39550    2.55410    0.03340   70.49170   70.49170    2.55410    2.92380    2.92380    0.36190    0.36190    2.43040    2.43040    2.02610    3.22520  -37.39750   -3.88410    3.22520 1696.89430
 2350.00000    9.93170    9.93170  440.99490    1.22400    0.00020    2.22570    0.28150    0.28150    2.26760    0.00020   73.43840   73.43840    2.26760    2.21270    2.21270    0.33090    0.33090    2.76920    2.76920    2.22570    2.43740  -47.23640  -13.31040    2.43740 1692.91910
 2400.00000   10.46040   10.46040  350.10330    1.75380   -0.01180    2.20760    0.29260    0.29260    2.85630   -0.01180   82.39540   82.39540    2.85630    2.95780    2.95780    0.32270    0.32270    2.62860    2.62860    2.20760    3.00550  -48.36840  -15.13380    3.00550 1705.93700
 2450.00000   15.59190   15.59190  317.33940    6.87170    0.02360    2.16890    0.31530    0.31530    3.15120    0.02360   77.83380   77.83380    3.15120    2.96180    2.96180    0.32310    0.32310    2.35100    2.35100    2.16890    2.77110  -35.48520   -2.92040    2.77110 1680.20000
 2500.00000   15.01990   15.01990  431.66710    6.36860    0.00240    2.18370    0.30720    0.30720    2.31660    0.00240   77.64740   77.64740    2.31660    2.20780    2.20780    0.32360    0.32360    2.84320    2.84320    2.18370    2.47260  -33.44700   -1.49300    2.47260 1699.59300
 2550.00000   15.28400   15.28400  551.02490    6.27900    0.00300    2.24640    0.26870    0.26870    1.81480    0.00300   92.82870   92.82870    1.81480    1.62640    1.62640    0.33020    0.33020    2.77560    2.77560    2.24640    1.50080  -33.47870   -1.88380    1.50080 1758.92530
 2600.00000   16.68930   16.68930  488.87800    7.96300    0.01180    2.21130    0.29180    0.29180    2.04550    0.01180   78.12600   78.12600    2.04550    1.95790    1.95790    0.30760    0.30760    2.65480    2.65480    2.21130    2.13030  -33.86720   -2.56850    2.13030 1756.24260
 2650.00000   15.19010   15.19010  489.04540    6.45860    0.00970    2.23870    0.27360    0.27360    2.04480    0.00970   87.40770   87.40770    2.04480    1.85350    1.85350    0.31960    0.31960    2.73690    2.73690    2.23870    1.96640  -33.09130   -2.08880    1.96640 1808.43230
 2700.00000   16.49800   16.49800  575.07620    7.80440    0.01230    2.22020    0.28760    0.28760    1.73890    0.01230   89.18620   89.18620    1.73890    1.66740    1.66740    0.30000    0.30000    2.55770    2.55770    2.22020    1.80540  -31.20890   -0.50270    1.80540 1764.49870
 2750.00000   14.73060   14.73060  564.49340    6.09750    0.00160    2.21800    0.28770    0.28770    1.77150    0.00160   92.95320   92.95320    1.77150    1.67280    1.67280    0.33380    0.33380    2.72490    2.72490    2.21800    1.82210  -32.30040   -1.89040    1.82210 1729.68310
 2800.00000   12.36670   12.36670  570.09290    4.23620    0.00340    2.26750    0.25910    0.25910    1.75410    0.00340   95.51550   95.51550    1.75410    1.67250    1.67250    0.30640    0.30640    2.80300    2.80300    2.26750    1.81010  -33.09550   -2.98170    1.81010 1770.88120
 2850.00000   14.89410   14.89410  581.80130    6.21360    0.02560    2.35460    0.20680    0.20680    1.71880    0.02560   89.02500   89.02500    1.71880    1.65750    1.65750    0.31660    0.31660    2.65520    2.65520    2.35460    1.83980  -33.00820   -3.19060    1.83980 1777.03190
 2900.00000   14.85950   14.85950  611.50860    5.98830    0.01420    2.31510    0.22910    0.22910    1.63530    0.01420   84.90300   84.90300    1.63530    1.55100    1.55100    0.30420    0.30420    3.03060    3.03060    2.31510    1.71740  -33.40370   -3.88230    1.71740 1805.67310
 2950.00000   16.05330   16.05330  614.21290    7.37920    0.02490    2.34690    0.21310    0.21310    1.62810    0.02490   92.41230   92.41230    1.62810    1.56560    1.56560    0.31230    0.31230    2.85870    2.85870    2.34690    1.66500  -33.67200   -4.44680    1.66500 1871.71360
 3000.00000   15.65290   15.65290  574.25060    6.88000    0.00200    2.36480    0.20450    0.20450    1.74140    0.00200   85.24460   85.24460    1.74140    1.67330    1.67330    0.31480    0.31480    3.13710    3.13710    2.36480    1.80110  -31.12710   -2.19810    1.80110 1858.83630
 3050.00000   14.12140   14.12140  683.06010    5.29600    0.01180    2.34220    0.21510    0.21510    1.46400    0.01180   97.09180   97.09180    1.46400    1.40100    1.40100    0.33340    0.33340    2.93480    2.93480    2.34220    1.49400  -30.18470   -1.55190    1.49400 1881.11680
 3100.00000   12.40040   12.40040  433.57610    3.67640    0.00480    2.40920    0.17790    0.17790    2.30640    0.00480   89.77220   89.77220    2.30640    2.42520    2.42520    0.28340    0.28340    2.96590    2.96590    2.40920    2.61270  -33.85820   -5.70240    2.61270 1860.80540
 3150.00000   12.02300   12.02300  512.24260    3.27990   -0.00460    2.35200    0.20790    0.20790    1.95220   -0.00460   90.94640   90.94640    1.95220    1.87550    1.87550    0.33500    0.33500    2.91660    2.91660    2.35200    2.00760  -31.67500   -4.07940    2.00760 1910.40060
 3200.00000   12.78350   12.78350  905.96120    4.01150   -0.00160    2.22590    0.28240    0.28240    1.10380   -0.00160   82.83540   82.83540    1.10380    1.13130    1.13130    0.37030    0.37030    2.77580    2.77580    2.22590    1.22460  -29.84370   -2.80820    1.22460 1947.02390
 3250.00000   15.24670   15.24670  963.85540    6.70190   -0.00730    2.13760    0.33550    0.33550    1.03750   -0.00730   81.12150   81.12150    1.03750    1.00500    1.00500    0.38540    0.38540    2.68650    2.68650    2.13760    1.17240  -31.06120   -4.58590    1.17240 1955.81710
 3300.00000   13.99120   13.99120  898.63410    5.30510   -0.00830    2.24080    0.27130    0.27130    1.11280   -0.00830   81.83140   81.83140    1.11280    1.12380    1.12380    0.35130    0.35130    2.76010    2.76010    2.24080    1.27810  -29.94610   -4.03100    1.27810 2004.87440
 3350.00000   14.68460   14.68460  912.07590    5.92360   -0.01010    2.14430    0.33240    0.33240    1.09640   -0.01010   78.10440   78.10440    1.09640    1.04770    1.04770    0.35770    0.35770    2.79720    2.79720    2.14430    1.21030  -28.33190   -2.97700    1.21030 1969.88430
 3400.00000   11.08910   11.08910  250.00630    2.34400   -0.00090    2.45970    0.14570    0.14570    3.99990   -0.00090   52.95590   52.95590    3.99990    3.82900    3.82900    0.19760    0.19760    4.76010    4.76010    2.45970    3.95710  -34.64370   -9.84890    3.95710 2018.78250
 3450.00000   11.21650   11.21650  554.78500    2.48410    0.07860    2.28130    0.24830    0.24830    1.80250    0.07860   76.71170   76.71170    1.80250    1.71540    1.71540    0.23080    0.23080    2.48720    2.48720    2.28130    2.16070  -29.10440   -4.86990    2.16070 2038.87330
 3500.00000   13.25320   13.25320  543.47830    4.84720    0.06760    2.18550    0.30280    0.30280    1.84000    0.06760   72.04850   72.04850    1.84000    1.74480    1.74480    0.25780    0.25780    2.35430    2.35430    2.18550    1.65790  -31.63540   -7.96100    1.65790 2090.99900
 3550.00000   12.11000   12.11000  892.29950    3.36660    0.00520    2.19870    0.29830    0.29830    1.12070    0.00520   83.02960   83.02960    1.12070    1.15060    1.15060    0.32700    0.32700    2.46610    2.46610    2.19870    1.18310  -26.41290   -3.29870    1.18310 2105.36280
 3600.00000   12.42830   12.42830  960.79940    3.66830    0.01500    2.23450    0.27930    0.27930    1.04080    0.01500   88.09960   88.09960    1.04080    1.07580    1.07580    0.34000    0.34000    2.68230    2.68230    2.23450    1.09740  -26.41690   -3.58340    1.09740 2132.04740
 3650.00000   12.75260   12.75260  684.22850    4.07770    0.02050    2.29450    0.23930    0.23930    1.46150    0.02050   82.85810   82.85810    1.46150    1.52910    1.52910    0.29100    0.29100    2.96400    2.96400    2.29450    1.57170  -27.06390   -4.41300    1.57170 2180.34280
