~Version ---------------------------------------------------
VERS.      2.0 : CWLS log ASCII Standard -VERSION 2.0
WRAP.      YES : Multiple lines per depth step
CREA. 07/19/18 : LAS Creation Date
~Well ------------------------------------------------------
STRT.FT                           3800.0 : START DEPTH
STOP.FT                          13600.0 : STOP DEPTH
STEP.FT                         50.00000 : STEP LENGTH
NULL.                            -999.25 : NULL VALUE
COMP. TEXSTAR NORTH AMERICA INCORPORATED : COMPANY
WELL.                  BERRY GAS UNIT #1 : WELL
FLD .                 SW KENEDY PROSPECT : FIELD
LOC .                                    : LOCATION
CNTY.                             KARNES : COUNTY
STAT.                              TEXAS : STATE
CTRY.           UNITED STATES OF AMERICA : COUNTRY
SRVC.                       Schlumberger : SERVICE COMPANY
DATE.                        16-Mar-1988 : LOGDATE
API .                     42255311960000 : API NUMBER
UWI .                     42255311960000 : UNIQUE WELL ID
SLAT.WGS84                 28.7645998907 : SURFACE LATITUDE
SLON.WGS84                -97.8956197689 : SURFACE LONGITUDE
~Curve Information -----------------------------------------
DEPT    .FT    : DEPTH FEET
CALWS   .IN    : CALIPER [DCALDED+BIT]
CONDWS  .MMHO  : DEEP CONDUCTIVITY [1000/DRESWS]
DCALDED .IN    : DIFFERENTIAL CALIPER FROM LDT-CNT LOG [DSH. TO RESISTIVITY]
DCORWS  .G/C3  : DENSITY CORRECTION [DRHOED]
DENWS   .G/C3  : BULK DENSITY [CALC. FROM DPOLSWS]
DPHILSED.V/V   : DENSITY POROSITY (LS) [M=2.71 F=1.00] FROM LDT-CNT LOG [DSH. TO RESISTIVITY]
DPOLSWS .V/V   : DENSITY POROSITY (LS) [M=2.71 F=1.00] [DPHILSED]
DRESWS  .OHMM  : DEEP RESISTIVITY [ILDED]
DRHOED  .G/C3  : DENSITY CORRECTION FROM LDT-CNT LOG [DSH. TO RESISTIVITY]
DTED    .US/F  : DELTA TIME FROM DISFL-SONIC LOG [DSH. TO RES LOG]
DTLED   .US/F  : DELTA TIME LONG SPACING FROM DISFL-SONIC LOG [DSH. TO RESISTIVITY]
DTWS    .US/F  : DELTA TIME COMPRESSIONAL [DTED]
GRDED   .GAPI  : GAMMA RAY FROM LDT-CNT LOG [DSH. TO RESISTIVITY]
GRRED   .GAPI  : GAMMA RAY FROM DISFL-SONIC LOG [DSH. TO RESISTIVITY]
GRWS    .GAPI  : GAMMA RAY [GRRED]
ILDED   .OHMM  : DEEP INDUCTION RESISTIVITY
ILMED   .OHMM  : MEDIUM INDUCTION RESISTIVITY
MRESWS  .OHMM  : MEDIUM RESISTIVITY [ILMED]
NPHILSED.V/V   : NEUTRON POROSITY LIMESTONE FROM LDT-CNT LOG [DSH. TO RESISTIVITY]
NPOLSWS .V/V   : NEUTRON POROSITY LIMESTONE [NPHILSED]
PEFED   .B/E   : PHOTOELECTRIC FACTOR FROM LDT-CNT LOG [DSH. TO RESISTIVITY]
PEFWS   .B/E   : PHOTOELECTRIC FACTOR [PEFED]
SFLUED  .OHMM  : SPHERICALLY FOCUSED LOG RESISTIVITY
SPHILSED.V/V   : SONIC POROSITY (LS) FROM DISFL-SONIC LOG [DSH. TO RESISTIVITY]
SPOLSWS .V/V   : SONIC POROSITY (LS) [SPHILSED]
SPRED   .MV    : SPONTANEOUS POTENTIAL FROM DISFL-SONIC LOG
SPWS    .MV    : SPONTANEOUS POTENTIAL [BASELINE 0 MV] [SPRED]
SRESWS  .OHMM  : SHALLOW RESISTIVITY [SFLUED]
TENDED  .LBF   : TENSION FROM LDT-CNT LOG [DSH. TO RES LOG]
TENRED  .LBF   : TENSION FROM DISFL-SONIC LOG
~Params ----------------------------------------------------
PD  .                     GL : PERMANENT DATUM
EPD .FT                399.7 : ELEVATION PERMANENT DATUM
LMF .                     KB : LOG MEASURED FROM
DAPD.FT                   13 : FEET ABOVE PERMANENT DATUM
DMF .                     KB : DRILLING MEASURED FROM
EKB .FT                412.7 : KELLY BUSHING
EDF .FT                411.7 : DRILLING FLOOR
EGL .FT                399.7 : GROUND LEVEL
DATE.               03/16/88 : RUN DATE
RUN .                      1 : RUN NUMBER
DD  .FT                13841 : DEPTH DRILLER
DL  .FT                13632 : DEPTH LOGGER
BLI .FT                13626 : BOTTOM LOG INTERVAL
TLI .FT                 3814 : TOP LOG INTERVAL
CS  .IN                8.625 : CASING SIZE
CBD .FT                 3815 : CASING BOTTOM DRILLER
CBL .FT                 3814 : CASING BOTTOM LOGGER
BS  .IN                  8.5 : BIT SIZE
BSD .FT                13841 : BIT SIZE AT DEPTH
DFT .              DURA HOLE : DRILLING FLUID TYPE
DFD .                   11.1 : DRILLING FLUID DENSITY
DFV .                     46 : DRILLING FLUID VISCOSITY
DFPH.                   10.5 : DRILLING FLUID PH
DFL .                      6 : DRILLING FLUID LOSS
MSS .               MUD TNAK : MUD SAMPLE SOURCE
RMS .OHMM              0.601 : RESISTIVITY MUD SAMPLE
MST .DEGF                110 : MUD SAMPLE TEMPERATURE
RMF .OHMM               0.81 : RESISTIVITY MUD FILTRATE SAMPLE
MFST.DEGF                 89 : MUD FILTRATE SAMPLE TEMPERATURE
RMC .OHMM                0.9 : RESISTIVITY MUD CAKE
MCST.DEGF                110 : MUD CAKE SAMPLE TEMPERATURE
MFSS.                   MEAS : MUD FILTRATE SAMPLE SOURCE
MCSS.                   CALC : MUD CAKE SAMPLE SOURCE
RMB .OHMM              0.236 : RESISTIVITY MUD AT BHT
TCS .HRS                2100 : TIME CIRCULATED STOPPED
TLAB.HRS                 612 : TIME LOGGER AT BOTTOM
LUN .                   8268 : LOGGING UNIT NUMBER
LUL .             PLEASANTON : LOGGING UNIT LOCATION
ENGI.                  WILKE : RECORDING ENGINEER
WITN.  REQUAETH  NOVAK GIBBS : WITNESSED BY
CLNT.                A2DTECH : CLIENT CODE
ORIG.               5" PRINT : ORIGIN OF DATA
UWI .         42255311960000 : UNIQUE WELL ID
DICO. A2D Technologies, Inc. : DIGITIZING COMPANY
~Other -----------------------------------------------------
GRDED GAPS 12180-12250' DUE TO STICKING TOOL.
LDT-CNT PULLED TIGHT AT SEVERAL DEPTHS FROM AROUND 13000' UP. THIS MAY AFFECT LOG QUALITY.
~ASCII -----------------------------------------------------
# ...
 5000.00000    -999.25  674.17250    -999.25    -999.25    -999.25    -999.25    -999.25    1.48330    -999.25   87.84190    -999.25   87.84190    -999.25   74.45300   74.45300    1.48330    1.43640    1.43640    -999.25    -999.25    -999.25    -999.25    2.00900    0.26600    0.26600  -38.99940   -4.85490    2.00900    -999.25 1888.31090
 5050.00000    -999.25  664.23120    -999.25    -999.25    -999.25    -999.25    -999.25    1.50550    -999.25   97.94580    -999.25   97.94580    -999.25   63.77560   63.77560    1.50550    1.45730    1.45730    -999.25    -999.25    -999.25    -999.25    1.79330    0.29380    0.29380  -40.47020   -5.90570    1.79330    -999.25 1888.90750
 5100.00000    -999.25  904.89550    -999.25    -999.25    -999.25    -999.25    -999.25    1.10510    -999.25   95.11790    -999.25   95.11790    -999.25   65.48180   65.48180    1.10510    1.06840    1.06840    -999.25    -999.25    -999.25    -999.25    1.19220    0.28120    0.28120  -40.86690   -5.79650    1.19220    -999.25 1888.29050
 5150.00000    -999.25  661.50690    -999.25    -999.25    -999.25    -999.25    -999.25    1.51170    -999.25   89.12890    -999.25   89.12890    -999.25   74.86530   74.86530    1.51170    1.47840    1.47840    -999.25    -999.25    -999.25    -999.25    1.97440    0.27310    0.27310  -41.68160   -6.10520    1.97440    -999.25 1874.48680
 5200.00000    -999.25  839.84210    -999.25    -999.25    -999.25    -999.25    -999.25    1.19070    -999.25  103.69510    -999.25  103.69510    -999.25   80.63850   80.63850    1.19070    1.12250    1.12250    -999.25    -999.25    -999.25    -999.25    1.22940    0.31690    0.31690  -43.98380   -7.90140    1.22940    -999.25 1926.57060
 5250.00000    -999.25 1100.47320    -999.25    -999.25    -999.25    -999.25    -999.25    0.90870    -999.25  107.90500    -999.25  107.90500    -999.25   75.01940   75.01940    0.90870    0.88070    0.88070    -999.25    -999.25    -999.25    -999.25    1.13040    0.32760    0.32760  -44.92590   -8.33760    1.13040    -999.25 1938.95000
 5300.00000    -999.25  747.49590    -999.25    -999.25    -999.25    -999.25    -999.25    1.33780    -999.25   98.97910    -999.25   98.97910    -999.25   72.06890   72.06890    1.33780    1.29370    1.29370    -999.25    -999.25    -999.25    -999.25    1.42450    0.30850    0.30850  -37.22930   -0.13500    1.42450    -999.25 1957.91260
 5350.00000    -999.25  864.67790    -999.25    -999.25    -999.25    -999.25    -999.25    1.15650    -999.25  110.02680    -999.25  110.02680    -999.25   69.41630   69.41630    1.15650    1.12740    1.12740    -999.25    -999.25    -999.25    -999.25    1.18240    0.33610    0.33610  -43.76370   -6.49230    1.18240    -999.25 1993.55110
 5400.00000    -999.25  967.02450    -999.25    -999.25    -999.25    -999.25    -999.25    1.03410    -999.25   99.74130    -999.25   99.74130    -999.25   80.71270   80.71270    1.03410    1.00250    1.00250    -999.25    -999.25    -999.25    -999.25    1.18630    0.30560    0.30560  -45.25680   -7.98540    1.18630    -999.25 1949.45190
 5450.00000    -999.25 1486.54680    -999.25    -999.25    -999.25    -999.25    -999.25    0.67270    -999.25  112.60150    -999.25  112.60150    -999.25   81.59370   81.59370    0.67270    0.65660    0.65660    -999.25    -999.25    -999.25    -999.25    0.83790    0.33850    0.33850  -51.54200  -14.30150    0.83790    -999.25 1961.06360
 5500.00000    -999.25 1067.34980    -999.25    -999.25    -999.25    -999.25    -999.25    0.93690    -999.25  107.93790    -999.25  107.93790    -999.25   76.99120   76.99120    0.93690    0.91330    0.91330    -999.25    -999.25    -999.25    -999.25    1.08130    0.32940    0.32940  -42.15660   -6.45890    1.08130    -999.25 1989.31310
 5550.00000    -999.25 1671.96120    -999.25    -999.25    -999.25    -999.25    -999.25    0.59810    -999.25  128.48600    -999.25  128.48600    -999.25   81.46820   81.46820    0.59810    0.56110    0.56110    -999.25    -999.25    -999.25    -999.25    0.70400    0.37430    0.37430  -46.85460  -14.40210    0.70400    -999.25 2022.40840
 5600.00000    -999.25  877.11600    -999.25    -999.25    -999.25    -999.25    -999.25    1.14010    -999.25  115.98190    -999.25  115.98190    -999.25   66.63380   66.63380    1.14010    1.11380    1.11380    -999.25    -999.25    -999.25    -999.25    1.41650    0.34710    0.34710  -34.71680   -8.63670    1.41650    -999.25 2007.68490
 5650.00000    -999.25  981.83600    -999.25    -999.25    -999.25    -999.25    -999.25    1.01850    -999.25  108.43400    -999.25  108.43400    -999.25   75.59520   75.59520    1.01850    0.98130    0.98130    -999.25    -999.25    -999.25    -999.25    1.06880    0.33250    0.33250  -36.43960  -12.12610    1.06880    -999.25 2030.28660
 5700.00000    -999.25  462.68450    -999.25    -999.25    -999.25    -999.25    -999.25    2.16130    -999.25  100.14360    -999.25  100.14360    -999.25   78.49480   78.49480    2.16130    2.16570    2.16570    -999.25    -999.25    -999.25    -999.25    2.37010    0.29420    0.29420  -32.95410  -14.93790    2.37010    -999.25 2033.81030
 5750.00000    -999.25  395.21010    -999.25    -999.25    -999.25    -999.25    -999.25    2.53030    -999.25   89.60650    -999.25   89.60650    -999.25   51.33750   51.33750    2.53030    3.06850    3.06850    -999.25    -999.25    -999.25    -999.25    4.10600    0.26900    0.26900  -53.41020  -44.51140    4.10600    -999.25 2103.28100
 5800.00000    -999.25  320.45120    -999.25    -999.25    -999.25    -999.25    -999.25    3.12060    -999.25   97.11000    -999.25   97.11000    -999.25   62.66530   62.66530    3.12060    3.05920    3.05920    -999.25    -999.25    -999.25    -999.25    2.97650    0.29610    0.29610  -21.10780   -9.29370    2.97650    -999.25 2081.94850
 5850.00000    -999.25  216.86800    -999.25    -999.25    -999.25    -999.25    -999.25    4.61110    -999.25   87.42200    -999.25   87.42200    -999.25   49.56990   49.56990    4.61110    4.93120    4.93120    -999.25    -999.25    -999.25    -999.25    5.55650    0.26350    0.26350  -30.25050  -18.22690    5.55650    -999.25 2164.52730
 5900.00000    -999.25  216.71290    -999.25    -999.25    -999.25    -999.25    -999.25    4.61440    -999.25   71.88630    -999.25   71.88630    -999.25   43.65150   43.65150    4.61440    4.53200    4.53200    -999.25    -999.25    -999.25    -999.25    5.06100    0.18360    0.18360  -33.48710  -21.72230    5.06100    -999.25 2079.81010
 5950.00000    -999.25  606.20760    -999.25    -999.25    -999.25    -999.25    -999.25    1.64960    -999.25  100.35630    -999.25  100.35630    -999.25   86.88960   86.88960    1.64960    1.70100    1.70100    -999.25    -999.25    -999.25    -999.25    1.84720    0.31690    0.31690  -17.88940   -6.38340    1.84720    -999.25 2107.90060
 6000.00000    -999.25  338.32930    -999.25    -999.25    -999.25    -999.25    -999.25    2.95570    -999.25   88.97220    -999.25   88.97220    -999.25   80.51000   80.51000    2.95570    3.06980    3.06980    -999.25    -999.25    -999.25    -999.25    3.42480    0.26730    0.26730  -33.96450  -13.36430    3.42480    -999.25 2209.57930
 6050.00000    -999.25  672.81170    -999.25    -999.25    -999.25    -999.25    -999.25    1.48630    -999.25   87.48070    -999.25   87.48070    -999.25   40.42680   40.42680    1.48630    1.95950    1.95950    -999.25    -999.25    -999.25    -999.25    2.73130    0.26060    0.26060  -71.82520  -55.88890    2.73130    -999.25 2193.06270
 6100.00000    -999.25 1003.61300    -999.25    -999.25    -999.25    -999.25    -999.25    0.99640    -999.25   92.35950    -999.25   92.35950    -999.25   34.90990   34.90990    0.99640    1.18840    1.18840    -999.25    -999.25    -999.25    -999.25    1.70240    0.27670    0.27670  -83.45180  -68.33300    1.70240    -999.25 2175.76270
 6150.00000    -999.25  595.91200    -999.25    -999.25    -999.25    -999.25    -999.25    1.67810    -999.25   92.52790    -999.25   92.52790    -999.25   55.16930   55.16930    1.67810    1.98220    1.98220    -999.25    -999.25    -999.25    -999.25    2.16310    0.27760    0.27760  -57.55430  -43.25290    2.16310    -999.25 2170.96850
