~Version ---------------------------------------------------
VERS. 2.0 : CWLS log ASCII Standard -VERSION 2.0
WRAP.  NO : ONE LINE PER DEPTH STEP
~Well ------------------------------------------------------
STRT.F                    3400.0 : START DEPTH
STOP.F                    8650.0 : STOP DEPTH
STEP.F                  50.00000 : STEP LENGTH
NULL.                    -999.25 : NULL VALUE
COMP. CHAMPLIN PETROLEUM COMPANY : COMPANY
WELL.           GRANT PAULINE #1 : WELL
FLD .                     KURTEN : FIELD
LOC .                            : LOCATION
CNTY.                     BRAZOS : COUNTY
STAT.                      TEXAS : STATE
CTRY.   UNITED STATES OF AMERICA : COUNTRY
SRVC.              Dresser Atlas : SERVICE COMPANY
DATE.                19-Aug-1982 : LOGDATE
API .             42041307950000 : API NUMBER
UWI .             42041307950000 : UNIQUE WELL ID
SLAT.WGS84         30.7219159802 : SURFACE LATITUDE
SLON.WGS84        -96.3940815909 : SURFACE LONGITUDE
~Curve Information -----------------------------------------
DEPT   .F    0   1   0  0 : 1 MEASURED DEPTH
CN_SS  .DEC  42 890 03 00 : COMPENSATED NEUTRON POROSITY SANDSTONE
PORD_SS.DEC  45 890 12 00 : DENSITY POROSITY [SANDSTONE]
CN_LS  .DEC  42 890 01 00 : COMPENSATED NEUTRON POROSITY LIMESTONE
PORD_LS.DEC  45 890 10 00 : DENSITY POROSITY [LIMESTONE]
CORR   .G/C3 45 356 01 00 : DENSITY CORRECTION
DEN    .G/C3 45 350 01 00 : COMPENSATED BULK DENSITY
GRR    .GAPI 07 310 01 00 : GAMMA RAY FROM RESISTIVITY LOG
RFOC   .OHMM 07 220 01 00 : SHALLOW FOCUSED LOG RESISTIVITY
RILD   .OHMM 07 120 46 00 : INDUCTION DEEP RESISTIVITY
RILM   .OHMM 07 120 44 00 : INDUCTION MEDIUM RESISTIVITY
SPR    .MV   07 010 01 00 : SPONTANEOUS POTENTIAL FROM RESISTIVITY LOG
CALD   .IN   07 280 60 00 : CALIPER FROM DENSITY LOG
~Params ----------------------------------------------------
PD  .                     GL : PERMANENT DATUM
EPD .FT                  333 : ELEVATION PERMANENT DATUM
LMF .                     KB : LOG MEASURED FROM
DAPD.FT                   18 : FEET ABOVE PERMANENT DATUM
DMF .                     KB : DRILLING MEASURED FROM
EKB .FT                  351 : KELLY BUSHING
EDF .FT                  350 : DRILLING FLOOR
EGL .FT                  333 : GROUND LEVEL
DATE.               08/19/82 : RUN DATE
RUN .                      1 : RUN NUMBER
DD  .FT                 8681 : DEPTH DRILLER
DL  .FT                 8680 : DEPTH LOGGER
BLI .FT                 8678 : BOTTOM LOG INTERVAL
TLI .FT                 3402 : TOP LOG INTERVAL
CS  .IN                9.625 : CASING SIZE
CBD .FT                 3402 : CASING BOTTOM DRILLER
CBL .FT                 3402 : CASING BOTTOM LOGGER
BS  .IN                 8.75 : BIT SIZE
BSD .FT                 8681 : BIT SIZE AT DEPTH
DFT .                  BENEX : DRILLING FLUID TYPE
DFD .                    9.8 : DRILLING FLUID DENSITY
DFV .                     40 : DRILLING FLUID VISCOSITY
DFPH.                    9.5 : DRILLING FLUID PH
DFL .                      8 : DRILLING FLUID LOSS
MSS .                   TANK : MUD SAMPLE SOURCE
RMS .OHMM               3.21 : RESISTIVITY MUD SAMPLE
MST .DEGF                 75 : MUD SAMPLE TEMPERATURE
RMF .OHMM               2.41 : RESISTIVITY MUD FILTRATE SAMPLE
MFST.DEGF                 75 : MUD FILTRATE SAMPLE TEMPERATURE
RMC .OHMM               4.01 : RESISTIVITY MUD CAKE
MCST.DEGF                 75 : MUD CAKE SAMPLE TEMPERATURE
MFSS.                      C : MUD FILTRATE SAMPLE SOURCE
MCSS.                      C : MUD CAKE SAMPLE SOURCE
RMB .OHMM               1.24 : RESISTIVITY MUD AT BHT
TCS .HRS                   4 : TIME CIRCULATED STOPPED
LUN .                   6304 : LOGGING UNIT NUMBER
LUL .                  BRYAN : LOGGING UNIT LOCATION
ENGI.                 COOPER : RECORDING ENGINEER
WITN.                  VOOAK : WITNESSED BY
CLNT.                A2DTECH : CLIENT CODE
ORIG.            2" 5" PRINT : ORIGIN OF DATA
UWI .         42041307950000 : UNIQUE WELL ID
DICO. A2D Technologies, Inc. : DIGITIZING COMPANY
~Other -----------------------------------------------------
~ASCII -----------------------------------------------------
# ...
 6200.00000    -999.25    -999.25    -999.25    -999.25    -999.25    -999.25  101.68250    1.70370    1.29310    1.34140  -23.14550   10.96570
 6250.00000    -999.25    -999.25    -999.25    -999.25    -999.25    -999.25   88.12060    1.80060    1.45530    1.50320  -23.87390   10.86540
 6300.00000    -999.25    -999.25    -999.25    -999.25    -999.25    -999.25   94.71010    1.80960    1.42680    1.47390  -23.15150   10.94120
 6350.00000    -999.25    -999.25    -999.25    -999.25    -999.25    -999.25   94.01540    1.94130    1.70020    1.75630  -22.90980   10.86130
 6400.00000    -999.25    -999.25    -999.25    -999.25    -999.25    -999.25   96.36730    1.95240    1.67950    1.73430  -22.19180   10.88650
 6450.00000    -999.25    -999.25    -999.25    -999.25    -999.25    -999.25  103.01070    1.68860    1.30600    1.34880  -26.47110   10.94180
 6500.00000    -999.25    -999.25    -999.25    -999.25    -999.25    -999.25  100.10420    1.64860    1.25060    1.29170  -23.42760   10.34010
 6550.00000    -999.25    -999.25    -999.25    -999.25    -999.25    -999.25  100.00200    1.53550    1.14570    1.18350  -27.20760   10.86180
 6600.00000    -999.25    -999.25    -999.25    -999.25    -999.25    -999.25   88.37700    1.64930    1.24390    1.28450  -26.37230   11.12440
 6650.00000    -999.25    -999.25    -999.25    -999.25    -999.25    -999.25   91.79800    1.65350    1.25140    1.29220  -26.65170   10.94330
 6700.00000    -999.25    -999.25    -999.25    -999.25    -999.25    -999.25   77.21420    2.21160    2.01770    2.13270  -23.02050   10.56290
 6750.00000    -999.25    -999.25    -999.25    -999.25    -999.25    -999.25   79.02090    2.56250    2.20600    2.28590  -23.12810   10.17900
 6800.00000    -999.25    -999.25    -999.25    -999.25    -999.25    -999.25   83.17140    1.96330    1.46640    1.54350  -20.94020   11.00990
 6850.00000    -999.25    -999.25    -999.25    -999.25    -999.25    -999.25   87.78450    1.94380    1.48040    1.53490  -21.88870   11.37130
 6900.00000    -999.25    -999.25    -999.25    -999.25    -999.25    -999.25   85.60020    1.78890    1.30640    1.34940  -20.19590   12.31770
 6950.00000    -999.25    -999.25    -999.25    -999.25    -999.25    -999.25   94.32160    2.01350    1.63630    1.69160  -21.37100   12.72890
 7000.00000    -999.25    -999.25    -999.25    -999.25    -999.25    -999.25   83.45000    1.92550    1.47870    1.56990  -19.16840   12.30750
 7050.00000    -999.25    -999.25    -999.25    -999.25    -999.25    -999.25   84.81410    2.02340    1.68380    1.76960  -18.64350   12.21880
 7100.00000    -999.25    -999.25    -999.25    -999.25    -999.25    -999.25   78.98480    1.85520    1.40990    1.49310  -19.08260   13.68070
 7150.00000    -999.25    -999.25    -999.25    -999.25    -999.25    -999.25   85.82430    1.79630    1.36860    1.41330  -17.14980   14.10440
 7200.00000    -999.25    -999.25    -999.25    -999.25    -999.25    -999.25   87.58860    1.84440    1.41220    1.45830  -15.85600   13.77750
 7250.00000    -999.25    -999.25    -999.25    -999.25    -999.25    -999.25   84.35160    1.79020    1.35380    1.39810  -14.50570   14.03120
 7300.00000    -999.25    -999.25    -999.25    -999.25    -999.25    -999.25   90.59760    1.93310    1.44610    1.49350  -14.95130   13.11040
 7350.00000    -999.25    -999.25    -999.25    -999.25    -999.25    -999.25   86.94440    2.10440    1.49240    1.54110  -15.03940   12.55560
 7400.00000    -999.25    -999.25    -999.25    -999.25    -999.25    -999.25   78.51080    2.04530    1.35290    1.39760  -15.19420   11.80150
 7450.00000    -999.25    -999.25    -999.25    -999.25    -999.25    -999.25   83.53640    2.93600    2.29540    2.41150  -12.77410   11.40870
 7500.00000    -999.25    -999.25    -999.25    -999.25    -999.25    -999.25   70.91510    2.73590    1.99440    2.06550 -110.94700   14.99690
 7550.00000    -999.25    -999.25    -999.25    -999.25    -999.25    -999.25   47.79140    4.49870    4.06220    4.43590 -109.41440   11.25120
 7600.00000    -999.25    -999.25    0.08320    0.05950    0.00240    2.58260   27.04860    8.79150    6.60880    7.14060 -122.07380   10.39950
 7650.00000    -999.25    -999.25    0.11050    0.09810   -0.11950    2.51550   42.80730    5.71730    4.70880    5.27100 -110.14590   10.70600
 7700.00000    -999.25    -999.25    0.06830    0.09280   -0.04030    2.52870   41.39550    7.46930    7.01040    8.40940 -109.03080   10.85740
 7750.00000    -999.25    -999.25    0.07910    0.04440   -0.04150    2.60160   43.24730   12.94480    9.92300   12.60790 -107.93410    9.72910
 7800.00000    -999.25    -999.25    0.07500    0.05380   -0.01670    2.58870   28.53870   14.90530   16.03730   17.63900 -125.00780    9.34760
 7850.00000    -999.25    -999.25    0.27180    0.14550    0.10400    2.42840   98.56040    2.12200    1.17700    1.27770 -108.39390   12.27220
 7900.00000    -999.25    -999.25    0.23490    0.18250    0.13980    2.36390   99.45290    2.17430    1.01790    1.14220  -97.71090   12.06550
 7950.00000    -999.25    -999.25    0.25730    0.16040    0.06040    2.40960   98.43550    1.79630    1.03140    1.13760  -94.68660   10.99980
 8000.00000    -999.25    -999.25    0.25390    0.08490    0.18800    2.53970   83.76510    2.76530    2.16140    2.42780  -90.50730   12.08850
 8050.00000    -999.25    -999.25    0.25570    0.09390    0.15480    2.52350   79.05270    2.14380    1.28540    1.38400  -83.33680   13.64140
 8100.00000    -999.25    -999.25    0.26290    0.10670    0.11760    2.49770   80.87010    3.43730    1.89510    2.07970  -70.52060   12.08110
 8150.00000    -999.25    -999.25    0.25200    0.12830    0.11220    2.45910   84.83420    4.82570    3.23500    2.94960  -61.20730   10.42170
 8200.00000    -999.25    -999.25    0.27150    0.12210    0.17580    2.47780   95.22010    4.08760    2.26280    2.71990  -34.23690   10.57360
 8250.00000    -999.25    -999.25    0.22710    0.10000    0.08030    2.51330  115.42150    7.51320    5.49680    6.24350  -29.18790    9.18590
 8300.00000    -999.25    -999.25    0.25570    0.17020    0.14930    2.38930   82.76210    3.58470    1.70040    1.94260  -45.84070   13.81420
 8350.00000    -999.25    -999.25    0.08930    0.00270   -0.06680    2.70400   46.17650   10.71690    6.13160    6.78280  -70.31450   10.15560
 8400.00000    -999.25    -999.25    -999.25    -999.25    -999.25    -999.25   18.95600   31.00790   22.04230   25.73260 -102.77920    9.65720
 8450.00000    -999.25    -999.25    -999.25    -999.25    -999.25    -999.25   25.95710   14.76640   14.05530   14.66740  -93.19630    9.57560
 8500.00000    -999.25    -999.25    -999.25    -999.25    -999.25    -999.25   21.76300   28.95790   19.05080   21.98390  -92.95270    9.37430
 8550.00000    -999.25    -999.25    -999.25    -999.25    -999.25    -999.25   11.57250   86.30790   43.35020   45.05050 -105.82500    9.07780
 8600.00000    -999.25    -999.25    -999.25    -999.25    -999.25    -999.25   12.24530   64.35800   49.79570   53.55850 -114.36370    8.67410
 8650.00000    -999.25    -999.25    -999.25    -999.25    -999.25    -999.25   20.50910   25.01850   17.71300   19.29600  -81.93120    8.80950
