~Version ---------------------------------------------------
VERS. 2.0 : CWLS log ASCII Standard -VERSION 2.0
WRAP.  NO : ONE LINE PER DEPTH STEP
~Well ------------------------------------------------------
STRT.F                   300.0 : START DEPTH
STOP.F                 13200.0 : STOP DEPTH
STEP.F                50.00000 : STEP LENGTH
NULL.                  -999.25 : NULL VALUE
COMP.              TEXACO INC. : COMPANY
WELL.     M. D. BURNS TRUST #1 : WELL
FLD .                  WILDCAT : FIELD
LOC .                          : LOCATION
CNTY.                 LA SALLE : COUNTY
STAT.                    TEXAS : STATE
CTRY. UNITED STATES OF AMERICA : COUNTRY
SRVC.                  Unknown : SERVICE COMPANY
DATE.              05-Aug-1984 : LOGDATE
API .           42283310960000 : API NUMBER
UWI .           42283310960000 : UNIQUE WELL ID
SLAT.WGS84       28.6375495728 : SURFACE LATITUDE
SLON.WGS84      -99.1304898901 : SURFACE LONGITUDE
~Curve Information -----------------------------------------
DEPT.F                 : 
SP  .MV   07 010 01 00 : SPONTANEOUS POTENTIAL
SFL .OHMM 07 220 01 00 : SPHERICAL FOCUSED RESISTIVITY
ILD .OHMM 07 120 46 00 : DEEP INDUCTION RESISTIVITY
ILM .OHMM 07 120 44 00 : 
GR  .GAPI 07 310 01 00 : GAMMA RAY
CALI.IN   07 280 01 00 : CALIPER
DCAL.IN   07 280 30 00 : DIFFERENTIAL CALIPER
DT  .US/F 60 520 00 00 : NO SPACING
NEUT.NAPI 40 330 01 00 : 
~Params ----------------------------------------------------
EKB .F                  536.0 : KELLY BUSHING
EGL .F                    506 : ELEVATION GROUND LEVEL
EDF .F                    535 : ELEVATION DERRICK FLOOR
EPD .F                    506 : ELEVATION PERMANENT DATUM
TD  .F                13219.0 : TOTAL DEPTH
DATE.             15-NOV-1984 : DATE LOGGED
CLNT.                 A2DTECH : CLIENT CODE
SL  . 1780' FSWL & 1500' FNWL : SURFACE LOCATION
PD  .                      GL : PERMANENT DATUM
LMF .                      KB : LOG MEASURED FROM
DMF .                      KB : DRILLING MEASURED FROM
DAPD.F                     30 : FEET ABOVE PERMANENT DATUM
DD  .F                  13219 : DEPTH DRILLER
DL  .F                  13218 : DEPTH LOGGER
BLI .F                  13212 : BOTTOM LOG INTERVAL
TLI .F                  11650 : TOP LOG INTERVAL
CS1 .IN                 7.625 : CASING SIZE
CBD1.         7.625" @ 11049' : CASING DRILLER 1
CBL1.F                  11049 : CASING LOGGER 1
BS1 .IN                   6.5 : BIT SIZE
BSD1.F                  13219 : DEPTH DRILLED WITH BIT1
DFT .          LIGNOSULFONATE : TYPE FLUID IN HOLE
DFD .                    10.5 : DENSITY
DFV .                      49 : VISCOSITY
DFPH.                    11.5 : PH
DFL .                       9 : FLUID LOSS
MSS .              CIRC. TANK : SOURCE OF SAMPLE
RMS .OHMM                0.98 : RM
RMF .OHMM                0.92 : RMF
RMC .OHMM                1.64 : RMC
MFSS.                    MEAS : SOURCE RMF.
MCSS.                    CALC : SOURCE RMC.
RMB .OHMM                0.33 : RM. AT BHT
BHT .F                    264 : BHT.
TCS .HRS                  530 : TIME CIRC. STOPPED
TLAB.                    1600 : TIME LOGGER AT BOTTOM
LUN .                    8268 : LOGGING UNIT NUMBER
LUL .                  LAREDO : LOGGING UNIT LOCATION
ENGI.                JAY KING : RECORDED BY
WITN.      MIKATAVAGE/ FARREL : WITNESSED BY
ORIG.                5" PRINT : ORIGIN OF DATA
UWI .          42283310960000 : UNIQUE WELL ID
DICO.  A2D TECHNOLOGIES, INC. : DIGITIZING COMPANY
~Other -----------------------------------------------------
~ASCII -----------------------------------------------------
# ...
 7600.00000    4.29300   18.95130   22.34830   22.41390   26.14500    -999.25    -999.25   63.77800    -999.25
 7650.00000    1.44800  161.96270  410.17660  737.00090   34.86100    -999.25    -999.25   61.56100    -999.25
 7700.00000   13.84600    7.35780    5.46730    5.31740   30.42400    -999.25    -999.25   71.89000    -999.25
 7750.00000   11.54300   57.36670   52.01730   42.70510   67.61000    -999.25    -999.25   71.59000    -999.25
 7800.00000   -7.25800  235.75580 1274.25020 1732.41420   45.78300    -999.25    -999.25   66.18400    -999.25
 7850.00000  -19.78900  109.11200 1964.41240  597.72010   14.50100    -999.25    -999.25   54.30600    -999.25
 7900.00000   -7.58000   46.11790   95.87960   96.28670   19.07800    -999.25    -999.25   50.05900    -999.25
 7950.00000  -60.65700    3.38000    3.84100    3.24700   68.47100    -999.25    -999.25   80.40700    -999.25
 8000.00000  -68.89700   79.37200   47.15200   40.62900   21.51600    -999.25    -999.25   52.45000    -999.25
 8050.00000 -103.65800   87.57600   51.55600   56.10200   18.21500    -999.25    -999.25   51.48600    -999.25
 8100.00000  -77.66000   81.44100   84.26900   60.10600   30.13600    -999.25    -999.25   51.91900    -999.25
 8150.00000 -137.47700   21.14500    3.84800    5.52500   27.61500    -999.25    -999.25   54.27500    -999.25
 8200.00000 -141.33300  199.79900  269.17300   80.58700   21.96000    -999.25    -999.25   53.62100    -999.25
 8250.00000 -140.84400  114.68900   81.36600  246.95200   34.09500    -999.25    -999.25   50.36800    -999.25
 8300.00000 -155.68500 1301.62700  313.31900  138.97300    9.16700    -999.25    -999.25   50.56200    -999.25
 8350.00000 -168.10300  687.73300  264.20600 1353.24000   22.10800    -999.25    -999.25   51.72500    -999.25
 8400.00000 -180.18400 1855.91200  510.72200   64.45800    9.96800    -999.25    -999.25   52.50000    -999.25
 8450.00000 -153.89200  405.97400  206.30400  124.33300   35.80000    -999.25    -999.25   51.00000    -999.25
 8500.00000 -124.89200   29.62300   16.08100   17.54000   32.10900    -999.25    -999.25   50.66600    -999.25
 8550.00000  -91.21600  590.80900   69.10000   65.03600   37.89300    -999.25    -999.25   52.56000    -999.25
 8600.00000 -125.84800   50.08800   18.90200   23.21000   25.72800    -999.25    -999.25   49.84500    -999.25
 8650.00000 -128.87000   46.91200    7.55400   13.26100   23.21100    -999.25    -999.25   56.14300    -999.25
 8700.00000 -118.31200 1449.98400   34.99900   74.34600   12.81400    -999.25    -999.25   51.52900    -999.25
 8750.00000 -131.85900   10.58400    1.29400    2.11400   17.53400    -999.25    -999.25   67.18400    -999.25
 8800.00000 -134.39200  117.23900   12.51400   21.96900   27.29000    -999.25    -999.25   51.46600    -999.25
 8850.00000 -125.92400   70.07100    3.36300    5.82800   21.84600    -999.25    -999.25   50.56200    -999.25
 8900.00000 -135.21200   19.80800    1.55400    2.78300   16.75100    -999.25    -999.25   58.49400    -999.25
 8950.00000 -105.00500   32.29100   29.07700   24.07700   28.55400    -999.25    -999.25   50.41700    -999.25
 9000.00000  -91.82700  126.28600  141.47900  102.68300   32.59500    -999.25    -999.25   49.62000    -999.25
 9050.00000  -96.89900  209.61200  118.33000  102.99900   44.20600    -999.25    -999.25   50.17400    -999.25
 9100.00000  -56.01100  210.72600   72.62600   76.38200   22.00800    -999.25    -999.25   50.64000    -999.25
 9150.00000 -103.65500   91.19700   44.66100   54.15400   31.02500    -999.25    -999.25   49.98100    -999.25
 9200.00000 -107.89000   99.85800   60.01200   89.96900   16.54000    -999.25    -999.25   49.98100    -999.25
 9250.00000  -89.45100   64.76400   70.21000   60.23800   44.75300    -999.25    -999.25   52.37800    -999.25
 9300.00000 -113.54200   37.85400   10.00800   16.82000   18.10800    -999.25    -999.25   56.28100    -999.25
 9350.00000 -114.81500   42.67700   23.07300   31.47500   24.13100    -999.25    -999.25   52.11200    -999.25
 9400.00000 -117.47200   29.97100   18.19000   19.39800   44.50700    -999.25    -999.25   52.12100    -999.25
 9450.00000 -119.01200   28.08400   10.84600   14.20200   33.18500    -999.25    -999.25   53.85700    -999.25
 9500.00000 -116.19000   29.28900    9.78700   11.78600   29.86800    -999.25    -999.25   52.11200    -999.25
 9550.00000 -129.01800   37.89400   15.71400   21.29100   25.42000    -999.25    -999.25   51.18200    -999.25
 9600.00000 -133.24200   60.30300    4.47600    7.09500   11.23300    -999.25    -999.25   54.17900    -999.25
 9650.00000 -134.48800   26.94500    3.84800    6.20600   11.66400    -999.25    -999.25   57.62700    -999.25
 9700.00000 -132.98200    9.75500    1.66900    1.99600    9.01200    -999.25    -999.25   62.57800  322.28300
 9750.00000 -133.95900   12.41800    1.39600    2.10800    9.76800    -999.25    -999.25   63.71700  332.27200
 9800.00000 -132.07400   19.16500    3.00900    4.49900    7.35600    -999.25    -999.25   58.56400  351.69300
 9850.00000 -129.46500   23.48900    3.71200    5.78100   10.64000    -999.25    -999.25   59.97400  356.99300
 9900.00000 -116.37500   28.08000   13.68200   20.67600   10.91400    -999.25    -999.25   55.69800  259.07400
 9950.00000 -124.46600   25.01200    9.80400   11.43000   10.70400    -999.25    -999.25   52.24300  434.59500
 10000.00000 -125.77900   16.82300    8.04100    7.09500    9.25600    -999.25    -999.25   51.33700  435.14800
 10050.00000 -128.45500   11.18500    3.11900    4.02000   13.75900    -999.25    -999.25   53.95300  313.84100
 10100.00000 -140.14900    5.77800    3.17400    3.90000   25.76700    -999.25    -999.25   54.24100  359.98800
 10150.00000 -135.53000    6.57600    3.20300    2.77700   15.57600    -999.25    -999.25   56.13200  467.82900
 10200.00000 -127.28600    3.29100    3.14700    3.35900   13.29200    -999.25    -999.25   55.94000  397.15100
 10250.00000 -138.43200    2.39400    1.18900    1.30600   14.77100    -999.25    -999.25   59.82300  335.07600
 10300.00000 -124.47300   29.93000   19.12000   23.64800   32.35300    -999.25    -999.25   51.72500  559.96100
 10350.00000 -133.01300   32.39900   16.41100   15.65800   23.03100    -999.25    -999.25   49.69500  373.68100
 10400.00000 -121.72300  166.78600   77.22700   73.37300   21.80400    -999.25    -999.25   51.51700  418.15500
 10450.00000  -73.67200  146.99600  120.45600   53.05100   26.57000    -999.25    -999.25   52.50000  489.04400
 10500.00000  -70.62200  127.66700  127.25300  127.85000   35.91900    -999.25    -999.25   51.60000  434.04100
 10550.00000 -124.18000  103.11000  172.20500   65.03600   21.02900    -999.25    -999.25   53.08100  484.18600
 10600.00000  -88.08300   37.51200   25.77200   34.92700   39.89000    -999.25    -999.25   60.05800  386.94700
 10650.00000  -82.58300  153.32900   71.29800   70.48100   24.55800    -999.25    -999.25   53.95200  334.44800
 10700.00000 -126.69600   32.32500   42.92900   39.93800   13.41000    -999.25    -999.25   51.94900  354.94100
 10750.00000  -63.37600   25.04400   27.81100   21.67400   55.83100    -999.25    -999.25   61.07900  445.04200
 10800.00000 -131.84700   51.60600   72.39500   45.94300   42.90000    -999.25    -999.25   53.63100  377.37800
 10850.00000  -37.77800  131.93400   50.07500  124.84600   64.98800    -999.25    -999.25   57.00400  443.18700
 10900.00000  -50.56200  304.63500  129.38800  241.81000   47.21900    -999.25    -999.25   52.06400  483.25100
 10950.00000  -24.24200   46.18200   33.27900   33.03000   48.24700    -999.25    -999.25   55.60100  525.95300
 11000.00000  -34.34600  184.52700  130.61900   90.51200   49.08900    -999.25    -999.25   51.63300  644.29600
 11050.00000  -13.85200    -999.25    -999.25    -999.25   40.22200    7.71000    -999.25    -999.25  593.76300
 11100.00000  -20.61700  118.50900   56.79700   78.79700   40.82500    7.44800    -999.25   52.84300  882.81900
 11150.00000  -23.33600   31.05700   23.60800   29.02800   74.28100    7.68000    -999.25   67.25400  600.53100
