~Version ---------------------------------------------------
VERS. 2.0 : CWLS log ASCII Standard -VERSION 2.0
WRAP. YES : MULTIPLE LINES PER DEPTH STEP
~Well ------------------------------------------------------
STRT.FT                         2000.0 : START DEPTH
STOP.FT                        10400.0 : STOP DEPTH
STEP.FT                       50.00000 : STEP LENGTH
NULL.                          -999.25 : NULL VALUE
COMP.                CALTO OIL COMPANY : COMPANY
WELL. CHAS A. MC CORMICK GAS UNIT 1 #2 : WELL
FLD .                           JEWETT : FIELD
LOC .                                  : LOCATION
CNTY.                             LEON : COUNTY
STAT.                            TEXAS : STATE
CTRY.         UNITED STATES OF AMERICA : COUNTRY
SRVC.                    Dresser Atlas : SERVICE COMPANY
DATE.                      03-Sep-1984 : LOGDATE
API .                   42289305780000 : API NUMBER
UWI .                   42289305780000 : UNIQUE WELL ID
SLAT.WGS84               31.4139663041 : SURFACE LATITUDE
SLON.WGS84              -96.1337932254 : SURFACE LONGITUDE
~Curve Information -----------------------------------------
DEPT    .FT    : DEPTH FEET
CALDED  .IN    : CALIPER FROM DENSITY LOG [DEPTH ADJ. TO SPR/ILD]
CALWS   .IN    : CALIPER [CALDED]
CNLSED  .V/V   : NEUTRON POROSITY LIMESTONE FROM DENSITY LOG[DEPTH ADJ. TO SPR/ILD]
CONDWS  .MMHO  : CONDUCTIVITY [1000/DRESWS]
CORRED  .G/C3  : DENSITY CORRECTION FROM DENSITY LOG [DEPTH ADJ. TO SPR/ILD]
DCORWS  .G/C3  : DENSITY CORRECTION [CORRED]
DENED   .G/C3  : BULK DENSITY FROM DENSITY LOG [DEPTH ADJ. TO SPR/ILD]
DENWS   .G/C3  : BULK DENSITY [M=2.65 F=1.0] [DENED]
DPOWS   .V/V   : DENSITY POROSITY [M=2.65 F=1.0] [CALCULATED FROM DENWS]
DRESWS  .OHMM  : DEEP RESISTIVITY [RILDED]
GRDED   .GAPI  : GAMMA RAY FROM DENSITY LOG[DEPTH ADJ. TO SPR/ILD]
GRWS    .GAPI  : GAMMA RAY [GRDED]
MRESWS  .OHMM  : MEDIUM RESISTIVITY [RILMED]
NPOWS   .V/V   : NEUTRON POROSITY SANDSTONE [CNLSED]
PORDLSED.V/V   : DENSITY POROSITY [LIMESTONE][DEPTH ADJ. TO SPR/ILD]
RFOCED  .OHMM  : FOCUSED RESISTIVITY
RILDED  .OHMM  : INDUCTION LOG DEEP RESISTIVITY
RILMED  .OHMM  : INDUCTION LOG MEDIUM RESISTIVITY
SPRED   .MV    : SPONTANEOUS POTENTIAL FROM RESISTIVITY LOG
SPWS    .MV    : SPONTANEOUS POTENTIAL [BASELINE 0 MV] [SPRED]
SRESWS  .OHMM  : SHALLOW RESISTIVITY [RFOCED]
TENDED  .LBF   : TENSION FROM DENSITY LOG [DEPTH ADJ. TO SPR/ILD]
TENRED  .LBF   : TENSION FROM RESISTIVITY LOG
~Params ----------------------------------------------------
PD  .                     GL : PERMANENT DATUM
EPD .FT                  430 : ELEVATION PERMANENT DATUM
LMF .                     KB : LOG MEASURED FROM
DAPD.FT                   18 : FEET ABOVE PERMANENT DATUM
DMF .                     KB : DRILLING MEASURED FROM
EKB .FT                  448 : KELLY BUSHING
EDF .FT                  447 : DRILLING FLOOR
EGL .FT                  430 : GROUND LEVEL
DATE.               09/03/84 : RUN DATE
RUN .                      1 : RUN NUMBER
DD  .FT                10416 : DEPTH DRILLER
DL  .FT                10416 : DEPTH LOGGER
BLI .FT                10414 : BOTTOM LOG INTERVAL
TLI .FT                 5700 : TOP LOG INTERVAL
CS  .IN                8.625 : CASING SIZE
CBD .FT                 1964 : CASING BOTTOM DRILLER
BS  .IN                7.875 : BIT SIZE
BSD .FT                10416 : BIT SIZE AT DEPTH
DFT .            CLS LIGNITE : DRILLING FLUID TYPE
DFD .                     10 : DRILLING FLUID DENSITY
DFV .                     40 : DRILLING FLUID VISCOSITY
DFPH.                     10 : DRILLING FLUID PH
DFL .                    9.5 : DRILLING FLUID LOSS
MSS .               FLOWLINE : MUD SAMPLE SOURCE
RMS .OHMM               1.39 : RESISTIVITY MUD SAMPLE
MST .DEGF                 93 : MUD SAMPLE TEMPERATURE
RMF .OHMM               1.01 : RESISTIVITY MUD FILTRATE SAMPLE
MFST.DEGF                 93 : MUD FILTRATE SAMPLE TEMPERATURE
RMC .OHMM               1.68 : RESISTIVITY MUD CAKE
MCST.DEGF                 93 : MUD CAKE SAMPLE TEMPERATURE
MFSS.                   CALC : MUD FILTRATE SAMPLE SOURCE
MCSS.                   CALC : MUD CAKE SAMPLE SOURCE
RMB .OHMM               0.57 : RESISTIVITY MUD AT BHT
TCS .HRS                 900 : TIME CIRCULATED STOPPED
LUN .                   6267 : LOGGING UNIT NUMBER
LUL .             SHREVEPORT : LOGGING UNIT LOCATION
ENGI.               MELHUISH : RECORDING ENGINEER
WITN.    HANSEN PERET O'NEIL : WITNESSED BY
CLNT.                A2DTECH : CLIENT CODE
ORIG.               5" PRINT : ORIGIN OF DATA
UWI .         42289305780000 : UNIQUE WELL ID
DICO. A2D Technologies, Inc. : DIGITIZING COMPANY
~Other -----------------------------------------------------
MUD DENSITY 10 PPG
~ASCII -----------------------------------------------------
# ...
 8200.00000    -999.25    -999.25    -999.25   38.77490    -999.25    -999.25    -999.25    -999.25    -999.25   25.78990    -999.25    -999.25   16.49120    -999.25    -999.25   82.46880   25.78990   16.49120  -71.29250   -7.48720   82.46880    -999.25    0.00000
 8250.00000    -999.25    -999.25    -999.25   41.83630    -999.25    -999.25    -999.25    -999.25    -999.25   23.90270    -999.25    -999.25   24.45170    -999.25    -999.25   28.62570   23.90270   24.45170  -65.86790   -2.32200   28.62570    -999.25    0.00000
 8300.00000    -999.25    -999.25    -999.25  112.02720    -999.25    -999.25    -999.25    -999.25    -999.25    8.92640    -999.25    -999.25    8.92410    -999.25    -999.25   12.84310    8.92640    8.92410  -65.73250   -1.97840   12.84310    -999.25    5.31420
 8350.00000    -999.25    -999.25    -999.25   78.60770    -999.25    -999.25    -999.25    -999.25    -999.25   12.72140    -999.25    -999.25   12.12200    -999.25    -999.25   20.07440   12.72140   12.12200  -64.71750   -0.60740   20.07440    -999.25    0.00000
 8400.00000    -999.25    -999.25    -999.25   57.27020    -999.25    -999.25    -999.25    -999.25    -999.25   17.46110    -999.25    -999.25   22.63740    -999.25    -999.25   11.21130   17.46110   22.63740  -70.78240   -7.46740   11.21130    -999.25    0.00000
 8450.00000    -999.25    -999.25    -999.25   45.11540    -999.25    -999.25    -999.25    -999.25    -999.25   22.16540    -999.25    -999.25   23.87460    -999.25    -999.25   25.95810   22.16540   23.87460  -67.43460   -6.50400   25.95810    -999.25    0.00000
 8500.00000    -999.25    -999.25    -999.25   19.18800    -999.25    -999.25    -999.25    -999.25    -999.25   52.11590    -999.25    -999.25   49.47660    -999.25    -999.25   58.24340   52.11590   49.47660  -88.09210  -29.54590   58.24340    -999.25    5.00400
 8550.00000    -999.25    -999.25    -999.25   12.07050    -999.25    -999.25    -999.25    -999.25    -999.25   82.84630    -999.25    -999.25   85.02540    -999.25    -999.25   89.23210   82.84630   85.02540  -80.77730  -24.61550   89.23210    -999.25    0.00000
 8600.00000   11.35010   11.35010   -0.00550    4.86450   -0.02050   -0.02050    2.89160    2.89160   -0.10620  205.57080   18.27180   18.27180  180.44410   -0.00550   -0.10510  453.89580  205.57080  180.44410  -67.89970  -14.12240  453.89580    0.13700    8.93960
 8650.00000   11.75710   11.75710    0.09060   71.63430    0.05880    0.05880    2.67960    2.67960    0.01780   13.95980   62.96430   62.96430   15.06420    0.09060    0.01820   19.40420   13.95980   15.06420  -52.09810   -0.09540   19.40420   28.43790    5.97860
 8700.00000   12.13830   12.13830    0.05350   66.17300    0.01050    0.01050    2.67340    2.67340    0.02140   15.11190   65.32820   65.32820   16.43280    0.05350    0.02260   21.97260   15.11190   16.43280  -82.38370  -29.37740   21.97260    0.47200    0.92710
 8750.00000   11.24170   11.24170    0.02410   30.60340    0.01320    0.01320    2.65380    2.65380    0.03290   32.67610   45.63460   45.63460   34.11840    0.02410    0.03200   33.61030   32.67610   34.11840 -127.51630  -73.50640   33.61030    0.00000    0.00000
 8800.00000   10.16090   10.16090    0.07790   86.71450    0.03290    0.03290    2.52020    2.52020    0.11100   11.53210   26.38630   26.38630   18.10340    0.07790    0.11200   43.37640   11.53210   18.10340 -119.82760  -64.81420   43.37640    0.00000    0.47870
 8850.00000   11.66600   11.66600    0.08880  102.16800   -0.05670   -0.05670    2.64730    2.64730    0.03670    9.78780   58.48630   58.48630    9.99480    0.08880    0.03600   14.46280    9.78780    9.99480  -55.08250    0.23400   14.46280    2.43440    0.00000
 8900.00000   10.79400   10.79400    0.04630   24.61260   -0.08540   -0.08540    2.59570    2.59570    0.06680   40.62960   53.38120   53.38120   41.58380    0.04630    0.06760   53.52870   40.62960   41.58380  -58.04700   -9.90690   53.52870    0.00000    0.00000
 8950.00000   11.01720   11.01720    0.06540   38.52210   -0.00440   -0.00440    2.64450    2.64450    0.03830   25.95910   57.29550   57.29550   25.62190    0.06540    0.03890   30.18240   25.95910   25.62190  -50.75420   -0.81440   30.18240   11.11740    0.00000
 9000.00000   14.62440   14.62440    0.37620  333.96790    0.18140    0.18140    2.23520    2.23520    0.27770    2.99430   94.71600   94.71600    2.96210    0.37620    0.27990    5.36760    2.99430    2.96210  -51.39870   -3.56910    5.36760    0.00000    0.00000
 9050.00000   13.77840   13.77840    0.32850  331.35620    0.09960    0.09960    -999.25    -999.25    -999.25    3.01790   91.63340   91.63340    2.76680    0.32850    0.44130    6.84020    3.01790    2.76680  -51.12750   -0.39470    6.84020    0.00000    0.43850
 9100.00000   13.63680   13.63680    0.32390  238.64070    0.00170    0.00170    2.03680    2.03680    0.39370    4.19040   71.01870   71.01870    4.01810    0.32390    0.38860    4.35420    4.19040    4.01810  -51.50130   -2.90430    4.35420    0.00000    6.08230
 9150.00000   15.04080   15.04080    0.32120  314.89120    0.19840    0.19840    2.24020    2.24020    0.27470    3.17570   97.19100   97.19100    3.24170    0.32120    0.27530    4.74080    3.17570    3.24170  -47.87510   -1.41380    4.74080    2.66340    0.61590
 9200.00000   11.25320   11.25320    0.14690  105.39520   -0.02420   -0.02420    2.64470    2.64470    0.03820    9.48810   85.84480   85.84480    9.49850    0.14690    0.04040   12.86430    9.48810    9.49850  -45.56190   -1.23640   12.86430    5.47330    1.92340
 9250.00000   10.70830   10.70830   -0.02850   45.21060    0.00440    0.00440    2.71570    2.71570   -0.00330   22.11870   46.93470   46.93470   18.43330   -0.02850   -0.00600   28.86690   22.11870   18.43330  -49.71270   -4.07200   28.86690    1.90700    4.81970
 9300.00000   13.68380   13.68380    0.24790  267.30820    0.12270    0.12270    2.14630    2.14630    0.32960    3.74100   91.04210   91.04210    3.56340    0.24790    0.32970    6.02060    3.74100    3.56340  -51.15420   -4.36940    6.02060    5.84910    0.00000
 9350.00000   12.60560   12.60560    0.30750  179.95000    0.13470    0.13470    2.50570    2.50570    0.11950    5.55710   94.41300   94.41300    5.24020    0.30750    0.12260    7.34800    5.55710    5.24020  -49.22450   -2.83440    7.34800    2.42930    5.90260
 9400.00000   11.63180   11.63180    0.07770   30.27420   -0.00330   -0.00330    2.66610    2.66610    0.02570   33.03140   68.53780   68.53780   35.15220    0.07770    0.02490   29.55810   33.03140   35.15220  -66.58590  -20.59060   29.55810    0.62260    0.00000
 9450.00000   11.82800   11.82800    0.05930   23.76720    0.07240    0.07240    2.69270    2.69270    0.01010   42.07480   59.72260   59.72260   44.98960    0.05930    0.00990   51.26090   42.07480   44.98960 -108.71560  -63.11500   51.26090    0.00000    1.47150
 9500.00000   10.96010   10.96010    0.02470    8.87380    0.01450    0.01450    2.64570    2.64570    0.03760  112.69120   33.23510   33.23510   89.34930    0.02470    0.03730  111.80070  112.69120   89.34930  -94.07250  -48.86670  111.80070    3.62640    2.84710
 9550.00000   11.03440   11.03440    0.03470   27.54310    0.08570    0.08570    2.69870    2.69870    0.00660   36.30670   51.72170   51.72170   30.85840    0.03470    0.00060   65.47310   36.30670   30.85840  -82.52140  -37.71040   65.47310    6.23770    3.07350
 9600.00000   10.55020   10.55020    0.04750   55.96250   -0.01810   -0.01810    2.68090    2.68090    0.01700   17.86910   50.94350   50.94350   18.38730    0.04750    0.01660   83.41810   17.86910   18.38730  -53.74960   -9.33330   83.41810    0.00000    8.12150
 9650.00000   10.41660   10.41660    0.02550   10.02620    0.01260    0.01260    2.72600    2.72600   -0.00940   99.73820   34.46880   34.46880   80.16740    0.02550   -0.00890  115.36810   99.73820   80.16740  -74.98800  -27.93320  115.36810    1.11520    0.00000
 9700.00000   10.57860   10.57860    0.03240    8.31000    0.04420    0.04420    2.66970    2.66970    0.02360  120.33630   49.76940   49.76940   89.91400    0.03240    0.02360  181.60870  120.33630   89.91400  -91.47290  -40.87360  181.60870    9.74310    0.42790
