~Version ---------------------------------------------------
VERS. 2.0 : CWLS log ASCII Standard -VERSION 2.0
WRAP. YES : Multiple lines per depth step
~Well ------------------------------------------------------
STRT.FT                     300.0 : START DEPTH
STOP.FT                   15250.0 : STOP DEPTH
STEP.FT                  50.00000 : STEP LENGTH
NULL.                     -999.25 : NULL VALUE
COMP. GRACE PETROLEUM CORPORATION : COMPANY
WELL.      WELDON COX GAS UNIT #1 : WELL
FLD .                  BEAR GRASS : FIELD
LOC .                             : LOCATION
CNTY.                        LEON : COUNTY
STAT.                       TEXAS : STATE
CTRY.    UNITED STATES OF AMERICA : COUNTRY
SRVC.                Schlumberger : SERVICE COMPANY
DATE.                 27-Jan-1980 : LOGDATE
API .              42289303540000 : API NUMBER
UWI .              42289303540000 : UNIQUE WELL ID
SLAT.WGS84           31.398216302 : SURFACE LATITUDE
SLON.WGS84         -96.2188853622 : SURFACE LONGITUDE
~Curve Information -----------------------------------------
DEPT    .FT    : DEPTH FEET
CALDED  .IN    : CALIPER FROM SIMULTANEOUS COMPENSATED NEUTRON-FORMATION DENSITY LOG [ADJ. TO CALRED]
CALRED  .IN    : CALIPER FROM DUAL INDUCTION-SFL-BOREHOLE COMPENSATED SONIC LOG
CALWS   .IN    : CALIPER [CALDED SPLICED FOR DEPTH 7900' TO 15268.5' WITH CALRED]
CONDWS  .MMHO  : CONDUCTIVITY [1000/DRESWS]
DCORWS  .G/C3  : DENSITY CORRECTION [DRHOED]
DENWS   .G/C3  : FORMATION BULK DENSITY [RHOBED]
DPHILSED.V/V   : DENSITY POROSITY LIMESTONE [M=2.71, F=1.0, CALCULATED FROM DENWS]]
DPOWS   .V/V   : DENSITY POROSITY LIMESTONE [DPHILSED]
DRESWS  .OHMM  : DEEP RESISTIVITY [ILDED]
DRHOED  .G/C3  : BULK DENSITY CORRECTION SIMULTANEOUS COMPENSATED NEUTRON-FORMATION DENSITY LOG [ADJ. TO ILDED]
DTED    .US/F  : DELTA-T (INTERVAL TRANSIT TIME) FROM DUAL INDUCTION-SFL-BOREHOLE COMPENSATED SONIC LOG
DTWS    .US/F  : COMPRESSIONAL SONIC [DTED]
GRDED   .GAPI  : GAMMA RAY SIMULTANEOUS COMPENSATED NEUTRON-FORMATION DENSITY LOG [ADJ. TO ILDED]
GRWS    .GAPI  : GAMMA RAY [GRDED]
ILDED   .OHMM  : DEEP INDUCTION FROM DUAL INDUCTION-SFL-BOREHOLE COMPENSATED SONIC LOG
ILMED   .OHMM  : MEDIUM INDUCTION FROM DUAL INDUCTION-SFL-BOREHOLE COMPENSATED SONIC LOG
MRESWS  .OHMM  : MEDIUM RESISTIVITY [ILMED]
NPHILSED.V/V   : NEUTRON POROSITY LIMESTONE SIMULTANEOUS COMPENSATED NEUTRON-FORMATION DENSITY LOG [ADJ. TO ILDED]
NPOWS   .V/V   : NEUTRON POROSITY LIMESTONE [NPHILSED]
RHOBED  .G/C3  : BULK DENSITY SIMULTANEOUS COMPENSATED NEUTRON-FORMATION DENSITY LOG [ADJ. TO ILDED]
SFLUED  .OHMM  : SHALLOW FOCUSED INDUCTION (UNAVERAGED) FROM DUAL INDUCTION-SFL-BOREHOLE COMPENSATED SONIC LOG
SPRED   .MV    : SPONTANEOUS POTENTIAL FROM DUAL INDUCTION-SFL-BOREHOLE COMPENSATED SONIC LOG
SPWS    .MV    : SPONTANEOUS POTENTIAL [BASELINE 0 MV, SPRED]
SRESWS  .OHMM  : SHALLOW RESISTIVITY [SFLUED]
~Params ----------------------------------------------------
PD  .                     GL : PERMANENT DATUM
EPD .F                   492 : ELEVATION PERMANENT DATUM
LMF .                     KB : LOG MEASURED FROM
DAPD.F                  22.4 : FEET ABOVE PERMANENT DATUM
DMF .                     KB : DRILLING MEASURED FROM
EKB .F                 514.4 : KELLING BUSHING
EDF .F                 513.4 : DRILLING FLOOR
EGL .F                   492 : GROUND LEVEL
DATE.              1-27-1980 : RUN DATE
RUN .                      4 : RUN NUMBER
DD  .F                 15300 : DEPTH DRILLER
DL  .F                 15299 : DEPTH LOGGER
BLI .F                 15293 : BOTTOM LOG INTERVAL
TLI .F                 13183 : TOP LOG INTERVAL
CS  .IN                 7.62 : CASING SIZE
CBD .F                  1320 : CASING BOTTOM DRILLER
CBL .F                  1318 : CASING BOTTOM LOGGER
BS  .IN                  6.2 : BIT SIZE
BSD .F                 15300 : BIT SIZE AT DEPTH
DFT .              LIME/CHEM : DRILLING FLUID TYPE
DFD .                   16.2 : DRILLING FLUID DENSITY
DFV .                     55 : DRILLING FLUID VISCOSITY
DFPH.                   11.5 : DRILLING FLUID PH
DFL .                      7 : DRILLING FLUID LOSS
MSS .                   TANK : MUD SAMPLE SOURCE
RMS .OHMM               1.18 : RESISTIVITY MUD SAMPLE
MST .F                    52 : MUD SAMPLE TEMPERATURE
RMF .OHMM               0.66 : RESISTIVITY MUD FILTRATE SAMPLE
MFST.F                    58 : MUD FILTRATE SAMPLE TEMPERATURE
RMC .OHMM                3.7 : RESISTIVITY MUD CAKE
MCST.F                    52 : MUD CAKE SAMPLE TEMPERATURE
MFSS.                      P : MUD FILTRATE SAMPLE SOURCE
MCSS.                      C : MUD CAKE SAMPLE SOURCE
RMB .OHMM               0.18 : RESISTIVITY MUD AT BHT
TCS .HRS                 900 : TIME CURCULATED STOPPED
TLAB.HRS                1730 : TIME LOGGER AT BOTTOM
LUN .                   8083 : LOGGING UNIT NUMBER
LUL .                  TYLER : LOGGING UNIT LOCATION
ENGI.                  HARSH : RECORDING ENGINEER
CLNT.                A2DTECH : CLIENT CODE
ORIG.            2",5" PRINT : ORIGIN OF DATA
UWI .         42289303540000 : UNIQUE WELL ID
DICO. A2D Technologies, Inc. : DIGITIZING COMPANY
~Other -----------------------------------------------------
CALIPER IS INVALID ABOVE 13192' AND IT WAS NULLED
~ASCII -----------------------------------------------------
# ...
 10450.00000   10.44160    6.12920    -999.25   57.45710    0.03380    2.58830    0.06970    0.07120   17.40430    0.03380   89.22110   89.22110   67.97940   67.97940   17.40430   12.79290   12.79290    0.06660    0.06660    2.58830   20.10580  -44.75280  -42.97320   20.10580
 10500.00000   10.27880    6.20870    -999.25   44.05790    0.01990    2.58860    0.07160    0.07100   22.69740    0.01990   97.64010   97.64010   29.19750   29.19750   22.69740   16.42730   16.42730    0.01480    0.01480    2.58860   26.38210  -61.98870  -60.53270   26.38210
 10550.00000   10.33450    6.74280    -999.25  129.26080    0.02660    2.54360    0.09660    0.09730    7.73630    0.02660   89.10980   89.10980   22.65730   22.65730    7.73630    7.43910    7.43910    0.02690    0.02690    2.54360   15.44660  -72.43330  -71.30080   15.44660
 10600.00000   10.72310    7.05930    -999.25   68.87760    0.05420    2.57770    0.07560    0.07740   14.51850    0.05420   80.32900   80.32900   31.85310   31.85310   14.51850   12.79960   12.79960    0.01980    0.01980    2.57770   28.16230  -57.53990  -56.73100   28.16230
 10650.00000   10.70080    7.03290    -999.25   68.48380   -0.00410    2.61100    0.05470    0.05790   14.60200   -0.00410   83.71760   83.71760   62.82090   62.82090   14.60200   11.97980   11.97980    0.06900    0.06900    2.61100   15.26370  -32.47470  -31.98930   15.26370
 10700.00000   11.29650    6.85590    -999.25   86.24850   -0.00380    2.62690    0.05130    0.04860   11.59440   -0.00380   88.51870   88.51870   67.28860   67.28860   11.59440   10.50260   10.50260    0.13960    0.13960    2.62690   11.80930  -14.86560  -14.70380   11.80930
 10750.00000   10.58960    6.25230    -999.25   28.55720    0.02600    2.54230    0.09440    0.09810   35.01740    0.02600   90.04400   90.04400   23.32670   23.32670   35.01740   25.26390   25.26390    0.03200    0.03200    2.54230   36.93040  -54.95980  -55.12150   36.93040
 10800.00000   10.71600    6.49060    -999.25   71.33070    0.05470    2.64950    0.03330    0.03540   14.01920    0.05470   94.33410   94.33410   86.60390   86.60390   14.01920    9.74590    9.74590    0.17700    0.17700    2.64950   11.79070  -27.68310  -28.16840   11.79070
 10850.00000   10.49260    6.54490    -999.25   25.62450    0.14080    2.69720    0.00530    0.00750   39.02510    0.14080   83.00990   83.00990   55.40350   55.40350   39.02510   21.81270   21.81270    0.13270    0.13270    2.69720   32.17610  -25.52270  -26.33150   32.17610
 10900.00000   10.11150    6.17890    -999.25    5.37760   -0.00080    2.54690    0.09630    0.09540  185.95520   -0.00080   77.75110   77.75110   19.54610   19.54610  185.95520   90.23970   90.23970    0.00220    0.00220    2.54690  136.13380  -33.82860  -34.96100  136.13380
 10950.00000   10.27160    7.16390    -999.25   13.58250    0.01790    2.56160    0.08580    0.08680   73.62390    0.01790   85.64700   85.64700   19.56240   19.56240   73.62390   40.75440   40.75440    0.01310    0.01310    2.56160   50.73990  -49.56390  -51.01980   50.73990
 11000.00000   10.29800    6.60870    -999.25   22.96950    0.02200    2.59480    0.06910    0.06740   43.53600    0.02200   81.60310   81.60310   50.65260   50.65260   43.53600   32.55610   32.55610    0.01990    0.01990    2.59480   35.10760  -36.39520  -38.17460   35.10760
 11050.00000   10.20830    7.19090    -999.25   14.38020    0.01920    2.55600    0.08810    0.09010   69.54000    0.01920   62.78270   62.78270   24.37990   24.37990   69.54000   49.85930   49.85930    0.00860    0.00860    2.55600   78.67010  -38.19180  -40.29480   78.67010
 11100.00000   10.51480    7.74400    -999.25   13.88310    0.01320    2.60790    0.05890    0.05970   72.02990    0.01320   72.25350   72.25350   51.04670   51.04670   72.02990   31.72880   31.72880    0.02510    0.02510    2.60790   42.28690  -17.05060  -19.47710   42.28690
 11150.00000   10.26340    6.65920    -999.25   29.95030    0.01950    2.58330    0.07060    0.07410   33.38870    0.01950   85.00810   85.00810   37.21740   37.21740   33.38870   25.99630   25.99630    0.03410    0.03410    2.58330   34.61040  -40.15330  -42.90340   34.61040
 11200.00000   10.34000    7.32910    -999.25   25.67140    0.02800    2.66220    0.02650    0.02800   38.95380    0.02800   80.90750   80.90750   43.25080   43.25080   38.95380   25.47010   25.47010    0.03310    0.03310    2.66220   29.37180  -39.98410  -43.05770   29.37180
 11250.00000   14.51760    7.97020    -999.25  121.62930    0.01820    1.87170    0.49120    0.49020    8.22170    0.01820   93.84940   93.84940   70.80360   70.80360    8.22170    6.65830    6.65830    0.10280    0.10280    1.87170   10.34370  -23.51060  -26.90780   10.34370
 11300.00000   10.90420    6.31960    -999.25   25.40300    0.10770    2.60350    0.06690    0.06230   39.36550    0.10770   79.83120   79.83120   56.13240   56.13240   39.36550   14.00710   14.00710    0.02470    0.02470    2.60350   53.58210  -23.06460  -26.78530   53.58210
 11350.00000    9.84970    6.21660    -999.25   24.53640    0.22060    2.65930    0.02680    0.02960   40.75570    0.22060   85.43500   85.43500   38.81340   38.81340   40.75570   24.45780   24.45780    0.07480    0.07480    2.65930   19.67560  -16.70760  -20.75190   19.67560
 11400.00000   10.19010    6.31000    -999.25   16.80680    0.03270    2.58210    0.07270    0.07480   59.49990    0.03270   93.81650   93.81650   17.95530   17.95530   59.49990   42.08580   42.08580    0.00730    0.00730    2.58210   69.57670  -42.18170  -46.54950   69.57670
 11450.00000   10.38460    4.99450    -999.25   71.88710    0.00390    2.57880    0.07420    0.07670   13.91070    0.00390   82.77210   82.77210   42.41490   42.41490   13.91070   11.36260   11.36260    0.03200    0.03200    2.57880   11.33190  -34.25970  -38.95100   11.33190
 11500.00000   10.67500    5.13790    -999.25   66.53400    0.02800    2.68420    0.01200    0.01510   15.02990    0.02800   84.46980   84.46980   84.13480   84.13480   15.02990   12.51780   12.51780    0.12810    0.12810    2.68420   17.01770  -11.11980  -16.13470   17.01770
 11550.00000   10.27200    6.00220    -999.25   20.71420    0.01770    2.55340    0.09400    0.09160   48.27600    0.01770   77.85000   77.85000   16.31690   16.31690   48.27600   36.81130   36.81130    0.00140    0.00140    2.55340   41.48480  -53.50580  -58.84420   41.48480
 11600.00000   10.48310    6.66140    -999.25   17.02470    0.01860    2.55630    0.08600    0.08990   58.73810    0.01860   82.33850   82.33850   22.33190   22.33190   58.73810   38.59070   38.59070    0.01010    0.01010    2.55630   46.25500  -51.67460  -57.33660   46.25500
 11650.00000   10.19730    5.33230    -999.25   17.26330    0.02840    2.59890    0.06520    0.06500   57.92630    0.02840   83.66540   83.66540   39.11410   39.11410   57.92630   26.20840   26.20840    0.01260    0.01260    2.59890   34.00010  -34.72310  -40.70860   34.00010
 11700.00000   10.50030    7.19010    -999.25   82.54090    0.00930    2.62840    0.04810    0.04770   12.11520    0.00930   90.01570   90.01570   86.42150   86.42150   12.11520    9.42420    9.42420    0.12840    0.12840    2.62840   11.64210  -10.49600  -16.80510   11.64210
 11750.00000   10.11920    7.11580    -999.25   30.68480    0.02520    2.61010    0.05410    0.05840   32.58940    0.02520   77.40150   77.40150   63.44510   63.44510   32.58940   27.03520   27.03520    0.03310    0.03310    2.61010   26.21600  -30.08950  -36.72210   26.21600
 11800.00000   10.52620    7.26250    -999.25  117.55030    0.01710    2.59950    0.06570    0.06460    8.50700    0.01710   92.44370   92.44370   51.20890   51.20890    8.50700    7.54390    7.54390    0.05820    0.05820    2.59950    8.39430  -35.05490  -42.01110    8.39430
 11850.00000   10.39340    7.74930    -999.25   11.52890    0.01740    2.61190    0.05140    0.05740   86.73870    0.01740   88.22760   88.22760   29.51700   29.51700   86.73870   50.77650   50.77650    0.01760    0.01760    2.61190   88.57200  -23.37780  -30.65750   88.57200
