~Version ---------------------------------------------------
VERS. 2.0 : CWLS log ASCII Standard -VERSION 2.0
WRAP. YES : MULTIPLE LINES PER DEPTH STEP
~Well ------------------------------------------------------
STRT.FT                  300.0 : START DEPTH
STOP.FT                14000.0 : STOP DEPTH
STEP.FT               50.00000 : STEP LENGTH
NULL.                  -999.25 : NULL VALUE
COMP.      MGF OIL CORPORATION : COMPANY
WELL.                 BOONE #1 : WELL
FLD .                  WILDCAT : FIELD
LOC .                          : LOCATION
CNTY.                      BEE : COUNTY
STAT.                    TEXAS : STATE
CTRY. UNITED STATES OF AMERICA : COUNTRY
SRVC.             Schlumberger : SERVICE COMPANY
DATE.              11-Feb-1976 : LOGDATE
API .           42025304380000 : API NUMBER
UWI .           42025304380000 : UNIQUE WELL ID
SLAT.WGS84       28.6868031711 : SURFACE LATITUDE
SLON.WGS84       -97.929230078 : SURFACE LONGITUDE
~Curve Information -----------------------------------------
DEPT    .FT    : DEPTH FEET
ALL8ED  .OHMM  : AMP. LATEROLOG 8
CALDED  .IN    : CALIPER FROM DENSITY LOG
CALSED  .IN    : CALIPER FROM SONIC LOG
CALWS   .IN    : CALIPER [CALDED]
CILDED  .MMHO  : CONDUCTIVITY FROM RESISTIVITY LOG
CONDWS  .MMHO  : CONDUCTIVITY [1000/DRESWS]
CORRED  .G/C3  : DENSITY CORRECTION FROM DENSITY LOG
DCORWS  .G/C3  : DENSITY CORRECTION [CORRED]
DENWS   .G/C3  : BULK DENSITY [M=2.65/2.71 FROM 13350-TD F=1.0] [RHOBED]
DPHILSED.V/V   : DENSITY POROSITY LIMESTONE FROM DENSITY LOG
DPHISSED.V/V   : DENSITY POROSITY SANDSTONE FROM DENSITY LOG
DPOWS   .V/V   : DENSITY POROSITY [M=2.65/2.71 FROM 13350-TD F=1.0] [CALCULATED FROM DENWS]
DRESWS  .OHMM  : DEEP RESISTIVITY [ILDED] FROM 3588 IF ILDED<1;1000/CILDED;ELSE ILDED
DTED    .US/F  : DELTA TIME FROM SONIC LOG [DEPTH ADJ TO ALL8]
DTWS    .US/F  : DELTA TIME [DTED]
GRDED   .GAPI  : GAMMA RAY FROM DENSITY LOG [DEPTH ADJ TO SPR]
GRSED   .GAPI  : GAMMA RAY FROM SONIC LOG
GRWS    .GAPI  : GAMMA RAY [GRDED]
ILDED   .OHMM  : INDUCTION LOG DEEP RESISTIVITY
NPHILSED.V/V   : NEUTRON POROSITY LIMESTONE FROM DENSITY LOG
NPHISSED.V/V   : NEUTRON POROSITY SANDSTONE FROM DENSITY LOG
NPOWS   .V/V   : NEUTRON POROSITY [MERGED NPHISSED/NPHILSED FROM 13350-TD]
RHOBED  .G/C3  : BULK DENSITY FROM DENSITY LOG
SPRED   .MV    : SPONTANEOUS POTENTIAL FROM RESISTIVITY LOG SHIFTED
SPWS    .MV    : SPONTANEOUS POTENTIAL [SHIFTED/BASELINE 0 MV] [SPRED]
SRESWS  .OHMM  : SHALLOW RESISTIVITY [ALL8ED]
~Params ----------------------------------------------------
PD  .                     GL : PERMANENT DATUM
EPD .FT                  503 : ELEVATION PERMANENT DATUM
LMF .                     KB : LOG MEASURED FROM
DAPD.FT                   21 : FEET ABOVE PERMANENT DATUM
DMF .                     KB : DRILLING MEASURED FROM
EKB .FT                  524 : KELLY BUSHING
EDF .FT                  523 : DRILLING FLOOR
EGL .FT                  503 : GROUND LEVEL
DATE.               02/11/76 : RUN DATE
RUN .                      2 : RUN NUMBER
DD  .FT                14000 : DEPTH DRILLER
DL  .FT                14017 : DEPTH LOGGER
BLI .FT                14014 : BOTTOM LOG INTERVAL
TLI .FT                 3588 : TOP LOG INTERVAL
CS  .IN                10.75 : CASING SIZE
CBD .FT                 3536 : CASING BOTTOM DRILLER
CBL .FT                 3588 : CASING BOTTOM LOGGER
BS  .IN                 8.75 : BIT SIZE
BSD .FT                14000 : BIT SIZE AT DEPTH
DFT .             RD 111 OIL : DRILLING FLUID TYPE
DFD .                   11.1 : DRILLING FLUID DENSITY
DFV .                     59 : DRILLING FLUID VISCOSITY
DFPH.                    9.5 : DRILLING FLUID PH
DFL .                    3.7 : DRILLING FLUID LOSS
MSS .             RETURN PIT : MUD SAMPLE SOURCE
RMS .OHMM               0.59 : RESISTIVITY MUD SAMPLE
MST .DEGF                101 : MUD SAMPLE TEMPERATURE
RMF .OHMM               0.62 : RESISTIVITY MUD FILTRATE SAMPLE
MFST.DEGF                 76 : MUD FILTRATE SAMPLE TEMPERATURE
RMC .OHMM               0.75 : RESISTIVITY MUD CAKE
MCST.DEGF                101 : MUD CAKE SAMPLE TEMPERATURE
MFSS.                   MEAS : MUD FILTRATE SAMPLE SOURCE
MCSS.                  CHART : MUD CAKE SAMPLE SOURCE
RMB .OHMM               0.19 : RESISTIVITY MUD AT BHT
TCS .HRS                  24 : TIME CIRCULATED STOPPED
LUN .                   7676 : LOGGING UNIT NUMBER
LUL .                  PLEAS : LOGGING UNIT LOCATION
ENGI.                 POWELL : RECORDING ENGINEER
WITN.                  ADAMS : WITNESSED BY
CLNT.                A2DTECH : CLIENT CODE
ORIG.               1" PRINT : ORIGIN OF DATA
UWI .         42025304380000 : UNIQUE WELL ID
DICO. A2D Technologies, Inc. : DIGITIZING COMPANY
~Other -----------------------------------------------------
~ASCII -----------------------------------------------------
# ...
 11100.00000    2.41660    -999.25   10.59680   10.59680  507.22190  507.22190    -999.25    -999.25    -999.25    -999.25    -999.25    -999.25    1.97150   86.55330   86.55330    -999.25   62.44980   62.44980    2.08330    -999.25    -999.25    -999.25    -999.25    0.14930   -2.60440    2.41660
 11150.00000    2.98610    -999.25   10.55090   10.55090  407.07170  407.07170    -999.25    -999.25    -999.25    -999.25    -999.25    -999.25    2.45660   81.89840   81.89840    -999.25   63.56920   63.56920    2.50000    -999.25    -999.25    -999.25    -999.25    0.00000   -2.66090    2.98610
 11200.00000    3.26980    -999.25   10.53650   10.53650  412.55600  412.55600    -999.25    -999.25    -999.25    -999.25    -999.25    -999.25    2.42390   83.24990   83.24990    -999.25   64.23400   64.23400    2.34800    -999.25    -999.25    -999.25    -999.25   -0.14980   -2.71800    3.26980
 11250.00000    2.82940    -999.25   10.32710   10.32710  484.30980  484.30980    -999.25    -999.25    -999.25    -999.25    -999.25    -999.25    2.06480   82.79930   82.79930    -999.25   65.64960   65.64960    1.96430    -999.25    -999.25    -999.25    -999.25   -1.04480   -3.52030    2.82940
 11300.00000    2.82540    -999.25   10.34240   10.34240  516.18810  516.18810    -999.25    -999.25    -999.25    -999.25    -999.25    -999.25    1.93730   87.30150   87.30150    -999.25   68.94710   68.94710    2.08330    -999.25    -999.25    -999.25    -999.25    0.44780   -1.93500    2.82540
 11350.00000    2.24410    -999.25   10.47670   10.47670  538.61540  538.61540    -999.25    -999.25    -999.25    -999.25    -999.25    -999.25    1.85660   83.85020   83.85020    -999.25   53.03960   53.03960    1.82540    -999.25    -999.25    -999.25    -999.25   -0.44780   -2.73790    2.24410
 11400.00000    2.37270    -999.25   10.43150   10.43150  573.99100  573.99100    -999.25    -999.25    -999.25    -999.25    -999.25    -999.25    1.74220   89.78110   89.78110    -999.25   61.77810   61.77810    1.61050    -999.25    -999.25    -999.25    -999.25   -0.14870   -2.34610    2.37270
 11450.00000    2.09120    -999.25   10.53650   10.53650  644.24590  644.24590    -999.25    -999.25    -999.25    -999.25    -999.25    -999.25    1.55220   93.16030   93.16030    -999.25   63.56270   63.56270    1.59230    -999.25    -999.25    -999.25    -999.25    0.89550   -1.20920    2.09120
 11500.00000    2.77380    -999.25   10.64000   10.64000  469.35680  469.35680    -999.25    -999.25    -999.25    -999.25    -999.25    -999.25    2.13060   85.86510   85.86510    -999.25   59.96780   59.96780    2.11310    -999.25    -999.25    -999.25    -999.25   -0.44780   -2.45970    2.77380
 11550.00000    2.11510    -999.25   10.66590   10.66590  613.86790  613.86790    -999.25    -999.25    -999.25    -999.25    -999.25    -999.25    1.62900   93.01170   93.01170    -999.25   65.52960   65.52960    1.55260    -999.25    -999.25    -999.25    -999.25    0.00000   -1.91920    2.11510
 11600.00000    2.15610    -999.25   10.79000   10.79000  639.76090  639.76090    -999.25    -999.25    -999.25    -999.25    -999.25    -999.25    1.56310   90.07910   90.07910    -999.25   61.77490   61.77490    1.50790    -999.25    -999.25    -999.25    -999.25   -0.23060   -2.05710    2.15610
 11650.00000    2.61910    -999.25   10.61130   10.61130  490.28400  490.28400    -999.25    -999.25    -999.25    -999.25    -999.25    -999.25    2.03960   86.39640   86.39640    -999.25   58.64830   58.64830    2.14290    -999.25    -999.25    -999.25    -999.25   -1.34330   -3.07710    2.61910
 11700.00000    2.80950    -999.25   10.50720   10.50720  472.34680  472.34680    -999.25    -999.25    -999.25    -999.25    -999.25    -999.25    2.11710   85.80020   85.80020    -999.25   58.20470   58.20470    2.20240    -999.25    -999.25    -999.25    -999.25   -0.14930   -1.79040    2.80950
 11750.00000    2.55160    -999.25   10.64150   10.64150  524.16750  524.16750    -999.25    -999.25    -999.25    -999.25    -999.25    -999.25    1.90780   86.54650   86.54650    -999.25   57.97060   57.97060    2.08330    -999.25    -999.25    -999.25    -999.25   -0.74630   -2.29470    2.55160
 11800.00000    2.90480    -999.25   10.53700   10.53700  491.95380  491.95380    -999.25    -999.25    -999.25    -999.25    -999.25    -999.25    2.03270   87.00600   87.00600    -999.25   60.23600   60.23600    2.14770    -999.25    -999.25    -999.25    -999.25   -0.18980   -1.64550    2.90480
 11850.00000    1.91960    -999.25   11.11930   11.11930  624.81310  624.81310    -999.25    -999.25    -999.25    -999.25    -999.25    -999.25    1.60050   93.00750   93.00750    -999.25   98.27690   98.27690    2.12800    -999.25    -999.25    -999.25    -999.25   -1.79100   -3.15390    1.91960
 11900.00000    3.05360    -999.25   10.50480   10.50480  366.71650  366.71650    -999.25    -999.25    -999.25    -999.25    -999.25    -999.25    2.72690   78.05790   78.05790    -999.25   66.15890   66.15890    3.02580    -999.25    -999.25    -999.25    -999.25   -0.44780   -1.71800    3.05360
 11950.00000    3.28270    -999.25   10.45670   10.45670  385.65020  385.65020    -999.25    -999.25    -999.25    -999.25    -999.25    -999.25    2.59300   78.84640   78.84640    -999.25   55.17460   55.17460    2.69350    -999.25    -999.25    -999.25    -999.25   -1.49250   -2.67000    3.28270
 12000.00000    3.57540    -999.25   10.41850   10.41850  352.76530  352.76530    -999.25    -999.25    -999.25    -999.25    -999.25    -999.25    2.83470   78.64510   78.64510    -999.25   56.21310   56.21310    2.84960    -999.25    -999.25    -999.25    -999.25   -1.41650   -2.50130    3.57540
 12050.00000    3.07140    -999.25   10.70890   10.70890  484.30690  484.30690    -999.25    -999.25    -999.25    -999.25    -999.25    -999.25    2.06480   83.66060   83.66060    -999.25   66.50170   66.50170    2.35620    -999.25    -999.25    -999.25    -999.25   -1.64180   -2.63390    3.07140
 12100.00000    3.66270    -999.25   10.21810   10.21810  340.80730  340.80730    -999.25    -999.25    -999.25    -999.25    -999.25    -999.25    2.93420   78.53880   78.53880    -999.25   55.52680   55.52680    2.88690    -999.25    -999.25    -999.25    -999.25   -0.74630   -1.64570    3.66270
 12150.00000    3.28770    -999.25   10.37300   10.37300  382.66060  382.66060    -999.25    -999.25    -999.25    -999.25    -999.25    -999.25    2.61330   79.94250   79.94250    -999.25   63.57730   63.57730    2.66370    -999.25    -999.25    -999.25    -999.25   -1.04380   -1.85050    3.28770
 12200.00000    3.34520    -999.25   10.27960   10.27960  394.61880  394.61880    -999.25    -999.25    -999.25    -999.25    -999.25    -999.25    2.53410   81.28620   81.28620    -999.25   65.09500   65.09500    2.50990    -999.25    -999.25    -999.25    -999.25   -1.34330   -2.05720    3.34520
 12250.00000    3.21330    -999.25   10.12980   10.12980  452.41640  452.41640    -999.25    -999.25    -999.25    -999.25    -999.25    -999.25    2.21040   81.21140   81.21140    -999.25   62.91970   62.91970    2.61410    -999.25    -999.25    -999.25    -999.25   -1.64180   -2.26300    3.21330
 12300.00000    3.51000    -999.25   10.14330   10.14330  298.95360  298.95360    -999.25    -999.25    -999.25    -999.25    -999.25    -999.25    3.34500   78.81070   78.81070    -999.25   61.34330   61.34330    3.00600    -999.25    -999.25    -999.25    -999.25   -1.34330   -1.67620    3.51000
 12350.00000    2.64980    -999.25   10.50130   10.50130  480.31900  480.31900    -999.25    -999.25    -999.25    -999.25    -999.25    -999.25    2.08190   87.61300   87.61300    -999.25   68.05970   68.05970    2.28670    -999.25    -999.25    -999.25    -999.25   -2.23880   -2.26630    2.64980
 12400.00000    2.69190    -999.25   10.00000   10.00000  504.23520  504.23520    -999.25    -999.25    -999.25    -999.25    -999.25    -999.25    1.98320   87.74920   87.74920    -999.25   66.48890   66.48890    2.08910    -999.25    -999.25    -999.25    -999.25   -0.17690    0.10100    2.69190
