~Version ---------------------------------------------------
VERS. 2.0 : CWLS log ASCII Standard -VERSION 2.0
WRAP. YES : MULTIPLE LINES PER DEPTH STEP
~Well ------------------------------------------------------
STRT.FT                   3850.0 : START DEPTH
STOP.FT                   7900.0 : STOP DEPTH
STEP.FT                 50.00000 : STEP LENGTH
NULL.                    -999.25 : NULL VALUE
COMP. CHAMPLIN PETROLEUM COMPANY : COMPANY
WELL.     BARTLETT JONES UNIT #1 : WELL
FLD .                   GIDDINGS : FIELD
LOC .                            : LOCATION
CNTY.                   BURLESON : COUNTY
STAT.                      TEXAS : STATE
CTRY.   UNITED STATES OF AMERICA : COUNTRY
SRVC.               Schlumberger : SERVICE COMPANY
DATE.                11-Aug-1980 : LOGDATE
API .             42051307650000 : API NUMBER
UWI .             42051307650000 : UNIQUE WELL ID
SLAT.WGS84         30.4866760787 : SURFACE LATITUDE
SLON.WGS84        -96.6964627784 : SURFACE LONGITUDE
~Curve Information -----------------------------------------
DEPT    .FT    : DEPTH FEET
CALWS   .IN    : CALIPER [DCALED+8.25]
CONDWS  .MMHO  : CONDUCTIVITY [1000/DRESWS]
DCALED  .IN    : DIFFERENTIAL CALIPER FROM DUAL INDUCTION-SFL CNFD LOG
DCORWS  .G/C3  : DENSITY CORRECTION [DRHOED]
DENWS   .G/C3  : BULK DENSITY [M=2.71 F=1.0] [CALCULATED FROM DPOWS]
DPHILSED.V/V   : DENSITY POROSITY [M=2.71 F=1.0] FROM DUAL INDUCTION-SFL CNFD LOG
DPHISSED.V/V   : DENSITY POROSITY [M=2.65 F=1.0] FROM DUAL INDUCTION-SFL CNFD LOG
DPOWS   .V/V   : DENSITY POROSITY [M=2.71 F=1.0] [DPHILSED AND DPHISSED]
DRESWS  .OHMM  : DEEP RESISTIVITY [ILDED]
DRHOED  .G/C3  : DENSITY CORRECTION FROM DUAL INDUCTION-SFL CNFD LOG
GRRED   .GAPI  : GAMMA RAY FROM DUAL INDUCTION-SFL CNFD LOG
GRWS    .GAPI  : GAMMA RAY [GRRED, 3844-3880 above casing]
ILDED   .OHMM  : INDUCTION LOG DEEP FROM DUAL INDUCTION-SFL CNFD LOG
ILMED   .OHMM  : INDUCTION LOG MEDIUM FROM DUAL INDUCTION-SFL CNFD LOG
MRESWS  .OHMM  : MEDIUM RESISTIVITY [ILMED]
NPHILSED.V/V   : NEUTRON POROSITY LIMESTONE FROM DUAL INDUCTION-SFL CNFD LOG
NPHISSED.V/V   : NEUTRON POROSITY SANDSTONE FROM DUAL INDUCTION-SFL CNFD LOG
NPOWS   .V/V   : NEUTRON POROSITY LIMESTONE [NPHILSED & NPHISSED at 3844-3880 above casing]
SFLUED  .OHMM  : SPHERICALLY FOCUSED FOM DUAL INDUCTION-SFL CNFD LOG
SPRED   .MV    : SPONTANEOUS POTENTIAL FROM DUAL INDUCTION-SFL CNFD LOG
SPWS    .MV    : SPONTANEOUS POTENTIAL [BASELINE 0 MV] [SPRED]
SRESWS  .OHMM  : SHALLOW RESISTIVITY [SFLUED]
~Params ----------------------------------------------------
PD  .                     GL : PERMANENT DATUM
EPD .FT                  338 : ELEVATION PERMANENT DATUM
LMF .                     KB : LOG MEASURED FROM
DAPD.FT                   19 : FEET ABOVE PERMANENT DATUM
DMF .                     KB : DRILLING MEASURED FROM
EKB .FT                  357 : KELLY BUSHING
EDF .FT                  356 : DRILLING FLOOR
EGL .FT                  338 : GROUND LEVEL
DATE.               08/11/80 : RUN DATE
RUN .                      1 : RUN NUMBER
DD  .FT                 7937 : DEPTH DRILLER
DL  .FT                 7929 : DEPTH LOGGER
BLI .FT                 7922 : BOTTOM LOG INTERVAL
TLI .FT                 3873 : TOP LOG INTERVAL
CS  .IN                9.625 : CASING SIZE
CBD .FT                 3878 : CASING BOTTOM DRILLER
CBL .FT                 3873 : CASING BOTTOM LOGGER
BS  .IN                 8.75 : BIT SIZE
BSD .FT                 7937 : BIT SIZE AT DEPTH
DFT .                        : DRILLING FLUID TYPE
DFD .                    9.2 : DRILLING FLUID DENSITY
DFV .                     42 : DRILLING FLUID VISCOSITY
DFPH.                   11.5 : DRILLING FLUID PH
DFL .                    7.1 : DRILLING FLUID LOSS
MSS .               CIRC PIT : MUD SAMPLE SOURCE
RMS .OHMM                1.3 : RESISTIVITY MUD SAMPLE
MST .DEGF                 82 : MUD SAMPLE TEMPERATURE
RMF .OHMM               1.35 : RESISTIVITY MUD FILTRATE SAMPLE
MFST.DEGF                 75 : MUD FILTRATE SAMPLE TEMPERATURE
RMC .OHMM               2.85 : RESISTIVITY MUD CAKE
MCST.DEGF                 80 : MUD CAKE SAMPLE TEMPERATURE
MFSS.                   MEAS : MUD FILTRATE SAMPLE SOURCE
MCSS.                   MEAS : MUD CAKE SAMPLE SOURCE
RMB .OHMM               0.75 : RESISTIVITY MUD AT BHT
TCS .HRS                   0 : TIME CIRCULATED STOPPED
TLAB.HRS                   0 : TIME LOGGER AT BOTTOM
LUN .                   8096 : LOGGING UNIT NUMBER
LUL .                        : LOGGING UNIT LOCATION
ENGI.                 HEDRIC : RECORDING ENGINEER
WITN.                 SCHELL : WITNESSED BY
CLNT.                A2DTECH : CLIENT CODE
ORIG.          1" 2.5" PRINT : ORIGIN OF DATA
UWI .         42051307650000 : UNIQUE WELL ID
DICO. A2D Technologies, Inc. : DIGITIZING COMPANY
OS  .                        : OTHER SERVICES
PWI .                        : PRIMARY WELL IDENTIFIER
R1  .                        : REMARKS 1
R2  .                        : REMARKS 2
LSRV.                        : LOG MNEMONIC
~Other -----------------------------------------------------
~ASCII -----------------------------------------------------
# ...
 5450.00000    8.93240  607.23830    0.68240    0.05650    2.48680    -999.25    0.13050    0.13050    1.64680    0.05650   88.51570   88.51570    1.64680    1.68310    1.68310    -999.25    0.28210    0.28210    1.85870  -16.88070   -5.12360    1.85870
 5500.00000    9.06280  508.18170    0.81280    0.09920    2.58160    -999.25    0.07510    0.07510    1.96780    0.09920   91.07620   91.07620    1.96780    2.04770    2.04770    -999.25    0.29850    0.29850    2.13980  -17.09500   -5.13020    2.13980
 5550.00000   10.25560  932.57480    2.00560    0.05610    2.40170    -999.25    0.18030    0.18030    1.07230    0.05610  124.53140  124.53140    1.07230    1.10240    1.10240    -999.25    0.40250    0.40250    1.16260  -15.18890   -3.01640    1.16260
 5600.00000   10.85740  803.14830    2.60740    0.04370    2.46070    -999.25    0.14580    0.14580    1.24510    0.04370  118.87170  118.87170    1.24510    1.32720    1.32720    -999.25    0.33990    0.33990    1.46420  -15.62430   -3.24410    1.46420
 5650.00000   11.52620  866.10080    3.27620    0.07530    2.47270    -999.25    0.13880    0.13880    1.15460    0.07530  104.81250  104.81250    1.15460    1.21970    1.21970    -999.25    0.38090    0.38090    1.32870  -17.62940   -5.04150    1.32870
 5700.00000   10.40440  909.66980    2.15440    0.07750    2.41550    -999.25    0.17220    0.17220    1.09930    0.07750  114.56080  114.56080    1.09930    1.15530    1.15530    -999.25    0.37540    0.37540    1.36080  -15.68760   -2.89200    1.36080
 5750.00000    9.19930  554.32370    0.94930    0.09620    2.53510    -999.25    0.10230    0.10230    1.80400    0.09620  102.24260  102.24260    1.80400    1.88620    1.88620    -999.25    0.31180    0.31180    1.98140  -15.86610   -2.86280    1.98140
 5800.00000    8.80640  516.23560    0.55640    0.07850    2.58590    -999.25    0.07260    0.07260    1.93710    0.07850   93.61000   93.61000    1.93710    2.02230    2.02230    -999.25    0.28120    0.28120    2.27220  -16.16380   -2.95290    2.27220
 5850.00000    9.14790  534.75940    0.89790    0.09870    2.56410    -999.25    0.08530    0.08530    1.87000    0.09870  109.40440  109.40440    1.87000    1.95240    1.95240    -999.25    0.29500    0.29500    2.08000  -16.01290   -2.59430    2.08000
 5900.00000    9.45210  539.28710    1.20210    0.09830    2.49980    -999.25    0.12290    0.12290    1.85430    0.09830  105.52990  105.52990    1.85430    1.94530    1.94530    -999.25    0.30840    0.30840    2.01130  -17.82130   -4.15120    2.01130
 5950.00000    8.80780  575.30780    0.55780    0.09860    2.56940    -999.25    0.08220    0.08220    1.73820    0.09860  100.39110  100.39110    1.73820    1.88680    1.88680    -999.25    0.30910    0.30910    2.04260  -17.19740   -2.95520    2.04260
 6000.00000   10.07980  634.67890    1.82980    0.09890    2.52980    -999.25    0.10540    0.10540    1.57560    0.09890  108.05680  108.05680    1.57560    1.71530    1.71530    -999.25    0.30560    0.30560    1.90210  -16.65490   -1.84050    1.90210
 6050.00000    9.92580  715.76840    1.67580    0.09980    2.54890    -999.25    0.09420    0.09420    1.39710    -999.25   99.49590   99.49590    1.39710    1.48140    1.48140    -999.25    0.33620    0.33620    1.67320  -23.60620   -8.21960    1.67320
 6100.00000    9.76720  941.17650    1.51720    0.08730    2.36970    -999.25    0.19900    0.19900    1.06250    0.08730  144.55890  144.55890    1.06250    1.16880    1.16880    -999.25    0.36560    0.36560    1.65490  -21.85110   -5.89240    1.65490
 6150.00000   10.60220  808.27680    2.35220    0.09740    2.45040    0.15180    -999.25    0.15180    1.23720    -999.25   86.91340   86.91340    1.23720    1.30270    1.30270    0.31690    -999.25    0.31690    1.46320  -26.63690  -10.10600    1.46320
 6200.00000    8.51330  311.99300    0.26330    0.03380    2.56720    0.08350    -999.25    0.08350    3.20520    0.03380   77.88580   77.88580    3.20520    3.43540    3.43540    0.16750    -999.25    0.16750    3.60670  -18.40220   -1.29920    3.60670
 6250.00000    8.27630  301.52270    0.02630    0.00160    2.57850    0.07690    -999.25    0.07690    3.31650    0.00160   62.60580   62.60580    3.31650    3.48360    3.48360    0.14580    -999.25    0.14580    4.05300  -20.77300   -3.73220    4.05300
 6300.00000    8.60020  265.28720    0.35020    0.01740    2.60360    0.06220    -999.25    0.06220    3.76950    0.01740   44.76640   44.76640    3.76950    3.93520    3.93520    0.11720    -999.25    0.11720    4.19760  -23.86710   -7.38700    4.19760
 6350.00000    8.71250  226.78820    0.46250    0.01290    2.59410    0.06780    -999.25    0.06780    4.40940    0.01290   50.89220   50.89220    4.40940    4.60310    4.60310    0.12000    -999.25    0.12000    4.95800  -22.44260   -6.52330    4.95800
 6400.00000    8.89350  415.31690    0.64350    0.05470    2.55610    0.09000    -999.25    0.09000    2.40780    0.05470  102.97990  102.97990    2.40780    2.56820    2.56820    0.18920    -999.25    0.18920    2.99150  -18.92950   -3.57090    2.99150
 6450.00000    8.80830  384.43800    0.55830    0.01540    2.51880    0.11180    -999.25    0.11180    2.60120    0.01540   93.27650   93.27650    2.60120    2.75110    2.75110    0.17440    -999.25    0.17440    2.87720  -19.64370   -4.84580    2.87720
 6500.00000    8.88940  409.41660    0.63940    0.02900    2.53060    0.10490    -999.25    0.10490    2.44250    0.02900  101.80920  101.80920    2.44250    2.58560    2.58560    0.19020    -999.25    0.19020    2.83970  -16.70450   -2.46730    2.83970
 6550.00000    8.96840  462.53470    0.71840    0.05720    2.53350    0.10320    -999.25    0.10320    2.16200    0.05720  100.93140  100.93140    2.16200    2.32680    2.32680    0.21510    -999.25    0.21510    2.55310  -17.07510   -2.94570    2.55310
 6600.00000    9.04860  363.13460    0.79860    0.01440    2.56500    0.08480    -999.25    0.08480    2.75380    0.01440   90.02690   90.02690    2.75380    2.87040    2.87040    0.17790    -999.25    0.17790    3.07710  -15.54280   -1.23150    3.07710
 6650.00000   10.08610  600.96150    1.83610    0.09910    2.53510    0.10230    -999.25    0.10230    1.66400    0.09910  104.64160  104.64160    1.66400    1.80320    1.80320    0.26330    -999.25    0.26330    1.97240  -18.04420   -3.55110    1.97240
 6700.00000   10.58210  576.50180    2.33210    0.09960    2.50960    0.11720    -999.25    0.11720    1.73460    0.09960  107.29240  107.29240    1.73460    1.88480    1.88480    0.28040    -999.25    0.28040    2.06570  -20.77080   -6.09580    2.06570
 6750.00000   10.99120  644.08090    2.74120    0.09760    2.52340    0.10910    -999.25    0.10910    1.55260    0.09760  102.95340  102.95340    1.55260    1.67050    1.67050    0.28450    -999.25    0.28450    1.93060  -22.14390   -7.28710    1.93060
 6800.00000   10.64650  603.50030    2.39650    0.09920    2.56050    0.08740    -999.25    0.08740    1.65700    -999.25  102.78040  102.78040    1.65700    1.79700    1.79700    0.24970    -999.25    0.24970    2.05450  -22.50280   -7.46410    2.05450
 6850.00000   10.36620  617.70340    2.11620    0.09740    2.51010    0.11690    -999.25    0.11690    1.61890    0.09740  101.24320  101.24320    1.61890    1.76750    1.76750    0.27680    -999.25    0.27680    2.15210  -22.08940   -6.86890    2.15210
 6900.00000   10.41350  580.31570    2.16350    0.09950    2.56460    0.08500    -999.25    0.08500    1.72320    0.09950  102.90040  102.90040    1.72320    1.87140    1.87140    0.27050    -999.25    0.27050    2.15000  -20.62520   -5.73300    2.15000
 6950.00000   10.46170  583.66890    2.21170    0.09850    2.56210    0.08650    -999.25    0.08650    1.71330    -999.25   98.91440   98.91440    1.71330    1.83790    1.83790    0.27460    -999.25    0.27460    2.18830  -18.00850   -3.63330    2.18830
 7000.00000   11.47970  591.08640    3.22970    0.09910    2.56090    0.08720    -999.25    0.08720    1.69180    0.09910  100.89780  100.89780    1.69180    1.82010    1.82010    0.26860    -999.25    0.26860    2.13720  -19.23120   -4.97910    2.13720
