~Version ---------------------------------------------------
VERS. 2.0 : CWLS log ASCII Standard -VERSION 2.0
WRAP. YES : MULTIPLE LINES PER DEPTH STEP
~Well ------------------------------------------------------
STRT.FT                   1000.0 : START DEPTH
STOP.FT                  11500.0 : STOP DEPTH
STEP.FT                 50.00000 : STEP LENGTH
NULL.                    -999.25 : NULL VALUE
COMP. KAISER-FRANCIS OIL COMPANY : COMPANY
WELL.            D.C. MCMANUS #1 : WELL
FLD .              AUSTIN PIERCE : FIELD
LOC .                            : LOCATION
CNTY.                   GONZALES : COUNTY
STAT.                      TEXAS : STATE
CTRY.   UNITED STATES OF AMERICA : COUNTRY
SRVC.               Schlumberger : SERVICE COMPANY
DATE.                01-Dec-1996 : LOGDATE
API .             42177320060000 : API NUMBER
UWI .             42177320060000 : UNIQUE WELL ID
SLAT.WGS84          29.374572664 : SURFACE LATITUDE
SLON.WGS84        -97.3289574079 : SURFACE LONGITUDE
~Curve Information -----------------------------------------
DEPT    .FT    : DEPTH FEET
AO10ED  .OHMM  : 10 INCH ARRAY RESISTIVITY ONE FOOT RESOLUTION
AO20ED  .OHMM  : 20 INCH ARRAY RESISTIVITY ONE FOOT RESOLUTION
AO30ED  .OHMM  : 30 INCH ARRAY RESISTIVITY ONE FOOT RESOLUTION
AO60ED  .OHMM  : 60 INCH ARRAY RESISTIVITY ONE FOOT RESOLUTION
AO90ED  .OHMM  : 90 INCH ARRAY RESISTIVITY ONE FOOT RESOLUTION
CALWS   .IN    : CALIPER [DCALED+BITED]
CONDWS  .MMHO  : CONDUCTIVITY [1000/DRESWS]
DCALRED .IN    : DIFFERENTIAL CALIPER FROM RESISTIVITY LOG
DCORWS  .G/C3  : DENSITY CORRECTION [HDRAED]
DENWS   .G/C3  : BULK DENSITY [M=2.71 F=1.0] [CALCULATED FROM DPOWS]
DPHZLSED.V/V   : DENSITY POROSITY [M=2.71 F=1.0] FROM DENSITY LOG
DPOWS   .V/V   : DENSITY POROSITY [M=2.71 F=1.0] [DPHZLSED]
DRESWS  .OHMM  : DEEP RESISTIVITY [AO90ED]
DTED    .US/F  : DELTA TIME FROM SONIC LOG
DTWS    .US/F  : DELTA TIME [DTED]
GRRED   .GAPI  : GAMMA RAY FROM RESISTIVITY LOG
GRWS    .GAPI  : GAMMA RAY [GRRED, CSG ABOVE 1070F]
HDRAED  .G/C3  : DENSITY CORRECTION FROM DENSITY LOG
MRESWS  .OHMM  : MEDIUM RESISTIVITY [AO30ED]
NPHILSED.V/V   : NEUTRON POROSITY LIMESTONE FROM DENSITY LOG
NPOWS   .V/V   : NEUTRON POROSITY LIMESTONE [NPHILSED]
SPRED   .MV    : SPONTANEOUS POTENTIAL FROM RESISTIVITY LOG
SPWS    .MV    : SPONTANEOUS POTENTIAL [BASELINE 0 MV] [SPRED]
SRESWS  .OHMM  : SHALLOW RESISTIVITY [AO10ED]
TENRED  .LBF   : TENSION FROM RESISTIVITY LOG
~Params ----------------------------------------------------
PD  .                     GL : PERMANENT DATUM
EPD .FT               257.26 : ELEVATION PERMANENT DATUM
LMF .                     KB : LOG MEASURED FROM
DAPD.FT                 16.3 : FEET ABOVE PERMANENT DATUM
DMF .                     KB : DRILLING MEASURED FROM
EKB .FT               275.58 : KELLY BUSHING
EDF .FT                  275 : DRILLING FLOOR
EGL .FT               257.26 : GROUND LEVEL
DATE.               12/01/96 : RUN DATE
RUN .                      1 : RUN NUMBER
DD  .FT                11530 : DEPTH DRILLER
DL  .FT                11500 : DEPTH LOGGER
BLI .FT                11500 : BOTTOM LOG INTERVAL
TLI .FT                 1070 : TOP LOG INTERVAL
CS  .IN                9.625 : CASING SIZE
CBD .FT                 1061 : CASING BOTTOM DRILLER
CBL .FT                 1070 : CASING BOTTOM LOGGER
BS  .IN                 8.75 : BIT SIZE
BSD .FT                11530 : BIT SIZE AT DEPTH
DFT .                 LOLIME : DRILLING FLUID TYPE
DFD .                   10.1 : DRILLING FLUID DENSITY
DFV .                     47 : DRILLING FLUID VISCOSITY
DFPH.                    9.5 : DRILLING FLUID PH
MSS .                MUD PIT : MUD SAMPLE SOURCE
RMS .OHMM               4.36 : RESISTIVITY MUD SAMPLE
MST .FT                   75 : MUD SAMPLE TEMPERATURE
RMF .OHMM                3.7 : RESISTIVITY MUD FILTRATE SAMPLE
MFST.FT                   75 : MUD FILTRATE SAMPLE TEMPERATURE
RMC .OHMM                6.5 : RESISTIVITY MUD CAKE
MCST.FT                   75 : MUD CAKE SAMPLE TEMPERATURE
MFSS.              MUD PRESS : MUD FILTRATE SAMPLE SOURCE
MCSS.                   CALC : MUD CAKE SAMPLE SOURCE
RMB .OHMM              1.515 : RESISTIVITY MUD AT BHT
TCS .HRS                 430 : TIME CURCULATED STOPPED
TLAB.HRS                 900 : TIME LOGGER AT BOTTOM
LUN .                   3075 : LOGGING UNIT NUMBER
LUL .               VICTORIA : LOGGING UNIT LOCATION
ENGI.                  NAHRI : RECORDING ENGINEER
WITN.                   RUSS : WITNESSED BY
CLNT.                A2DTECH : CLIENT CODE
ORIG.               5" PRINT : ORIGIN OF DATA
UWI .         42177320060000 : UNIQUE WELL ID
DICO. A2D Technologies, Inc. : DIGITIZING COMPANY
~Other -----------------------------------------------------
~ASCII -----------------------------------------------------
# ...
 10800.00000   11.29840   11.15840   10.61060    9.73540    9.20330    9.59800  108.65670    0.84800    0.01960    2.65700    0.03100    0.03100    9.20330   63.86280   63.86280   43.84750   43.84750    0.01960   10.61060    0.03310    0.03310  -54.82220  -12.95290   11.29840 4686.57130
 10850.00000   12.52500   16.46380   11.60200   10.45410    9.63060    9.88670  103.83570    1.13670    0.03850    2.58820    0.07120    0.07120    9.63060   46.73220   46.73220   34.36940   34.36940    0.03850   11.60200    0.02610    0.02610  -62.17190  -19.33980   12.52500 4738.71240
 10900.00000   34.63670   31.12450   24.84800   21.51900   21.02850   10.25530   47.55450    1.50530    0.01430    2.50890    0.11760    0.11760   21.02850   60.09410   60.09410   25.03520   25.03520    0.01430   24.84800    0.03900    0.03900  -75.38020  -31.58540   34.63670 4766.43990
 10950.00000   22.58260   18.79770   15.87990   11.72010   11.04450   10.63870   90.54280    1.88870    0.01810    2.55490    0.09070    0.09070   11.04450   63.77270   63.77270   29.29440   29.29440    0.01810   15.87990    0.03290    0.03290  -58.11830  -13.36080   22.58260 4648.46340
 11000.00000    7.96530    7.72680    7.46970    6.33900    6.26030   10.82350  159.73680    2.07350   -0.00010    2.56620    0.08410    0.08410    6.26030   72.30990   72.30990   61.25080   61.25080   -0.00010    7.46970    0.07930    0.07930  -45.09710    0.62310    7.96530 4733.32470
 11050.00000   15.03560   16.98770   14.65110   12.61890   11.47410   10.49420   87.15280    1.74420    0.00320    2.44240    0.15650    0.15650   11.47410   79.76500   79.76500   84.74700   84.74700    0.00320   14.65110    0.16410    0.16410  -55.32210   -8.63920   15.03560 4577.47900
 11100.00000   21.85140   14.37630   13.47820   12.42450   12.24740   10.89550   81.65000    2.14550    0.02840    2.34060    0.21600    0.21600   12.24740   88.59110   88.59110   72.33220   72.33220    0.02840   13.47820    0.22810    0.22810  -53.73340   -6.08780   21.85140 4658.98880
 11150.00000   14.09310   12.02820   11.48030   10.93070   10.71110   10.68320   93.36110    1.93320   -0.00120    2.63680    0.04280    0.04280   10.71110   62.63020   62.63020   41.68210   41.68210   -0.00120   11.48030    0.06370    0.06370  -56.47240   -7.86400   14.09310 4756.47120
 11200.00000  121.15390   78.85550   77.35730   67.10220   62.28320   10.93910   16.05570    2.18910   -0.00710    2.62570    0.04930    0.04930   62.28320   55.80100   55.80100   24.74310   24.74310   -0.00710   77.35730    0.02110    0.02110  -61.90020  -12.32910  121.15390 4813.96040
 11250.00000    8.30640    8.42530    6.38690    5.22210    4.76810   10.94500  209.72720    2.19500    0.02880    2.62670    0.04870    0.04870    4.76810   62.24690   62.24690   42.21780   42.21780    0.02880    6.38690    0.05860    0.05860  -52.68050   -2.00280    8.30640 4859.48340
 11300.00000   88.48500   26.50010   58.93000   45.14510   28.39600   10.07550   35.21620    1.32550   -0.00190    2.67390    0.02110    0.02110   28.39600   52.78200   52.78200   32.70550   32.70550   -0.00190   58.93000    0.01370    0.01370  -65.80710  -13.40940   88.48500 4888.41360
 11350.00000  152.93990   93.63860   89.18990   84.76620   84.22090    9.75560   11.87350    1.00560   -0.00810    2.70420    0.00340    0.00340   84.22090   51.94580   51.94580   22.11020   22.11020   -0.00810   89.18990    0.00630    0.00630  -91.49950  -37.38190  152.93990 4864.10250
 11400.00000   23.00060   10.44660    7.78560    6.03790    5.34820    8.48440  186.97880   -0.26560    0.05150    2.44890    0.15270    0.15270    5.34820   64.57360   64.57360   23.49750   23.49750    0.05150    7.78560    0.09240    0.09240 -219.22440 -163.38680   23.00060 4919.75150
 11450.00000   64.73090   57.79640   38.23970   24.14670   22.29160    9.27870   44.85990    0.52870    0.03270    2.59470    0.06740    0.06740   22.29160   55.49570   55.49570   35.01670   35.01670    0.03270   38.23970    0.00570    0.00570 -169.04880 -111.49120   64.73090 4805.05810
 11500.00000  355.35680  215.61690  163.35560  135.88530  133.03030    8.03680    7.51710   -0.71320    0.09950    2.61710    0.05430    0.05430  133.03030    -999.25    -999.25   46.38250   46.38250    0.09950  163.35560    0.00820    0.00820 -110.37120  -51.83320  355.35680 5014.77930
