~Version ---------------------------------------------------
VERS. 2.0 : CWLS log ASCII Standard -VERSION 2.0
WRAP. YES : Multiple lines per depth step
~Well ------------------------------------------------------
STRT.FT                  2550.0 : START DEPTH
STOP.FT                 14350.0 : STOP DEPTH
STEP.FT                50.00000 : STEP LENGTH
NULL.                   -999.25 : NULL VALUE
COMP. GENERAL CRUDE OIL COMPANY : COMPANY
WELL.    A G HENKES GAS UNIT #1 : WELL
FLD .                   WILDCAT : FIELD
LOC .                           : LOCATION
CNTY.                    LAVACA : COUNTY
STAT.                     TEXAS : STATE
CTRY.  UNITED STATES OF AMERICA : COUNTRY
SRVC.                   Unknown : SERVICE COMPANY
DATE.               29-Aug-1977 : LOGDATE
API .            42285307220000 : API NUMBER
UWI .            42285307220000 : UNIQUE WELL ID
SLAT.WGS84        29.3839239903 : SURFACE LATITUDE
SLON.WGS84       -96.9359395822 : SURFACE LONGITUDE
~Curve Information -----------------------------------------
DEPT  .FT    : DEPTH
SPED  .MV    : SPONTANEOUS POTENTIAL FROM DIL/SONIC LOG
CALRED.IN    : CALIPER FROM DIL/SONIC LOG
ILDED .OHMM  : INDUCTION LOG DEEP RESISTIVITY FROM DIL/SONIC LOG
ILMED .OHMM  : INDUCTION LOG MEDIUM RESISTIVITY FROM DIL/SONIC LOG
LL8ED .OHMM  : LATEROLOG 8 INCH FROM DIL/SONIC LOG
CILDED.MMHO  : CONDUCTIVITY FROM DIL/SONIC LOG
CALDED.IN    : CALIPER FROM CN/FD LOG
GRDED .GAPI  : GAMMA RAY FROM CN/FD LOG
DRHOED.G/C3  : DENSITY CORRECTION FROM CN/FD LOG
RHOBED.G/C3  : BULK DENSITY FROM CN/FD LOG
NPHIED.V/V   : NEUTRON POROSITY LIMETONE FROM CN/FD LOG
DTED  .US/F  : DELTA TIME FROM DIL/SONIC LOG
DPHIED.V/V   : DENSITY POROSITY [M=2.68, F=1.0] FROM CN/FD LOG
SPWS  .MV    : SPONTANEOUS POTENTIAL [BASELINE 0 MV]
CALWS .IN    : CALIPER [2520 CALRED, 9690.5 CALDED]
CONDWS.MMHO  : CONDUCTIVITY [CILDED]
DCORWS.G/C3  : DENSITY CORRECTION [DRHOED]
DENWS .G/C3  : BULK DENSITY [RHOBED]
DPOWS .V/V   : DENSITY POROSITY [M=2.68, F=1.0] [DPHIED]
DRESWS.OHMM  : DEEP RESISTIVITY [ILDED]
DTWS  .US/F  : DELTA TIME [DTED]
GRWS  .GAPI  : GAMMA RAY [GRDED]
MRESWS.OHMM  : MEDIUM RESISTIVITY [ILMED]
NPOWS .V/V   : NEUTRON POROSITY LIMETONE [NPHIED]
SRESWS.OHMM  : SHALLOW RESISTIVITY [LL8ED]
~Params ----------------------------------------------------
EKB .F                 278.0 : Kelly bushing
EGL .F                 260.0 : Ground level
EDF .F                 277.0 : Drilling floor
EPD .F                 260.0 : Permanent datum
TD  .F               14505.0 : Total depth
DATE.            29-AUG-1977 : Date logged
CLNT.                A2DTECH : Client Code
DAPD.F                    18 : Feet Above Permanent Datum
DD  .F                 14505 : Depth driller
DL  .F                 14401 : Depth logger
BLI .F                 14394 : Bottom log interval
TLI .F                 13663 : Top log interval
CS1 .IN                    7 : Casing size
CBD1.             7" @ 3646' : Casing driller 1
CBL1.F                 13663 : Casing logger 1
BS1 .IN                    6 : Bit size
BSD1.F                 14505 : Depth drilled with bit1
DFT .                CLS-LIG : Type fluid in hole
DFD .                   11.6 : Density
DFV .                     45 : Viscosity
DFPH.                     11 : pH
DFL .                    3.8 : Fluid loss
MSS .              CIRC. PIT : Source of sample
RMS .OHMM              0.865 : Rm
RMF .OHMM               0.57 : Rmf
RMC .OHMM                1.3 : Rmc
MFSS.                   MEAS : Source Rmf.
MCSS.                   CALC : Source Rmc.
TCS .HRS                 330 : Time Circ. stopped
TLAB.HRS                 530 : Time logger at bottom
LUN .                   8005 : Logging unit number
LUL .                   VICT : Logging unit location
ORIG.            2" 5" PRINT : Origin of data
UWI .         42285307220000 : Unique Well ID
DICO. A2D TECHNOLOGIES, INC. : Digitizing Company
SL  .  3700' FWL & 1000' FNL : Surface Location
PD  .                     GL : Permanent Datum
LMF .                     KB : Log Measured From
DMF .                     KB : Drilling Measured From
~Other -----------------------------------------------------
~ASCII -----------------------------------------------------
# ...
 12350.00000  -18.19550    -999.25    2.93600    2.80690    2.68770  362.22290   13.37850    -999.25   -0.03810    2.46440    0.22680   80.31440    0.12800   -1.82440   13.37850  362.22290   -0.03810    2.46440    0.12800    2.93600   80.31440    -999.25    2.80690    0.22680    2.68770
 12400.00000  -21.80500    -999.25    2.92210    2.71290    2.74370  362.22290   13.68180    -999.25   -0.02840    2.49630    0.25350   79.11680    0.10700   -5.44390   13.68180  362.22290   -0.02840    2.49630    0.10700    2.92210   79.11680    -999.25    2.71290    0.25350    2.74370
 12450.00000  -18.94810    -999.25    2.65550    2.69150    2.68780  389.57350   12.03040    -999.25   -0.00450    2.55180    0.19280   81.06290    0.07900   -2.59700   12.03040  389.57350   -0.00450    2.55180    0.07900    2.65550   81.06290    -999.25    2.69150    0.19280    2.68780
 12500.00000  -19.54890    -999.25    2.38370    2.25620    2.00690  416.91590   13.89390    -999.25   -0.03510    2.46610    0.28900   85.17960    0.13400   -3.20780   13.89390  416.91590   -0.03510    2.46610    0.13400    2.38370   85.17960    -999.25    2.25620    0.28900    2.00690
 12550.00000  -19.43930    -999.25    5.94830    5.99600    6.20610  173.37460   10.13640    -999.25   -0.00220    2.56380    0.17200   68.95870    0.07300   -3.10830   10.13640  173.37460   -0.00220    2.56380    0.07300    5.94830   68.95870    -999.25    5.99600    0.17200    6.20610
 12600.00000  -19.46620    -999.25    4.90070    5.48270    4.61590  179.56660   12.39400    -999.25   -0.00070    2.56300    0.35790   76.76170    0.06400   -3.14520   12.39400  179.56660   -0.00070    2.56300    0.06400    4.90070   76.76170    -999.25    5.48270    0.35790    4.61590
 12650.00000  -18.90400    -999.25    2.45960    2.24060    2.41680  444.26930   13.46970    -999.25   -0.01490    2.45490    0.29350   82.30890    0.13600   -2.59300   13.46970  444.26930   -0.01490    2.45490    0.13600    2.45960   82.30890    -999.25    2.24060    0.29350    2.41680
 12700.00000  -19.00450    -999.25    3.87710    3.13940    3.65660  306.50160   12.19710    -999.25   -0.00670    2.56290    0.23110   78.78560    0.07200   -2.70350   12.19710  306.50160   -0.00670    2.56290    0.07200    3.87710   78.78560    -999.25    3.13940    0.23110    3.65660
 12750.00000  -17.49620    -999.25    2.38380    2.38380    2.62490  419.50460   12.90920    -999.25   -0.00220    2.55990    0.22480   85.24840    0.07300   -1.20520   12.90920  419.50460   -0.00220    2.55990    0.07300    2.38380   85.24840    -999.25    2.38380    0.22480    2.62490
 12800.00000  -18.10030    -999.25    2.13790    2.18040    2.60690  455.10210   12.42460    -999.25   -0.00070    2.53970    0.22540   85.50220    0.08100   -1.81930   12.42460  455.10210   -0.00070    2.53970    0.08100    2.13790   85.50220    -999.25    2.18040    0.22540    2.60690
 12850.00000  -17.46990    -999.25    2.36810    2.35770    3.01230  412.79330   12.95470    -999.25   -0.01040    2.54340    0.22050   85.83180    0.08300   -1.19890   12.95470  412.79330   -0.01040    2.54340    0.08300    2.36810   85.83180    -999.25    2.35770    0.22050    3.01230
 12900.00000  -18.62030    -999.25    3.13070    3.13650    3.50500  321.98140   12.43960    -999.25    0.00320    2.63170    0.18640   78.68490    0.03300   -2.35940   12.43960  321.98140    0.00320    2.63170    0.03300    3.13070   78.68490    -999.25    3.13650    0.18640    3.50500
 12950.00000  -17.56760    -999.25    2.53260    2.53800    3.13950  394.73680   12.69720    -999.25    0.02390    2.57200    0.20480   85.08250    0.06100   -1.31670   12.69720  394.73680    0.02390    2.57200    0.06100    2.53260   85.08250    -999.25    2.53800    0.20480    3.13950
 13000.00000  -18.04940    -999.25    3.37730    3.34500    4.22080  289.98140   12.12880    -999.25    0.00000    2.60480    0.17250   75.90100    0.03900   -1.80850   12.12880  289.98140    0.00000    2.60480    0.03900    3.37730   75.90100    -999.25    3.34500    0.17250    4.22080
 13050.00000  -17.89850    -999.25    2.77490    2.91370    3.24930  352.94120   12.25730    -999.25   -0.00150    2.60930    0.18410   79.72970    0.03500   -1.66760   12.25730  352.94120   -0.00150    2.60930    0.03500    2.77490   79.72970    -999.25    2.91370    0.18410    3.24930
 13100.00000  -17.70000    -999.25    3.01630    2.99530    3.96720  334.36220   12.21230    -999.25   -0.00970    2.60480    0.18370   80.87290    0.04300   -1.47910   12.21230  334.36220   -0.00970    2.60480    0.04300    3.01630   80.87290    -999.25    2.99530    0.18370    3.96720
 13150.00000  -18.13830    -999.25    4.35860    4.32860    4.22070  233.74610   12.24640    -999.25   -0.00600    2.62340    0.14370   73.80240    0.03500   -1.92740   12.24640  233.74610   -0.00600    2.62340    0.03500    4.35860   73.80240    -999.25    4.32860    0.14370    4.22070
 13200.00000  -17.30370    -999.25    4.73440    4.12550    5.41890  198.49620   11.10490    -999.25   -0.00820    2.61740    0.09620   75.33780    0.04000   -1.10290   11.10490  198.49620   -0.00820    2.61740    0.04000    4.73440   75.33780    -999.25    4.12550    0.09620    5.41890
 13250.00000  -16.82110    -999.25    4.21070    4.06920    5.04820  225.56390   11.24050    -999.25   -0.00820    2.59960    0.12900   77.08730    0.04600   -0.63030   11.24050  225.56390   -0.00820    2.59960    0.04600    4.21070   77.08730    -999.25    4.06920    0.12900    5.04820
 13300.00000  -17.20520    -999.25    3.52000    3.54740    4.58430  286.57320   10.59480    -999.25   -0.01270    2.58840    0.16040   78.48580    0.05500   -1.02440   10.59480  286.57320   -0.01270    2.58840    0.05500    3.52000   78.48580    -999.25    3.54740    0.16040    4.58430
 13350.00000  -16.72280    -999.25    5.76430    5.91400    7.84250  190.40320   10.44440    -999.25   -0.01420    2.60030    0.11770   71.28940    0.04800   -0.55200   10.44440  190.40320   -0.01420    2.60030    0.04800    5.76430   71.28940    -999.25    5.91400    0.11770    7.84250
 13400.00000  -16.49020    -999.25    4.11600    4.25000    5.55870  247.67800   10.39950    -999.25   -0.00600    2.58390    0.14430   74.81250    0.04700   -0.32940   10.39950  247.67800   -0.00600    2.58390    0.04700    4.11600   74.81250    -999.25    4.25000    0.14430    5.55870
 13450.00000  -16.43550    -999.25    3.19160    3.25410    4.49060  266.25390   10.29430    -999.25   -0.01870    2.50410    0.22720   75.78710    0.09500   -0.28470   10.29430  266.25390   -0.01870    2.50410    0.09500    3.19160   75.78710    -999.25    3.25410    0.22720    4.49060
 13500.00000  -16.13380    -999.25    2.71500    2.79270    4.10620  357.89480   10.39950    -999.25   -0.00300    2.58790    0.20570   83.85890    0.05300    0.00700   10.39950  357.89480   -0.00300    2.58790    0.05300    2.71500   83.85890    -999.25    2.79270    0.20570    4.10620
 13550.00000  -16.63200    -999.25    2.80840    2.91040    4.38940  365.41350    9.79900    -999.25   -0.01190    2.58410    0.21690   84.28120    0.05600   -0.50130    9.79900  365.41350   -0.01190    2.58410    0.05600    2.80840   84.28120    -999.25    2.91040    0.21690    4.38940
 13600.00000  -17.00640    -999.25    2.87070    2.95080    4.01390  372.92930    -999.25    -999.25    -999.25    -999.25    -999.25   83.53280    -999.25   -0.88570    -999.25  372.92930    -999.25    -999.25    -999.25    2.87070   83.53280    -999.25    2.95080    -999.25    4.01390
 13650.00000  -16.00000    -999.25    9.50980   10.18710   13.81580  138.63090    -999.25    -999.25    -999.25    -999.25    -999.25    -999.25    -999.25    0.11110    -999.25  138.63090    -999.25    -999.25    -999.25    9.50980    -999.25    -999.25   10.18710    -999.25   13.81580
 13700.00000  -24.70130    -999.25   14.67920   13.98910   19.72340   85.91560    7.01350   46.23630    0.01580    2.68120    0.05970   63.44310    0.02100   -6.52610    7.01350   85.91560    0.01580    2.68120    0.02100   14.67920   63.44310   46.23630   13.98910    0.05970   19.72340
