~Version ---------------------------------------------------
VERS. 2.0 : CWLS log ASCII Standard -VERSION 2.0
WRAP.  NO : One line per depth step
~Well ------------------------------------------------------
STRT.FT                          300.0 : START DEPTH
STOP.FT                        14400.0 : STOP DEPTH
STEP.FT                       50.00000 : STEP LENGTH
NULL.                          -999.25 : NULL VALUE
COMP.    AMERADA PETROLEUM CORPORATION : COMPANY
WELL.                MABEL GRIMES B #1 : WELL
FLD .               LOWE RANCH EDWARDS : FIELD
LOC .                                  : LOCATION
CNTY.                        MC MULLEN : COUNTY
STAT.                            TEXAS : STATE
CTRY.         UNITED STATES OF AMERICA : COUNTRY
SRVC. Schlumberger Well Surveying Corp : SERVICE COMPANY
DATE.                      20-Feb-1958 : LOGDATE
API .                   42311013640000 : API NUMBER
UWI .                   42311013640000 : UNIQUE WELL ID
SLAT.WGS84               28.3207374348 : SURFACE LATITUDE
SLON.WGS84              -98.6948976176 : SURFACE LONGITUDE
~Curve Information -----------------------------------------
DEPT  .FT    : DEPTH
ASNED .OHMM  : AMPLIFIED SHORT NORMAL 16 IN.
CALMED.IN    : CALIPER FROM MICRO LOG (ADJ TO RES.)
CALWS .IN    : CALIPER (CALMED)
CILDED.MMHO  : CONDUCTIVITY FROM LOG
CONDWS.MMHO  : CONDUCTIVITY (1000/DRESws)
DRESWS.OHMM  : DEEP RESISTIVITY (LNED/ILDED @ 5122) (IF DRESws<1, THEN 1000/CILDED)
GRNED .CU    : GAMMA RAY FROM NEUTRON LOG (ADJ TO RES.)
GRWS  .CU    : GAMMA RAY (GRNED)
ILDED .OHMM  : DEEP INDUCTION RESISTIVITY
LNED  .OHMM  : LONG NORMAL 64 IN.
LT18ED.OHMM  : LATERAL
NEUTED.CU    : NEUTRON FROM GAMMA RAY NEUTRON LOG (ADJ TO RES.)
NEUTWS.CU    : NEUTRON FROM GAMMA RAY NEUTRON LOG (NEUTED)
SPWS  .MV    : SPONTANEOUS POTENTIAL BASELINE 0 MV (SPRED)
SPRED .MV    : SPONTANEOUS POTENTIAL FROM RESISTIVITY
SRESWS.OHMM  : SHALLOW RESISTIVITY (ASNED)
~Params ----------------------------------------------------
PD  .                     GL : PERMANENT DATUM
LMF .                     KB : LOG MEASURED FROM
DAPD.F                 16.05 : FEET ABOVE PERMANENT DATUM
DMF .                     KB : DRILLING MEASURED FROM
EDF .F                   323 : DRILLING FLOOR
DATE.               02/20/58 : RUN DATE
RUN .                      3 : RUN NUMBER
DD  .F                 14409 : DEPTH DRILLER
DL  .F                 14411 : DEPTH LOGGER
BLI .F                 14405 : BOTTOM LOG INTERVAL
TLI .F                 13725 : TOP LOG INTERVAL
CBD .F                 13725 : CASING BOTTOM DRILLER
CBL .F                 13725 : CASING BOTTOM LOGGER
BS  .IN                 8.75 : BIT SIZE
BSD .F                 14409 : BIT SIZE AT DEPTH
DFT .               OIL EMUL : DRILLING FLUID TYPE
DFD .                   12.4 : DRILLING FLUID DENSITY
DFV .                     46 : DRILLING FLUID VISCOSITY
DFPH.                     12 : DRILLING FLUID PH
DFL .                    6.5 : DRILLING FLUID LOSS
MSS .                MUD PIT : MUD SAMPLE SOURCE
RMS .OHMM               0.82 : RESISTIVITY MUD SAMPLE
MST .F                    78 : MUD SAMPLE TEMPERATURE
RMF .OHMM               0.16 : RESISTIVITY MUD FILTRATE SAMPLE
MFST.F                   310 : MUD FILTRATE SAMPLE TEMPERATURE
RMC .OHMM               0.31 : RESISTIVITY MUD CAKE
MCST.F                   310 : MUD CAKE SAMPLE TEMPERATURE
RMB .OHMM               0.21 : RESISTIVITY MUD AT BHT
TCS .HRS                   2 : TIME CURCULATED STOPPED
LUL .                    VIC : LOGGING UNIT LOCATION
ENGI.                WHITNEY : RECORDING ENGINEER
WITN.                 GOLSON : WITNESSED BY
CLNT.                A2DTECH : CLIENT CODE
ORIG.               2" PRINT : ORIGIN OF DATA
UWI .         42311013640000 : UNIQUE WELL ID
DICO. A2D Technologies, Inc. : DIGITIZING COMPANY
~Other -----------------------------------------------------
~ASCII -----------------------------------------------------
# ...
 4600.00000    6.54160    -999.25    -999.25    -999.25  299.48190    3.33910    -999.25    -999.25    -999.25    3.33910    3.48470    -999.25    -999.25  -14.73110  -29.12480    6.54160
 4650.00000    9.26920    -999.25    -999.25    -999.25  163.27330    6.12470    -999.25    -999.25    -999.25    6.12470    3.06490    -999.25    -999.25  -53.51090  -68.53940    9.26920
 4700.00000    8.33730    -999.25    -999.25    -999.25  174.98120    5.71490    -999.25    -999.25    -999.25    5.71490    4.13290    -999.25    -999.25  -63.49960  -79.47610    8.33730
 4750.00000    7.76550    -999.25    -999.25    -999.25  150.94110    6.62510    -999.25    -999.25    -999.25    6.62510    5.69110    -999.25    -999.25  -30.47740  -47.40190    7.76550
 4800.00000    8.26420    -999.25    -999.25    -999.25  133.34040    7.49960    -999.25    -999.25    -999.25    7.49960    7.76560    -999.25    -999.25  -43.70790  -61.58040    8.26420
 4850.00000    9.21110    -999.25    -999.25    -999.25  146.98320    6.80350    -999.25    -999.25    -999.25    6.80350    6.04060    -999.25    -999.25  -61.91190  -80.73240    9.21110
 4900.00000    6.25670    -999.25    -999.25    -999.25  260.49130    3.83890    -999.25    -999.25    -999.25    3.83890    2.50440    -999.25    -999.25  -72.92480  -92.69330    6.25670
 4950.00000    6.35250    -999.25    -999.25    -999.25  258.06450    3.87500    -999.25    -999.25    -999.25    3.87500    3.44980    -999.25    -999.25  -66.00120  -93.16600    6.35250
 5000.00000    5.00890    -999.25    -999.25    -999.25  310.13520    3.22440    -999.25    -999.25    -999.25    3.22440    4.70350    -999.25    -999.25  -13.71980  -48.48030    5.00890
 5050.00000    5.15150    -999.25    -999.25    -999.25  223.10970    4.48210    -999.25    -999.25    -999.25    4.48210    3.48530    -999.25    -999.25  -38.05980  -77.85840    5.15150
 5100.00000    5.38540    -999.25    -999.25    -999.25  246.70040    4.05350    -999.25    -999.25    -999.25    4.05350    4.07930    -999.25    -999.25  -38.90450  -75.17920    5.38540
 5150.00000    4.43860    -999.25    -999.25  208.83000  244.26590    4.09390    -999.25    -999.25    4.09390    -999.25    -999.25    -999.25    -999.25  -20.92240  -53.67320    4.43860
 5200.00000    4.13010    -999.25    -999.25  208.83530  252.18770    3.96530    -999.25    -999.25    3.96530    -999.25    -999.25    -999.25    -999.25  -12.62110  -41.84790    4.13010
 5250.00000    4.39870    -999.25    -999.25  210.84340  245.71840    4.06970    -999.25    -999.25    4.06970    -999.25    -999.25    -999.25    -999.25  -26.00150  -51.70440    4.39870
 5300.00000    3.16100    -999.25    -999.25  306.55960  355.41650    2.81360    -999.25    -999.25    2.81360    -999.25    -999.25    -999.25    -999.25   -4.43580  -26.61480    3.16100
 5350.00000    4.50980    -999.25    -999.25  194.78340  265.26610    3.76980    -999.25    -999.25    3.76980    -999.25    -999.25    -999.25    -999.25  -18.27960  -37.54900    4.50980
 5400.00000    1.54100    -999.25    -999.25  898.70230  749.00750    1.33510    -999.25    -999.25    1.33510    -999.25    -999.25    -999.25    -999.25   -1.72180  -20.88050    1.54100
 5450.00000    4.38610    -999.25    -999.25  206.83050  248.06510    4.03120    -999.25    -999.25    4.03120    -999.25    -999.25    -999.25    -999.25  -23.43120  -42.47920    4.38610
 5500.00000    3.89680    -999.25    -999.25  263.72160  306.53220    3.26230    -999.25    -999.25    3.26230    -999.25    -999.25    -999.25    -999.25   -7.49770  -26.43500    3.89680
 5550.00000    3.65410    -999.25    -999.25  323.96250  324.25420    3.08400    -999.25    -999.25    3.08400    -999.25    -999.25    -999.25    -999.25   -5.99360  -24.82020    3.65410
 5600.00000    3.35150    -999.25    -999.25  323.93760  339.90480    2.94200    -999.25    -999.25    2.94200    -999.25    -999.25    -999.25    -999.25   -7.18240  -25.89830    3.35150
 5650.00000    2.84360    -999.25    -999.25  397.81240  430.21860    2.32440    -999.25    -999.25    2.32440    -999.25    -999.25    -999.25    -999.25   -4.01980  -22.62490    2.84360
 5700.00000    2.93000    -999.25    -999.25  416.83350  404.36720    2.47300    -999.25    -999.25    2.47300    -999.25    -999.25    -999.25    -999.25   -5.07300  -23.56740    2.93000
 5750.00000    3.95720    -999.25    -999.25  239.62520  268.01750    3.73110    -999.25    -999.25    3.73110    -999.25    -999.25    -999.25    -999.25   -9.84200  -28.22570    3.95720
 5800.00000    3.00230    -999.25    -999.25  389.55820  388.45510    2.57430    -999.25    -999.25    2.57430    -999.25    -999.25    -999.25    -999.25   -4.75570  -23.02870    3.00230
 5850.00000    5.57930    -999.25    -999.25  161.31120  202.81100    4.93070    -999.25    -999.25    4.93070    -999.25    -999.25    -999.25    -999.25  -19.47580  -37.63810    5.57930
 5900.00000    2.78330    -999.25    -999.25  419.00940  421.92310    2.37010    -999.25    -999.25    2.37010    -999.25    -999.25    -999.25    -999.25   -3.85630  -21.90790    2.78330
 5950.00000    3.90390    -999.25    -999.25  253.01210  281.92040    3.54710    -999.25    -999.25    3.54710    -999.25    -999.25    -999.25    -999.25   -8.76030  -26.70120    3.90390
 6000.00000    2.07400    -999.25    -999.25  595.23250  539.37430    1.85400    -999.25    -999.25    1.85400    -999.25    -999.25    -999.25    -999.25   -2.33220  -20.16240    2.07400
 6050.00000    2.29570    -999.25    -999.25  528.11180  510.38640    1.95930    -999.25    -999.25    1.95930    -999.25    -999.25    -999.25    -999.25   -3.87720  -21.59660    2.29570
 6100.00000    3.21340    -999.25    -999.25  350.70030  389.62050    2.56660    -999.25    -999.25    2.56660    -999.25    -999.25    -999.25    -999.25   -4.88240  -22.49110    3.21340
 6150.00000    2.58720    -999.25    -999.25  465.19410  456.07950    2.19260    -999.25    -999.25    2.19260    -999.25    -999.25    -999.25    -999.25   -4.09680  -21.59480    2.58720
 6200.00000    3.94720    -999.25    -999.25  268.52730  293.69440    3.40490    -999.25    -999.25    3.40490    -999.25    -999.25    -999.25    -999.25  -20.51580  -37.90310    3.94720
 6250.00000    2.10150    -999.25    -999.25  562.25740  560.94690    1.78270    -999.25    -999.25    1.78270    -999.25    -999.25    -999.25    -999.25   -2.70640  -19.98300    2.10150
 6300.00000    2.54800    -999.25    -999.25  447.53520  473.70910    2.11100    -999.25    -999.25    2.11100    -999.25    -999.25    -999.25    -999.25   -2.97120  -20.29550    2.54800
 6350.00000    2.88080    -999.25    -999.25  378.17940  397.12480    2.51810    -999.25    -999.25    2.51810    -999.25    -999.25    -999.25    -999.25   -4.55160  -21.95370    2.88080
 6400.00000    2.25980    -999.25    -999.25  522.08870  514.66800    1.94300    -999.25    -999.25    1.94300    -999.25    -999.25    -999.25    -999.25   -2.77120  -20.25120    2.25980
 6450.00000    2.76500    -999.25    -999.25  360.10710  403.69790    2.47710    -999.25    -999.25    2.47710    -999.25    -999.25    -999.25    -999.25   -3.85770  -21.41550    2.76500
 6500.00000    2.16620    -999.25    -999.25  526.06450  544.60300    1.83620    -999.25    -999.25    1.83620    -999.25    -999.25    -999.25    -999.25   -3.42340  -21.05910    2.16620
 6550.00000    2.63350    -999.25    -999.25  463.18610  450.73470    2.21860    -999.25    -999.25    2.21860    -999.25    -999.25    -999.25    -999.25   -3.34450  -21.05810    2.63350
 6600.00000    1.88960    -999.25    -999.25  621.59890  624.14180    1.60220    -999.25    -999.25    1.60220    -999.25    -999.25    -999.25    -999.25   -2.32350  -20.11490    1.88960
 6650.00000    1.72040    -999.25    -999.25  664.88170  641.84850    1.55800    -999.25    -999.25    1.55800    -999.25    -999.25    -999.25    -999.25   -1.57540  -19.44470    1.72040
 6700.00000    2.52820    -999.25    -999.25  390.45070  460.68090    2.17070    -999.25    -999.25    2.17070    -999.25    -999.25    -999.25    -999.25   -3.11040  -21.05750    2.52820
