~Version ---------------------------------------------------
VERS.      2.0 : CWLS log ASCII Standard -VERSION 2.0
WRAP.      YES : MULTIPLE LINES PER DEPTH STEP
CREA. 09/06/13 : LAS CREATION DATE
~Well ------------------------------------------------------
STRT.FT                 1750.0 : START DEPTH
STOP.FT                 7850.0 : STOP DEPTH
STEP.FT               50.00000 : STEP LENGTH
NULL.                  -999.25 : NULL VALUE
COMP.             LOVELADY I W : COMPANY
WELL.       REYNOLDS-WILSON #1 : WELL
FLD .                  WILDCAT : FIELD
LOC .                          : LOCATION
CNTY.                   DIMMIT : COUNTY
STAT.                    TEXAS : STATE
CTRY. UNITED STATES OF AMERICA : COUNTRY
SRVC.             Schlumberger : SERVICE COMPANY
DATE.              29-May-1978 : LOGDATE
API .           42127317010000 : API NUMBER
UWI .           42127317010000 : UNIQUE WELL ID
SLAT.WGS84       28.5815005355 : SURFACE LATITUDE
SLON.WGS84      -99.7303290517 : SURFACE LONGITUDE
~Curve Information -----------------------------------------
DEPT    .FT    : DEPTH FEET
ALL8ED  .OHMM  : AMPLIFIED LATARAL 8'
CALDED  .IN    : CALIPER FROM DENSITY LOG
CALWS   .IN    : CALIPER [CALDED]
CILDED  .MMHO  : CONDUCTIVITY FROM RESISTIVITY LOG
CONDWS  .MMHO  : CONDUCTIVITY [1000/DRESWS]
CORRED  .G/C3  : DENSITY CORRECTION FROM DENSITY LOG
DCORWS  .G/C3  : DENSITY CORRECTION [CORRED]
DENWS   .G/C3  : BULK DENSITY [M=2.65 F=1.0] [RHOBED]
DPHILSED.V/V   : DENSITY POROSITY [M=2.71 F=1.0] FROM DENSITY LOG
DPHISSED.V/V   : DENSITY POROSITY [M=2.65 F=1.0] FROM DENSITY LOG
DPOLSWS .V/V   : DENSITY POROSITY LIMESTONE [CALCULATED WITH DENWS]
DRESWS  .OHMM  : DEEP RESISTIVITY [ILDED] IF DRESWS<1;1000/CONDWS
GRDED   .GAPI  : GAMMA RAY FROM DENSITY LOG
GRWS    .GAPI  : GAMMA RAY [GRDED]
ILDED   .OHMM  : INDUCTION LOG DEEP RESISTIVITY
NPHILSED.V/V   : NEUTRON POROSITY LIMESTONE FROM DENSITY LOG
NPHISSED.V/V   : NEUTRON POROSITY SANDSTONE FROM DENSITY LOG
NPOLSWS .V/V   : NEUTRON POROSITY LIMESTONE [NPHILSED], CONVERTED MATRIX [NPHISSED] TO LIMESTONE FROM TOP-5725'
RHOBED  .G/C3  : BULK DENSITY FROM DENSITY LOG
SPRED   .MV    : SPONTANEOUS POTENTIAL FROM RESISTIVITY LOG     RESISTIVITY LOG
SPWS    .MV    : SPONTANEOUS POTENTIAL [BASELINE 0 MV] [SPRED]
SRESWS  .OHMM  : SHALLOW RESISTIVITY [ALL8ED]
~Params ----------------------------------------------------
PD  .                     GL : PERMANENT DATUM
EPD .FT                565.3 : ELEVATION PERMANENT DATUM
LMF .                     KB : LOG MEASURED FROM
DAPD.FT                   11 : FEET ABOVE PERMANENT DATUM
DMF .                     KB : DRILLING MEASURED FROM
EDF .FT                575.3 : DRILLING FLOOR
EGL .FT                565.3 : GROUND LEVEL
DATE.               05/29/78 : RUN DATE
RUN .                      2 : RUN NUMBER
DD  .FT                 7872 : DEPTH DRILLER
DL  .FT                 7875 : DEPTH LOGGER
BLI .FT                 7869 : BOTTOM LOG INTERVAL
TLI .FT                 7080 : TOP LOG INTERVAL
CS  .IN                10.75 : CASING SIZE
CBD .FT                 1725 : CASING BOTTOM DRILLER
BS  .IN                 8.75 : BIT SIZE
BSD .FT                 7872 : BIT SIZE AT DEPTH
DFT .              DISPERSED : DRILLING FLUID TYPE
DFD .                   10.1 : DRILLING FLUID DENSITY
DFV .                     56 : DRILLING FLUID VISCOSITY
DFPH.                     10 : DRILLING FLUID PH
DFL .                    8.2 : DRILLING FLUID LOSS
MSS .              CIRC TANK : MUD SAMPLE SOURCE
RMS .OHMM               1.06 : RESISTIVITY MUD SAMPLE
MST .DEGF                 75 : MUD SAMPLE TEMPERATURE
RMF .OHMM                0.6 : RESISTIVITY MUD FILTRATE SAMPLE
MFST.DEGF                 75 : MUD FILTRATE SAMPLE TEMPERATURE
MFSS.                   MEAS : MUD FILTRATE SAMPLE SOURCE
RMB .OHMM               0.44 : RESISTIVITY MUD AT BHT
TCS .HRS                 900 : TIME CIRCULATED STOPPED
TLAB.HRS                1500 : TIME LOGGER AT BOTTOM
LUN .                   2739 : LOGGING UNIT NUMBER
LUL .                 LAREDO : LOGGING UNIT LOCATION
CLNT.                A2DTECH : CLIENT CODE
ORIG.               1" PRINT : ORIGIN OF DATA
UWI .         42127317010000 : UNIQUE WELL ID
DICO. A2D Technologies, Inc. : DIGITIZING COMPANY
~Other -----------------------------------------------------
~ASCII -----------------------------------------------------
 1750.00000    -999.25   10.84050   10.84050    -999.25    -999.25    -999.25    -999.25    -999.25    -999.25    -999.25    -999.25    -999.25   71.45630   88.78650    -999.25    -999.25    0.34100    -999.25    -999.25    -999.25    -999.25    -999.25
 1800.00000    5.40270   11.47980   11.47980  190.13960  202.17130    0.03750    0.03750    2.23450    -999.25    0.26900    0.27810    4.94630   57.19320   57.19320    4.94630    -999.25    0.32670    0.27650    2.23450  -43.50720  -14.44340    5.40270
 1850.00000    4.13570   12.46710   12.46710  255.81510  257.06280    0.04540    0.04540    2.44700    -999.25    0.12690    0.15380    3.89010   88.89010   88.89010    3.89010    -999.25    0.33860    0.28910    2.44700  -36.99140   -7.71120    4.13570
 1900.00000    5.61330   11.64160   11.64160  153.80260  154.70780    0.00700    0.00700    2.24290    -999.25    0.26380    0.27320    6.46380   79.98690   79.98690    6.46380    -999.25    0.31270    0.26180    2.24290  -33.93650   -4.43990    5.61330
 1950.00000    6.05510   11.14440   11.14440  149.87320  155.46780    0.02820    0.02820    2.31490    -999.25    0.20970    0.23110    6.43220   73.17140   73.17140    6.43220    -999.25    0.30560    0.25440    2.31490  -36.15200   -6.43890    6.05510
 2000.00000    5.63280   11.69300   11.69300  152.44730  160.93210    0.04310    0.04310    2.31090    -999.25    0.22570    0.23340    6.21380   63.33900   63.33900    6.21380    -999.25    0.31980    0.26930    2.31090  -32.65730   -2.72780    5.63280
 2050.00000    5.79850   11.23370   11.23370  144.99060  140.53830    0.00680    0.00680    2.19820    -999.25    0.26470    0.29930    7.11550   66.06860   66.06860    7.11550    -999.25    0.33130    0.28130    2.19820  -33.61450   -3.46860    5.79850
 2100.00000    5.51160   10.81860   10.81860  145.93520  149.12460    0.01850    0.01850    2.31090    -999.25    0.21590    0.23340    6.70580   24.04310   24.04310    6.70580    -999.25    0.23860    0.18610    2.31090  -31.72540   -1.36300    5.51160
 2150.00000    4.32200   11.90750   11.90750  243.55360  240.48870    0.02270    0.02270    2.52340    -999.25    0.09710    0.10910    4.15820  110.09720  110.09720    4.15820    -999.25    0.30080    0.24940    2.52340  -36.86370   -6.28490    4.32200
 2200.00000    2.46500   11.92180   11.92180  428.95730  388.86300    0.05870    0.05870    2.47630    -999.25    0.12390    0.13670    2.57160  102.58770  102.58770    2.57160    -999.25    0.38790    0.34180    2.47630  -34.87300   -4.07780    2.46500
 2250.00000    2.05850   12.39600   12.39600  550.65780  521.18620    0.08820    0.08820    2.38360    -999.25    0.15500    0.19090    1.91870   99.01030   99.01030    1.91870    -999.25    0.43590    0.39440    2.38360  -34.14490   -3.13320    2.05850
 2300.00000    2.33950   12.27840   12.27840  458.70070  440.72280    0.04330    0.04330    2.57200    -999.25    0.07780    0.08070    2.26900   85.19840   85.19840    2.26900    -999.25    0.25530    0.20270    2.57200  -34.61530   -3.38720    2.33950
 2350.00000    2.25340   12.25280   12.25280  451.09640  473.08170    0.03510    0.03510    2.47960    -999.25    0.11840    0.13470    2.11380   97.95450   97.95450    2.11380    -999.25    0.37910    0.33230    2.47960  -34.76850   -3.32400    2.25340
 2400.00000    2.36310   11.80290   11.80290  450.81710  409.43330    0.00620    0.00620    2.51000    -999.25    0.16820    0.11700    2.44240   86.21770   86.21770    2.44240    -999.25    0.32170    0.27120    2.51000  -35.79430   -4.13330    2.36310
 2450.00000    2.02050   15.44710   15.44710  517.21550  581.19260    0.04490    0.04490    1.80740    -999.25    0.51560    0.52780    1.72060   88.74650   88.74650    1.72060    -999.25    0.35950    0.31130    1.80740  -34.44670   -2.56930    2.02050
 2500.00000    1.54320   11.38950   11.38950  745.91970  785.11420    0.06420    0.06420    2.36850    -999.25    0.18300    0.19970    1.27370  101.42080  101.42080    1.27370    -999.25    0.39550    0.35010    2.36850  -34.98020   -2.88640    1.54320
 2550.00000    6.14180   11.81600   11.81600  170.46500  172.63700    0.00770    0.00770    2.51340    -999.25    0.08540    0.11500    5.79250   56.22790   56.22790    5.79250    -999.25    0.19760    0.14700    2.51340  -44.28210  -12.32620    6.14180
 2600.00000    6.08270   12.08100   12.08100  163.73030  175.57100    0.01880    0.01880    2.52050    -999.25    0.08190    0.11080    5.69570   67.64730   67.64730    5.69570    -999.25    0.23510    0.18270    2.52050  -39.33250   -7.51820    6.08270
 2650.00000    8.46960   11.71630   11.71630  117.66320  123.91570    0.00370    0.00370    2.49480    -999.25    0.10340    0.12580    8.07000   52.78260   52.78260    8.07000    -999.25    0.20630    0.15510    2.49480  -46.05440  -14.38160    8.46960
 2700.00000    4.55370   11.18260   11.18260  201.91210  226.79340    0.19090    0.19090    2.47130    -999.25    0.10140    0.13960    4.40930   71.37610   71.37610    4.40930    -999.25    0.23510    0.18270    2.47130  -39.35850   -7.82730    4.55370
 2750.00000    9.21890   10.82330   10.82330  117.80360  121.88730    0.03620    0.03620    2.54830    -999.25    0.06730    0.09460    8.20430   58.21560   58.21560    8.20430    -999.25    0.19560    0.14510    2.54830  -43.87380  -12.48420    9.21890
 2800.00000    5.05910   10.73110   10.73110  222.38160  246.10540    0.04960    0.04960    2.50010    -999.25    0.13860    0.12270    4.06330   47.77090   47.77090    4.06330    -999.25    0.24380    0.19120    2.50010  -54.03410  -22.78600    5.05910
 2850.00000    4.00290   12.57780   12.57780  280.17370  345.56640    0.11570    0.11570    2.42900    -999.25    0.19060    0.16430    2.89380   80.29120   80.29120    2.89380    -999.25    0.29180    0.24010    2.42900  -36.37750   -5.27100    4.00290
 2900.00000    4.06150   10.76540   10.76540  266.86270  289.47750    0.09970    0.09970    2.46630    -999.25    0.06660    0.14250    3.45450   74.99480   74.99480    3.45450    -999.25    0.30580    0.25460    2.46630  -35.98090   -5.01590    4.06150
 2950.00000    6.11810   10.69740   10.69740  192.31170  211.14420    0.11760    0.11760    2.32620    -999.25    0.16200    0.22440    4.73610   75.05930   75.05930    4.73610    -999.25    0.28570    0.23380    2.32620  -41.11050  -10.28710    6.11810
 3000.00000    2.96710   11.55840   11.55840  324.20920  425.18810    0.08140    0.08140    2.16890    -999.25    0.27440    0.31640    2.35190   88.23250   88.23250    2.35190    -999.25    0.37000    0.32250    2.16890  -35.03280   -4.35090    2.96710
 3050.00000    3.82050   12.84860   12.84860  266.41050  297.51280    0.15040    0.15040    2.18380    -999.25    0.36900    0.30770    3.36120   80.16200   80.16200    3.36120    -999.25    0.30120    0.24980    2.18380  -34.13830   -3.59800    3.82050
 3100.00000    3.42600   11.70390   11.70390  327.32880  378.91710    0.18250    0.18250    2.32540    -999.25    0.21030    0.22490    2.63910   85.44510   85.44510    2.63910    -999.25    0.33790    0.28830    2.32540  -32.87060   -2.47180    3.42600
 3150.00000    3.59410   11.98780   11.98780  292.58300  316.30560    0.13360    0.13360    2.18950    -999.25    0.32470    0.30440    3.16150   78.19410   78.19410    3.16150    -999.25    0.35830    0.31000    2.18950  -32.83810   -2.58090    3.59410
 3200.00000    3.52210   11.57150   11.57150  311.26710  369.79510    0.18150    0.18150    2.33710    -999.25    0.24140    0.21810    2.70420   78.53450   78.53450    2.70420    -999.25    0.31500    0.26420    2.33710  -32.09360   -1.97790    3.52210
 3250.00000    3.96180   11.27790   11.27790  267.37640  311.39070    0.14780    0.14780    2.25720    -999.25    0.27270    0.26480    3.21140   76.42910   76.42910    3.21140    -999.25    0.26640    0.21390    2.25720  -30.52410   -0.55000    3.96180
 3300.00000    3.51840   12.28270   12.28270  320.45630  387.94270    0.12350    0.12350    2.36590    -999.25    0.20220    0.20120    2.57770   75.68280   75.68280    2.57770    -999.25    0.31960    0.26900    2.36590  -32.84860   -3.01600    3.51840
