~Version ---------------------------------------------------
VERS. 2.0 : CWLS log ASCII Standard -VERSION 2.0
WRAP. YES : MULTIPLE LINES PER DEPTH STEP
~Well ------------------------------------------------------
STRT.FT                   4000.0 : START DEPTH
STOP.FT                   9350.0 : STOP DEPTH
STEP.FT                 50.00000 : STEP LENGTH
NULL.                    -999.25 : NULL VALUE
COMP. CHAMPLIN PETROLEUM COMPANY : COMPANY
WELL.            KNESEK LOUIS #1 : WELL
FLD .                   GIDDINGS : FIELD
LOC .                            : LOCATION
CNTY.                   BURLESON : COUNTY
STAT.                      TEXAS : STATE
CTRY.   UNITED STATES OF AMERICA : COUNTRY
SRVC.               Schlumberger : SERVICE COMPANY
DATE.                05-Nov-1980 : LOGDATE
API .             42051309430000 : API NUMBER
UWI .             42051309430000 : UNIQUE WELL ID
SLAT.WGS84         30.3835391031 : SURFACE LATITUDE
SLON.WGS84        -96.6414807303 : SURFACE LONGITUDE
~Curve Information -----------------------------------------
DEPT    .FT    : DEPTH FEET
CALWS   .IN    : CALIPER [DCALED+8.75]
CONDWS  .MMHO  : CONDUCTIVITY [1000/DRESWS]
DCALRED .IN    : DIFFERENTIAL CALIPER FROM RESISTIVITY LOG
DCORWS  .G/C3  : DENSITY CORRECTION [DRHOED]
DENWS   .G/C3  : BULK DENSITY [CALCULATED FROM SPL DPHISSED <7504F> DPHILSED]
DPHILSED.V/V   : DENSITY POROSITY [M=2.71 F=1.0] FROM DENSITY LOG
DPHISSED.V/V   : DENSITY POROSITY [M=2.65 F=1.0] FROM DENSITY LOG
DPOWS   .V/V   : DENSITY POROSITY [M=2.71 F=1.0] [CALCULATED FROM DENWS]
DRESWS  .OHMM  : DEEP RESISTIVITY [ILDED]
DRHOED  .G/C3  : DENSITY CORRECTION FROM DENSITY LOG
GRRED   .GAPI  : GAMMA RAY FROM RESISTIVITY LOG
GRWS    .GAPI  : GAMMA RAY [GRRED, CSG ABOVE 3971F]
ILDED   .OHMM  : INDUCTION LOG DEEP RESISTIVITY
ILMED   .OHMM  : INDUCTION LOG MEDIUM RESISTIVITY
MRESWS  .OHMM  : MEDIUM RESISTIVITY [ILMED]
NPHILSED.V/V   : NEUTRON POROSITY LIMESTONE FROM DENSITY LOG
NPHISSED.V/V   : NEUTRON POROSITY SANDSTONE FROM DENSITY LOG
NPOWS   .V/V   : NEUTRON POROSITY LIMESTONE [CONVERTED NPHISSED TO LIMESTONE SPL WITH NPHILSED @7504F, CSG ABOVE 3971F]
SFLUED  .OHMM  : SPHERICALLY FOCUSED LOG RESISTIVITY
SPRED   .MV    : SPONTANEOUS POTENTIAL FROM RESISTIVITY LOG
SPWS    .MV    : SPONTANEOUS POTENTIAL [BASELINE 0 MV] [SPRED]
SRESWS  .OHMM  : SHALLOW RESISTIVITY [SFLUED]
~Params ----------------------------------------------------
PD  .                     GL : PERMANENT DATUM
EPD .FT                  332 : ELEVATION PERMANENT DATUM
LMF .                     KB : LOG MEASURED FROM
DAPD.FT                   14 : FEET ABOVE PERMANENT DATUM
DMF .                     KB : DRILLING MEASURED FROM
EKB .FT                  346 : KELLY BUSHING
EDF .FT                  345 : DRILLING FLOOR
EGL .FT                  332 : GROUND LEVEL
DATE.               11/05/80 : RUN DATE
RUN .                      1 : RUN NUMBER
DD  .FT                 9351 : DEPTH DRILLER
DL  .FT                 9370 : DEPTH LOGGER
BLI .FT                 9364 : BOTTOM LOG INTERVAL
TLI .FT                 3971 : TOP LOG INTERVAL
CS  .IN                9.625 : CASING SIZE
CBD .FT                 3981 : CASING BOTTOM DRILLER
CBL .FT                 3971 : CASING BOTTOM LOGGER
BS  .IN                 8.75 : BIT SIZE
BSD .FT                 9351 : BIT SIZE AT DEPTH
DFT .                  BENEX : DRILLING FLUID TYPE
DFD .                    9.3 : DRILLING FLUID DENSITY
DFV .                     60 : DRILLING FLUID VISCOSITY
DFPH.                    8.5 : DRILLING FLUID PH
DFL .                    8.8 : DRILLING FLUID LOSS
MSS .               CIRC PIT : MUD SAMPLE SOURCE
RMS .OHMM               1.01 : RESISTIVITY MUD SAMPLE
MST .DEGF                116 : MUD SAMPLE TEMPERATURE
RMF .OHMM               1.72 : RESISTIVITY MUD FILTRATE SAMPLE
MFST.DEGF                 65 : MUD FILTRATE SAMPLE TEMPERATURE
RMC .OHMM                1.5 : RESISTIVITY MUD CAKE
MCST.DEGF                116 : MUD CAKE SAMPLE TEMPERATURE
MFSS.                      M : MUD FILTRATE SAMPLE SOURCE
MCSS.                      C : MUD CAKE SAMPLE SOURCE
RMB .OHMM               0.55 : RESISTIVITY MUD AT BHT
TCS .HRS                 100 : TIME CIRCULATED STOPPED
TLAB.HRS                 700 : TIME LOGGER AT BOTTOM
LUN .                   8176 : LOGGING UNIT NUMBER
LUL .                BRENHAM : LOGGING UNIT LOCATION
ENGI.           WRIGHT BRUCK : RECORDING ENGINEER
WITN.                 SCHELL : WITNESSED BY
CLNT.                A2DTECH : CLIENT CODE
ORIG.            2" 5" PRINT : ORIGIN OF DATA
UWI .         42051309430000 : UNIQUE WELL ID
DICO. A2D Technologies, Inc. : DIGITIZING COMPANY
~Other -----------------------------------------------------
~ASCII -----------------------------------------------------
# ...
 5600.00000    9.34720  498.97710    0.59720    -999.25    2.48650    -999.25    0.09910    0.13070    2.00410    -999.25   99.84230   99.84230    2.00410    2.06410    2.06410    -999.25    0.29500    0.25100    2.31260  -15.84750   -2.71970    2.31260
 5650.00000    9.77570  582.51300    1.02570    -999.25    2.44890    -999.25    0.12190    0.15270    1.71670    -999.25   99.86690   99.86690    1.71670    1.76610    1.76610    -999.25    0.32120    0.27730    1.96690  -15.85830   -2.21340    1.96690
 5700.00000    9.88960  652.69890    1.13960    -999.25    2.40370    -999.25    0.14930    0.17910    1.53210    -999.25  106.92660  106.92660    1.53210    1.57600    1.57600    -999.25    0.36620    0.32280    1.75790  -16.27420   -2.11210    1.75790
 5750.00000    9.81840  659.63060    1.06840    -999.25    2.40020    -999.25    0.15140    0.18120    1.51600    -999.25  110.39190  110.39190    1.51600    1.55940    1.55940    -999.25    0.35810    0.31460    1.81900  -16.68920   -2.00990    1.81900
 5800.00000   10.01270  645.99480    1.26270    -999.25    2.41270    -999.25    0.14380    0.17380    1.54800    -999.25  101.24120  101.24120    1.54800    1.59240    1.59240    -999.25    0.36790    0.32450    1.80360  -18.74640   -3.55000    1.80360
 5850.00000   10.06630  692.80870    1.31630    -999.25    2.46270    -999.25    0.11350    0.14460    1.44340    -999.25  106.97750  106.97750    1.44340    1.48480    1.48480    -999.25    0.36210    0.31860    1.66690  -17.93990   -2.22630    1.66690
 5900.00000    9.72710  727.74910    0.97710    -999.25    2.40680    -999.25    0.14740    0.17730    1.37410    -999.25  103.54700  103.54700    1.37410    1.41500    1.41500    -999.25    0.38290    0.33970    1.62280  -20.01730   -3.78650    1.62280
 5950.00000   10.08940  615.46040    1.33940    -999.25    2.52820    -999.25    0.07380    0.10630    1.62480    -999.25  103.15940  103.15940    1.62480    1.67130    1.67130    -999.25    0.33820    0.29440    1.91310  -20.04220   -3.29430    1.91310
 6000.00000   10.36680  712.09860    1.61680    0.10210    2.45860    -999.25    0.11600    0.14700    1.40430    0.10210  108.35870  108.35870    1.40430    1.44460    1.44460    -999.25    0.33290    0.28910    1.54940  -21.37830   -4.11320    1.54940
 6050.00000   10.59190 1146.39450    1.84190    -999.25    2.31470    -999.25    0.20320    0.23120    0.87230    -999.25  106.52760  106.52760    0.87230    0.89930    0.89930    -999.25    0.36100    0.31750    1.00870  -20.49890   -2.71660    1.00870
 6100.00000   12.28410  599.95200    3.53410    -999.25    2.19010    -999.25    0.27870    0.30400    1.66680    -999.25   84.58880   84.58880    1.66680    1.74590    1.74590    -999.25    0.33110    0.28730    1.87790  -28.19620   -9.89680    1.87790
 6150.00000   10.22250  616.14290    1.47250    -999.25    2.43340    -999.25    0.13130    0.16180    1.62300    -999.25   90.53750   90.53750    1.62300    1.66990    1.66990    -999.25    0.32110    0.27720    1.77540  -21.83130   -3.01470    1.77540
 6200.00000   10.60150  661.11330    1.85150    -999.25    2.45150    -999.25    0.12030    0.15120    1.51260    -999.25   97.87350   97.87350    1.51260    1.55600    1.55600    -999.25    0.32050    0.27660    1.72850  -20.47670   -1.14290    1.72850
 6250.00000   11.38980  790.51390    2.63980    0.09190    2.36900    -999.25    0.17030    0.19940    1.26500    0.09190   93.59780   93.59780    1.26500    1.31320    1.31320    -999.25    0.37780    0.33450    1.49300  -21.57190   -2.02180    1.49300
 6300.00000   11.71030  835.91070    2.96030    -999.25    2.37680    -999.25    0.16560    0.19490    1.19630    -999.25   90.61450   90.61450    1.19630    1.24220    1.24220    -999.25    0.38220    0.33900    1.41060  -20.30690   -0.68200    1.41060
 6350.00000   11.49970  804.63470    2.74970    -999.25    2.40070    -999.25    0.15110    0.18090    1.24280    -999.25   86.43660   86.43660    1.24280    1.29020    1.29020    -999.25    0.37500    0.33170    1.42180  -21.08060   -1.38100    1.42180
 6400.00000   10.33640  612.25740    1.58640    -999.25    2.54750    -999.25    0.06210    0.09500    1.63330    -999.25   84.15060   84.15060    1.63330    1.70070    1.70070    -999.25    0.29190    0.24790    1.90980  -27.05350   -7.27910    1.90980
 6450.00000   10.22910  915.08050    1.47910    -999.25    2.43090    -999.25    0.13280    0.16320    1.09280    -999.25   96.25900   96.25900    1.09280    1.13440    1.13440    -999.25    0.37620    0.33290    1.29950  -22.50950   -2.66040    1.29950
 6500.00000    9.35840  846.81180    0.60840    -999.25    2.40930    -999.25    0.14590    0.17590    1.18090    -999.25   94.75420   94.75420    1.18090    1.22660    1.22660    -999.25    0.38680    0.34370    1.43040  -21.55630   -1.63240    1.43040
 6550.00000    9.90100  956.93790    1.15100    -999.25    2.42580    -999.25    0.13590    0.16620    1.04500    -999.25   95.71210   95.71210    1.04500    1.08500    1.08500    -999.25    0.36290    0.31940    1.18670  -24.56900   -4.57030    1.18670
 6600.00000   10.59920  577.46720    1.84920    0.09430    2.54670    -999.25    0.06260    0.09550    1.73170    0.09430   89.11670   89.11670    1.73170    1.79770    1.79770    -999.25    0.30530    0.26130    1.91610  -26.06220   -5.98880    1.91610
 6650.00000   10.13840  740.02810    1.38840    0.09740    2.47340    -999.25    0.10700    0.13830    1.35130    0.09740  106.65620  106.65620    1.35130    1.38730    1.38730    -999.25    0.30480    0.26080    1.44560  -22.29010   -2.14190    1.44560
 6700.00000   10.91150  351.51860    2.16150    0.07040    2.35860    -999.25    0.17660    0.20550    2.84480    0.07040   61.92220   61.92220    2.84480    2.95810    2.95810    -999.25    0.16420    0.12130    3.06770  -36.14350  -15.92060    3.06770
 6750.00000   10.82440  619.31010    2.07440    0.09510    2.50500    -999.25    0.08790    0.11990    1.61470    0.09510   99.07750   99.07750    1.61470    1.72280    1.72280    -999.25    0.25160    0.20770    2.17020  -22.31370   -2.01600    2.17020
 6800.00000   10.51080  420.13280    1.76080    0.04450    2.53090    -999.25    0.07220    0.10480    2.38020    0.04450   89.10890   89.10890    2.38020    2.48780    2.48780    -999.25    0.21490    0.17130    2.56170  -25.88630   -5.51380    2.56170
 6850.00000   11.41340  678.01210    2.66340    0.09120    2.41770    -999.25    0.14080    0.17090    1.47490    0.09120  119.73390  119.73390    1.47490    1.50090    1.50090    -999.25    0.36120    0.31770    1.55250  -24.04160   -3.59440    1.55250
 6900.00000   10.34140  609.97920    1.59140    -999.25    2.43240    -999.25    0.13190    0.16240    1.63940    -999.25  146.99450  146.99450    1.63940    1.71810    1.71810    -999.25    0.32970    0.28590    1.89890  -22.41900   -1.89700    1.89890
 6950.00000   10.82100  710.02550    2.07100    -999.25    2.36820    -999.25    0.17080    0.19990    1.40840    -999.25  108.29080  108.29080    1.40840    1.47590    1.47590    -999.25    0.32530    0.28140    1.57910  -22.10410   -1.50740    1.57910
 7000.00000   11.25950  678.47210    2.50950    -999.25    2.44520    -999.25    0.12410    0.15480    1.47390    -999.25  119.92090  119.92090    1.47390    1.53250    1.53250    -999.25    0.30880    0.26490    1.67720  -21.46240   -0.79090    1.67720
 7050.00000   12.04090  735.51050    3.29090    -999.25    2.43810    -999.25    0.12840    0.15900    1.35960    -999.25  103.59090  103.59090    1.35960    1.40420    1.40420    -999.25    0.30920    0.26530    1.52970  -21.72990   -1.12380    1.52970
 7100.00000   12.90200  686.20060    4.15200    -999.25    2.45810    -999.25    0.11630    0.14730    1.45730    -999.25  121.11130  121.11130    1.45730    1.54180    1.54180    -999.25    0.31110    0.26720    1.65790  -23.01040   -2.48190    1.65790
 7150.00000   12.38030  786.90590    3.63030    -999.25    2.44370    -999.25    0.12500    0.15570    1.27080    -999.25  116.69000  116.69000    1.27080    1.29040    1.29040    -999.25    0.31660    0.27270    1.39840  -22.88300   -2.43210    1.39840
