~Version ---------------------------------------------------
VERS. 2.0 : CWLS log ASCII Standard -VERSION 2.0
WRAP.  NO : ONE LINE PER DEPTH STEP
~Well ------------------------------------------------------
STRT.F                   11400.0 : START DEPTH
STOP.F                   13150.0 : STOP DEPTH
STEP.F                  50.00000 : STEP LENGTH
NULL.                    -999.25 : NULL VALUE
COMP. GEMINI EXPLORATION COMPANY : COMPANY
WELL.                BAUMBACH #1 : WELL
FLD .                ROCKY CREEK : FIELD
LOC .                            : LOCATION
CNTY.                    FAYETTE : COUNTY
STAT.                      TEXAS : STATE
CTRY.   UNITED STATES OF AMERICA : COUNTRY
SRVC.                            : SERVICE COMPANY
DATE.                            : LOGDATE
API .             42149323530000 : API NUMBER
UWI .             42149323530000 : UNIQUE WELL ID
SLAT.WGS84         29.9375146398 : SURFACE LATITUDE
SLON.WGS84        -96.7750755673 : SURFACE LONGITUDE
~Curve Information -----------------------------------------
DEPT.F                 : 
SP  .MV   07 010 01 00 : SPONTANEOUS POTENTIAL
ILM .OHMM 07 120 44 00 : 
ILD .OHMM 07 120 46 00 : DEEP INDUCTION RESISTIVITY
SFL .OHMM 07 220 01 00 : 
DCAL.IN   07 280 30 00 : DIFFERENTIAL CALIPER
GR  .GAPI 07 310 01 00 : GAMMA RAY
DRHO.G/C3 45 356 01 00 : BULK DENSITY CORRECTION
PEF .B/E  45 358 01 00 : PHOTOELECTRIC
NPHI.DEC  42 890 00 00 : 
DPHI.DEC  45 890 00 00 : 
~Params ----------------------------------------------------
EKB .F                 439.5 : KELLY BUSHING
EGL .F                   418 : ELEVATION GROUND LEVEL
EDF .F                 438.5 : ELEVATION DERRICK FLOOR
EPD .F                   418 : ELEVATION PERMANENT DATUM
TD  .F               13200.0 : TOTAL DEPTH
DATE.           30- SEP-1989 : DATE LOGGED
CLNT.                A2DTECH : CLIENT CODE
SL  .    2000' FWL & 467'FSL : SURFACE LOCATION
PD  .                     GL : PERMANENT DATUM
LMF .                     KB : LOG MEASURED FROM
DMF .                     KB : DRILLING MEASURED FROM
DAPD.F                  21.5 : FEET ABOVE PERMANENT DATUM
DD  .F                 13200 : DEPTH DRILLER
DL  .F                 13194 : DEPTH LOGGER
BLI .F                 13188 : BOTTOM LOG INTERVAL
TLI .F                 11422 : TOP LOG INTERVAL
CS1 .IN                    7 : CASING SIZE
CBD1.            7" @ 11431' : CASING DRILLER 1
CBL1.F                 11422 : CASING LOGGER 1
BS1 .IN                    6 : BIT SIZE
BSD1.F                 13200 : DEPTH DRILLED WITH BIT1
DFT .                  LIGNO : TYPE FLUID IN HOLE
DFD .                    9.8 : DENSITY
DFV .                     39 : VISCOSITY
DFPH.                    8.5 : PH
DFL .                     12 : FLUID LOSS
MSS .              CIRC TANK : SOURCE OF SAMPLE
RMS .OHMM                3.2 : RM
RMF .OHMM               2940 : RMF
RMC .OHMM                4.8 : RMC
MFSS.                   MEAS : SOURCE RMF.
MCSS.                   CALC : SOURCE RMC.
RMB .OHMM              0.899 : RM. AT BHT
BHT .F                   285 : BHT.
TCS .HRS                 900 : TIME CIRC. STOPPED
TLAB.                   1520 : TIME LOGGER AT BOTTOM
LUN .                   8235 : LOGGING UNIT NUMBER
LUL .                BRENHAM : LOGGING UNIT LOCATION
ENGI.               W. DAVID : RECORDED BY
WITN.             KEN NELSON : WITNESSED BY
ORIG.               5" PRINT : ORIGIN OF DATA
UWI .         42149323530000 : UNIQUE WELL ID
DICO. A2D TECHNOLOGIES, INC. : DIGITIZING COMPANY
~Other -----------------------------------------------------
~ASCII -----------------------------------------------------
 11400.00000    -999.25    -999.25    -999.25    -999.25    -999.25   75.36720    -999.25    -999.25    -999.25    -999.25
 11450.00000   -7.77420    1.71940    1.71780    2.14890    2.43730  106.55510    -999.25    3.76780    0.25050    0.11120
 11500.00000  -22.81600   12.18610   16.98370   16.25170    0.15200   29.72560    0.02140    4.72190    0.03530    0.02560
 11550.00000  -28.82030   20.93280   30.10970   24.95480    0.18280   25.20990    0.00150    4.44650    0.04660    0.03170
 11600.00000  -15.46850   16.78930   18.97960   40.52250    0.18280   24.46630    0.06870    4.53720    0.03440    0.01880
 11650.00000  -12.07300    6.73380    8.03350   10.99840    0.00000   48.70330    0.00920    4.26550    0.06930    0.03820
 11700.00000  -14.53150   12.48650   12.53510   22.30280    0.00000   26.98890    0.03820    4.55190    0.04430    0.02060
 11750.00000   -7.41430    7.29230    7.86330    9.87170   -0.00020   37.98790    0.09470    4.46160    0.06830    0.00890
 11800.00000  -14.93350   10.89920   11.85250   13.83910    0.00020   29.49770    0.00760    4.62740    0.05640    0.04250
 11850.00000   -9.72190   11.08160   11.47020   15.05210    0.00000   46.39210    0.00150    4.65750    0.04750    0.02920
 11900.00000  -15.14590   13.27670   17.54930   11.20250    0.12300   46.06230    0.02140    4.59730    0.05510    0.06030
 11950.00000  -26.50800   27.25930   21.15540   76.13890    0.06090   34.87320    0.09770    5.42680    0.04330    0.03820
 12000.00000  -36.26890   20.71590   16.43350   68.18100    0.11960   32.50070    0.05460    4.65760    0.05500    0.06080
 12050.00000  -27.06560   13.87560   12.11180   31.58660    0.00000   50.07580    0.01370    4.64820    0.06490    0.07900
 12100.00000  -30.34460   24.52190   21.97840   58.84710    0.03050   32.01220    0.00610    4.68770    0.04600    0.06120
 12150.00000   -8.38310    3.39890    4.90070    4.68230    1.58420  122.19610    -999.25    4.17490    0.21690    0.22170
 12200.00000   -5.31540    2.58230    2.57930    5.25900    1.85840  112.95830    -999.25    4.63840    0.26800    0.24240
 12250.00000  -20.05950  179.00190  108.06950  310.97020    0.36890   13.26220    0.09920    5.00460    0.01120   -0.00180
 12300.00000  -18.21810  260.76570  138.48700  560.55910    0.53940   11.73750    0.00560    4.98940    0.00650    0.01470
 12350.00000  -20.02750   93.92860   70.94410  420.42110    0.54860   16.43000    0.09620    5.08520    0.01000   -0.02000
 12400.00000   -2.28660   33.33590   30.11910   39.67620    0.36560   48.93420    0.04160    4.35320    0.02860   -0.01010
 12450.00000  -16.37580   11.22210    9.19250   14.73350    0.39600   48.70500    0.00920    3.95430    0.09160    0.02130
 12500.00000   -3.16390   10.35890    9.81410   14.73350    0.45700   53.50610    0.05220    4.38440    0.06390   -0.00020
 12550.00000  -69.45540 1665.39950  185.54230  859.39010    0.91000   26.50880    0.01530    4.93960    0.00600    0.01610
 12600.00000 -136.00200   51.42330   47.64080  109.97550    0.42620   11.14780    0.00760    4.96970    0.01500    0.07040
 12650.00000 -108.84650  177.12280  139.11550  258.14360    0.30870   11.89020    0.07860    5.10230    0.00830   -0.01140
 12700.00000   -8.40750  266.28430  255.84950  323.93720    0.33020   16.92070    0.09930    5.13260    0.00560   -0.02910
 12750.00000  -16.18210   63.53020   65.66850  102.42650    0.13630   29.39420    0.03360    4.76430    0.01740   -0.00190
 12800.00000    4.23120   52.52100   37.52090  155.90610    0.09910   29.49620    0.07460    4.41120    0.01150   -0.01690
 12850.00000    6.37570   19.65070   16.82850   52.86350    0.00000   36.81380    0.09620    4.28770    0.03780   -0.01450
 12900.00000  -47.11690   64.17330   51.19830   76.63610   -0.00320   38.64330    0.03820    5.57970    0.00810   -0.00740
 12950.00000  -16.89090   56.55170   68.02010   86.49160    0.03060   29.09760    0.03170    4.65150    0.01790   -0.00360
 13000.00000  -21.90480   96.95820   82.20230  173.46260    0.00000   26.52250    0.05800    4.80160    0.00790   -0.01440
 13050.00000  -27.25120  202.47540  345.69140  330.78500    0.00100   34.98480    0.01980    4.96740    0.01240    0.00020
 13100.00000   -0.89800  194.79740  118.31890  396.64210    0.00000   53.58820    0.05950    4.75920    0.00990   -0.02200
 13150.00000  -40.17980   90.04760  100.22400   92.72250   -0.09150   66.31100    0.02800    5.23000    0.01450   -0.01310
