~Version ---------------------------------------------------
VERS. 2.0 : CWLS log ASCII Standard -VERSION 2.0
WRAP.  NO : ONE LINE PER DEPTH STEP
~Well ------------------------------------------------------
STRT.F                  2550.0 : START DEPTH
STOP.F                 10800.0 : STOP DEPTH
STEP.F                50.00000 : STEP LENGTH
NULL.                  -999.25 : NULL VALUE
COMP.            PRIMARY FUELS : COMPANY
WELL. SOUTH TEXAS SYNDICATE #1 : WELL
FLD .                  WILDCAT : FIELD
LOC .                          : LOCATION
CNTY.                 LA SALLE : COUNTY
STAT.                    TEXAS : STATE
CTRY. UNITED STATES OF AMERICA : COUNTRY
SRVC.                  Unknown : SERVICE COMPANY
DATE.              07-Nov-1982 : LOGDATE
API .           42283309180000 : API NUMBER
UWI .           42283309180000 : UNIQUE WELL ID
SLAT.WGS84       28.3767041542 : SURFACE LATITUDE
SLON.WGS84       -98.818900961 : SURFACE LONGITUDE
~Curve Information -----------------------------------------
DEPT.F                 : 
GRR .GAPI 07 310 01 00 : GAMMA RAY
ILM .OHMM 07 120 44 00 : INDUCTION LOG MEDIUM RESISTIVITY
ILD .OHMM 07 120 46 00 : DEEP INDUCTION RESISTIVITY
SFL .OHMM 07 220 01 00 : SHALLOW FOCUSED LOG RESISTIVITY
DRHO.G/C3 45 356 01 00 : DENSITY CORRECTION
SPR .MV   07 010 01 00 : SPONTANEOUS POTENTIAL
CALR.IN   07 280 01 00 : CALIPER FROM RESISTIVITY
DPHI.DEC  45 890 00 00 : DENSITY POROSITY
NPHI.DEC  42 890 00 00 : NEUTRON POROSITY
~Params ----------------------------------------------------
EKB .F                   0.0 : KELLY BUSHING
EGL .F                   406 : ELEVATION GROUND LEVEL
EDF .F                   0.0 : DRILLING FLOOR
EPD .F                   406 : ELEVATION PERMANENT DATUM
TD  .F               10810.0 : TOTAL DEPTH
DATE.            06-NOV-1982 : DATE LOGGED
CLNT.                A2DTECH : CLIENT CODE
SL  .   800' FNL & 1115' FEL : SURFACE LOCATION
PD  .                     GL : PERMANENT DATUM
LMF .                     KB : LOG MEASURED FROM
DMF .                     KB : DRILLING MEASURED FROM
DAPD.F                    16 : FEET ABOVE PERMANENT DATUM
DD  .F                 10800 : DEPTH DRILLER
DL  .F                 10810 : DEPTH LOGGER
BLI .F                 10804 : BOTTOM LOG INTERVAL
TLI .F                  2526 : TOP LOG INTERVAL
CS1 .IN                9.625 : CASING SIZE
CBD1.         9.625" @ 2512' : CASING DRILLER 1
CBL1.F                  2526 : CASING LOGGER 1
BS1 .IN                 8.75 : BIT SIZE
BSD1.F                 10800 : DEPTH DRILLED WITH BIT1
DFT .         LIGNOSULFONATE : TYPE FLUID IN HOLE
DFD .                   10.5 : DENSITY
DFV .                     40 : VISCOSITY
DFPH.                     11 : PH
DFL .                    4.4 : FLUID LOSS
MSS .              CIRC TANK : SOURCE OF SAMPLE
MFST.F                    75 : RMF MEAS. TEMP.
MFSS.                   MEAS : SOURCE RMF.
MCSS.                   CALC : SOURCE RMC.
RMB .OHMM               0.45 : RM. AT BHT
BHT .F                   225 : BHT.
TCS .HRS                 700 : TIME CIRC. STOPPED
TLAB.HRS                1830 : TIME LOGGER AT BOTTOM
LUN .                   8180 : LOGGING UNIT NUMBER
LUL .                 LAREDO : LOGGING UNIT LOCATION
ENGI.               D. MARTZ : RECORDED BY
WITN. MEYER GUAJARDO/LAMMERS : WITNESSED BY
ORIG.               5" PRINT : ORIGIN OF DATA
UWI .         42283309180000 : UNIQUE WELL ID
DICO. A2D TECHNOLOGIES, INC. : DIGITIZING COMPANY
~Other -----------------------------------------------------
~ASCII -----------------------------------------------------
# ...
 6200.00000   86.81820    2.16000    2.22140    2.18770    0.05840   -8.47600   13.01800   -0.02700    0.17700
 6250.00000   92.72710    2.22140    2.22140    2.04970    0.02310   -7.80400   14.36600   -0.05600    0.12900
 6300.00000  100.90930    1.40950    1.37060    1.37460    0.03680   -6.51500   15.45400    0.01600    0.20600
 6350.00000   95.68220    1.72660    1.73880    1.74890    0.06270   -7.92100   17.07900   -0.01700    0.16000
 6400.00000   95.00000    1.81330    1.89110    1.74910    0.03230   -7.93100   17.06800   -0.02500    0.14500
 6450.00000   86.10090    2.25250    2.34930    2.33080    0.05360   -8.51700   15.96700   -0.04900    0.06400
 6500.00000   96.81820    1.59870    1.58750    1.49010    0.02770   -6.99000   15.44500   -0.02300    0.14700
 6550.00000   91.36360    2.46720    2.41620    2.30940    0.00950  -15.95300   13.68700    0.00300    0.09700
 6600.00000   85.90870    2.22150    2.19050    2.30910    0.01820  -10.07900   13.52000   -0.02500    0.07700
 6650.00000   75.45310    2.70220    2.74040    2.49020    0.03230  -12.48900   13.36700   -0.03300    0.04800
 6700.00000   81.65790    2.26850    2.25270    2.01840    0.04300  -14.54600   13.71600   -0.03200    0.08100
 6750.00000   78.86330    1.98610    1.97220    1.81340    0.03380  -13.22200   13.66300   -0.01900    0.10000
 6800.00000  100.90940    1.26900    1.25570    1.21050    0.04220   -7.89600   14.74800    0.02800    0.20800
 6850.00000   96.36290    1.34200    1.34210    1.44370    0.06880   -8.33600   15.49400    0.00500    0.15800
 6900.00000   66.67730    3.52550    3.75470    4.95010    0.05060  -15.33000   15.46800   -0.05600   -0.01600
 6950.00000   83.63690    1.64410    1.63260    1.61990    0.09810  -13.48900   17.64340   -0.03400    0.10700
 7000.00000   61.36330    3.57520    3.67680    3.79810    0.03820  -14.55900   15.94390   -0.04700   -0.00400
 7050.00000   68.51720    2.19450    2.20590    1.93330    0.04140  -13.59500   16.51800   -0.00900    0.09900
 7100.00000   81.87850    1.55150    1.56550    1.53110    0.05550  -11.62400   16.91100   -0.00700    0.16200
 7150.00000   74.99930    2.67930    2.10040    2.04940    0.09930  -11.52800   16.63700   -0.06000    0.10200
 7200.00000   81.05360    1.68760    1.69070    1.66100    0.09650  -11.34900   16.53600   -0.02700    0.12400
 7250.00000   80.22640    1.77240    1.72660    1.64230    0.04750  -11.92300   15.96900   -0.01500    0.15200
 7300.00000   67.27170    2.73900    2.81820    2.79010    0.01410  -11.74900   14.52300   -0.05300    0.04800
 7350.00000   77.95450    2.41210    2.45010    2.46060    0.09310  -12.96700   13.89200   -0.03400    0.10300
 7400.00000   73.06680    2.28070    2.28450    2.13500    0.09470  -13.36400   14.92600   -0.04200    0.12400
 7450.00000   78.63600    1.95490    1.97210    1.98450    0.06730  -11.47300   16.18900   -0.04900    0.13100
 7500.00000   70.22650    1.98260    1.94480    1.97910    0.10000  -13.58000   16.61900   -0.03000    0.14700
 7550.00000   74.09110    1.96870    1.96580    2.06410    0.10000  -13.70400   16.32300   -0.06000    0.11500
 7600.00000   83.40960    1.79730    1.81340    1.81940    0.09970  -14.41000   16.23100   -0.02400    0.16800
 7650.00000   73.19690    2.42910    2.41600    2.55010    0.10000  -14.55600   16.45300   -0.05900    0.08400
 7700.00000   78.64190    2.15640    2.14250    2.12280    0.09550  -13.11900   17.91100   -0.02100    0.12500
 7750.00000   73.63640    2.40080    2.46720    2.44230    0.09470  -14.17000   17.76600   -0.04800    0.09300
 7800.00000   75.82370    2.77480    2.70230    2.93250    0.02700  -12.75200   17.18100   -0.02900    0.09600
 7850.00000   76.36570    1.97740    1.98610    1.95160    -999.25  -13.33300   17.47600    0.01000    0.14900
 7900.00000   74.97180    1.90090    2.01410    2.18880    0.10000  -12.98300   15.92000   -0.04000    0.15200
 7950.00000   73.40390    2.14130    2.11520    2.19590    0.09530  -13.25600   15.11800   -0.03900    0.13700
 8000.00000   70.90220    2.72190    2.60940    2.65280    0.07340  -13.17300   13.60700   -0.05800    0.12000
 8050.00000   65.19760    2.85370    2.77900    2.97870    0.09820  -12.11200   13.64200   -0.06100    0.10100
 8100.00000   72.26520    3.61620    3.50100    3.74520    0.00310  -14.03300   13.20800   -0.08900    0.05500
 8150.00000   68.16110    4.04540    4.14130    4.33020    0.00180  -13.89900   12.90900   -0.08000    0.03400
 8200.00000   62.13280    3.88360    3.80770    4.62170    0.00070  -12.24000   12.73100   -0.09100    0.05300
 8250.00000   69.30090    3.10390    3.02250    2.90980    0.01860  -12.39100   13.74000   -0.08500    0.06900
 8300.00000   79.78780    2.83380    2.59640    2.82240    0.02080  -14.74000   18.75500   -0.04600    0.03200
 8350.00000   95.48480    1.83560    1.87790    1.80690    0.08140  -13.04900   21.78700   -0.02100    0.09100
 8400.00000   83.33170    1.90100    1.93120    1.76900    0.08920  -14.40400   21.80800   -0.06900    0.08600
 8450.00000   90.47800    1.64100    1.60990    1.66320    0.06270  -13.35100   21.78600   -0.02500    0.11300
 8500.00000   80.68900    2.05320    2.08580    2.12090    0.07540  -12.32500   20.16100   -0.04300    0.10900
 8550.00000   73.17560    2.87360    2.59120    2.88160    0.10000  -13.16500   18.85600   -0.08600    0.05900
 8600.00000   86.93280    2.20220    2.20590    2.12260    0.09470  -14.16100   21.72900    0.02800    0.13400
 8650.00000   82.97800    3.16960    2.75960    2.70470    0.06930  -14.98500   18.87400   -0.01300    0.09600
 8700.00000   82.80200    2.20220    2.13000    1.99590    0.09920  -13.44400   20.38900    0.03200    0.13800
 8750.00000   92.47350    1.96870    1.94480    1.89990    0.10000  -14.01400   21.10600    0.00400    0.14500
 8800.00000  104.36090    2.01050    2.05890    2.01490    0.09770  -15.79600   19.21500   -0.02100    0.10900
 8850.00000   90.95500    2.37860    2.34930    2.25920    0.10000  -15.06700   18.08500   -0.00500    0.11500
 8900.00000   87.57620    2.17150    2.10040    2.13770    0.09910  -15.36800   19.44200    0.03100    0.13300
 8950.00000   82.52210    2.14130    2.14500    2.15270    0.10000  -17.17500   18.64200    0.01500    0.12200
 9000.00000   91.23460    2.18680    2.19050    2.15270    0.10000  -17.56300   19.44200    0.01300    0.14000
 9050.00000   87.80490    2.28080    2.28440    2.16660    0.10000  -17.60500   18.31200    0.03200    0.15300
 9100.00000   81.81790    2.73620    2.68350    2.49560    0.10000  -17.97200   17.30500   -0.00300    0.10500
 9150.00000   80.25910    2.91420    3.00140    2.83630    0.09920  -18.19500   16.26600   -0.02400    0.09900
 9200.00000   82.00100    2.54000    2.51960    2.49420    0.09620  -20.79600   15.47300   -0.05900    0.12100
 9250.00000   86.43350    2.64210    2.62770    2.52170    0.10000  -20.68800   15.70000   -0.01800    0.12900
 9300.00000   88.80740    3.37600    3.35700    3.03500    0.09500  -22.05700   14.54200   -0.04900    0.07500
 9350.00000   91.18900    2.91420    2.95970    2.19840    0.08650  -23.26100   14.61700    0.00300    0.14500
 9400.00000   86.63150    2.65650    2.74040    2.56890    0.10000  -22.98400   16.24000   -0.03300    0.10800
 9450.00000   79.88990    2.89480    3.00140    2.65650    0.10000  -24.28300   15.87200   -0.04600    0.08800
 9500.00000   82.77390    3.30590    3.26840    3.24030    0.07720  -26.66700   15.02400   -0.04500    0.08500
 9550.00000   95.25330    2.55120    2.51970    2.58310    0.10000  -28.08300   14.33800    0.01100    0.11000
 9600.00000   80.94420    2.67930    2.53720    2.51170    0.09780  -29.07000   14.73800   -0.09100    0.08300
 9650.00000   86.66140    3.01800    3.19650    3.01380    0.06980  -29.20100   14.48200   -0.03800    0.07500
 9700.00000   77.84200    3.54570    3.31040    3.72410    0.03380  -27.80600   13.79600   -0.10800    0.06100
 9750.00000   55.56620    7.39780    6.21490    9.11890    0.00180  -36.46600   12.43400    0.06600    0.05400
 9800.00000   42.75880   12.53570   11.83220   16.02440   -0.00090  -42.86400   11.70000    0.07200    0.02900
