~Version ---------------------------------------------------
VERS.      2.0 : CWLS log ASCII Standard -VERSION 2.0
WRAP.      YES : Multiple lines per depth step
CREA. 08/18/12 : LAS Creation Date
~Well ------------------------------------------------------
STRT.FT                 2900.0 : START DEPTH
STOP.FT                17850.0 : STOP DEPTH
STEP.FT               50.00000 : STEP LENGTH
NULL.                  -999.25 : NULL VALUE
COMP. AMOCO PRODUCTION COMPANY : COMPANY
WELL.   JIMMY HILL GAS UNIT #1 : WELL
FLD .                  WILDCAT : FIELD
LOC .                          : LOCATION
CNTY.                     LEON : COUNTY
STAT.                    TEXAS : STATE
CTRY. UNITED STATES OF AMERICA : COUNTRY
SRVC.             Schlumberger : SERVICE COMPANY
DATE.              04-Jun-1996 : LOGDATE
API .           42289312310000 : API NUMBER
UWI .           42289312310000 : UNIQUE WELL ID
SLAT.WGS84       31.2538599246 : SURFACE LATITUDE
SLON.WGS84      -96.2196025838 : SURFACE LONGITUDE
~Curve Information -----------------------------------------
DEPT    .FT                                                                                                : DEPTH FEET
AO10ED  .OHMM                                                                                              : ARRAY INDUCTION ONE FOOT RESISTIVITY A10 FROM AIT-PI-DITE-LDT-CNT LOG
AO20ED  .OHMM                                                                                              : ARRAY INDUCTION ONE FOOT RESISTIVITY A20 FROM AIT-PI-DITE-LDT-CNT LOG
AO30ED  .OHMM                                                                                              : ARRAY INDUCTION ONE FOOT RESISTIVITY A30 FROM AIT-PI-DITE-LDT-CNT LOG
AO60ED  .OHMM                                                                                              : ARRAY INDUCTION ONE FOOT RESISTIVITY A60 FROM AIT-PI-DITE-LDT-CNT LOG
AO90ED  .OHMM                                                                                              : ARRAY INDUCTION ONE FOOT RESISTIVITY A90 FROM AIT-PI-DITE-LDT-CNT LOG
CALSED  .IN                                                                                                : CALIPER FROM BCS-CALIPER-GR LOG [ADJ. TO GRRED]
CALWS   .IN                                                                                                : CALIPER [DCALED+BITS]
CONDWS  .MMHO                                                                                              : CONDUCTIVITY [1000/DRESWS]
DCALED  .IN                                                                                                : DIFFERENTIAL CALIPER FROM AIT-PI-DITE-LDT-CNT LOG
DCORWS  .G/C3                                                                                              : DENSITY CORRECTION [DRHED SPL. TO DRHOED @ 10860']
DENWS   .G/C3 :   FORMATION BULK DENSITY [RHOMED, DENWS CALCULATED FROM DPOWS FROM 7004'-10889'] [M:2.71,F : 1.0]
DPHILSED.V/V                                                      :   DENSITY POROSITY LIMESTONE [M:2.71,F : 1.0] FROM AIT-PI-DITE-LDT-CNT LOG
DPOLSED .V/V                                                                                               : DENSITY POROSITY LIMESTONE FROM HOSTILE LDL-CN-GR LOG
DPOWS   .V/V                                                                                               : DENSITY POROSITY [DPHILSED SPL. TO DPOLSED @ 10852']
DRESWS  .OHMM                                                                                              : DEEP RESISTIVITY [AO30ED SPL. TO IDPHED]
DRHED   .G/C3                                                                                              : BULK DENSITY CORRECTION FROM HOSTILE LDL-CN-GR LOG
DRHOED  .G/C3                                                                                              : BULK DENSITY CORRECTION FROM AIT-PI-DITE-LDT-CNT LOG
DTED    .US/F                                                                                              : DELTA T FROM BCS-CALIPER-GR LOG [ADJ. TO GRRED/NPHILSED]
DTLFED  .US/F                                                                                              : DELTA-T LONG SPACING FAR FROM AIT-PI-DITE-LDT-CNT-PI-LSS-GR LOG
DTLNED  .US/F                                                                                              : DELTA-T LONG SPACING NEAR FROM AIT-PI-DITE-LDT-CNT-PI-LSS-GR LOG
DTWS    .US/F                                                                                              : COMPRESSIONAL SONIC [DTED SPL. TO DTLNED @ 10865.5'-15946.5']
GRRED   .GAPI                                                                                              : GAMMA RAY FROM AIT-PI-DITE-LDT-CNT LOG
GRSED   .GAPI                                                                                              : GAMMA RAY FROM BCS-CALIPER-GR-PI-LSS LOG [ADJ. TO GRRED]
GRWS    .GAPI                                                                                              : GAMMA RAY [GRRED]
IDPHED  .OHMM                                                                                              : DEEP INDUCTION PHASOR FROM AIT-PI-DITE-LDT-CNT- PI-LSS-GR LOG
LCALED  .IN                                                                                                : LOWER CALIPER FROM HOSTILE LDL-CN-GR LOG
MRESWS  .OHMM                                                                                              : MEDIUM RESISTIVITY [AO30ED]
NPHILSED.V/V                                                                                               : NEUTRON POROSITY LIMESTONE FROM AIT-PI-DITE-LDT-CNT LOG
NPOWS   .V/V                                                                                               : NEUTRON POROSITY [NPHILSED]
PEFED   .B/E                                                                                               : PHOTOELECTRIC FACTOR FROM AIT-PI-DITE-LDT-CNT LOG
PEFLED  .B/E                                                                                               : HLDT PEF LONG SPACING FROM HOSTILE LDL-CN-GR LOG
PEFSED  .B/E                                                                                               : SHORT SPACED CORRECTED PHOTOELECTRIC FACTOR FROM HOSTILE LDL-CN-GR LOG
PEFWS   .B/E                                                                                               : PHOTOELECTRIC FACTOR [PEFED SPL. TO PEFSED @ 10847.5']
RHOMED  .G/C3                                                                                              : CORRECTED BULK DENSITY FROM HOSTILE LDL-CN-GR LOG
SPRED   .MV                                                                                                : SPONTANEOUS POTENTIAL  FROM AIT-PI-DITE-LDT-CNT LOG
SPWS    .MV                                                                                                : SPONTANEOUS POTENTIAL [BASELINE 0, MV SPRED]
SRESWS  .OHMM                                                                                              : SHALLOW RESISTIVITY [AO10ED]
TENDED  .LBF                                                                                               : DIFFERENTIAL TENSION FROM HOSTILE LDL-CN-GR LOG
TENRED  .LBF                                                                                               : TENSION FROM AIT-PI-DITE-LDT-CNT LOG
TENSED  .LBF                                                                                               : TOTAL TENSION FROM BCS-CALIPER-GR LOG [ADJ. TO GRRED]
~Params ----------------------------------------------------
PD  .                     GL : PERMANENT DATUM
EPD .FT                 3759 : ELEVATION PERMANENT DATUM
LMF .                     KB : LOG MEASURED FROM
DAPD.FT                 37.2 : FEET ABOVE PERMANENT DATUM
DMF .                     KB : DRILLING MEASURED FROM
EKB .FT                 4131 : KELLY BUSHING
EDF .FT                 4121 : DRILLING FLOOR
EGL .FT                 3759 : GROUND LEVEL
DATE.               06/04/96 : RUN DATE
RUN .                      4 : RUN NUMBER
DD  .FT                17800 : DEPTH DRILLER
DL  .FT                17800 : DEPTH LOGGER
BLI .FT                17797 : BOTTOM LOG INTERVAL
TLI .FT                15944 : TOP LOG INTERVAL
CS  .IN                    7 : CASING SIZE
CBD .FT                15950 : CASING BOTTOM DRILLER
CBL .FT                15944 : CASING BOTTOM LOGGER
BS  .IN                5.875 : BIT SIZE
BSD .FT                17800 : BIT SIZE AT DEPTH
DFT .              OIL BASED : DRILLING FLUID TYPE
DFD .                     18 : DRILLING FLUID DENSITY
DFV .                     88 : DRILLING FLUID VISCOSITY
RMC .OHMM      OIL BASED MUD : RESISTIVITY MUD CAKE
MCST.DEGF      OIL BASED MUD : MUD CAKE SAMPLE TEMPERATURE
TCS .HRS                2100 : TIME CIRCULATED STOPPED
TLAB.HRS                1500 : TIME LOGGER AT BOTTOM
LUN .                   2019 : LOGGING UNIT NUMBER
LUL .                  TYLER : LOGGING UNIT LOCATION
ENGI.                 FERRIS : RECORDING ENGINEER
WITN.              MCGINNUSS : WITNESSED BY
CLNT.                A2DTECH : CLIENT CODE
ORIG.               5' PRINT : ORIGIN OF DATA
UWI .         42289312310000 : UNIQUE WELL ID
DICO. A2D Technologies, Inc. : DIGITIZING COMPANY
~Other -----------------------------------------------------
~ASCII -----------------------------------------------------
# ...
 3800.00000    0.83520    0.87560    0.93730    0.91380    0.96600   17.52350   16.64950 1035.19670    4.39950    -999.25    -999.25    -999.25    -999.25    -999.25    0.96600    -999.25    -999.25  130.01750    -999.25    -999.25  130.01750   74.11870   86.58980   74.11870    -999.25    -999.25    0.93730    -999.25    -999.25    -999.25    -999.25    -999.25    -999.25    -999.25  -41.84990   -2.54760    0.83520    -999.25 1883.56850 2009.16770
 3850.00000    1.22810    1.22760    1.25770    1.28780    1.29310   16.94670   17.03550  773.33540    4.78550    -999.25    -999.25    -999.25    -999.25    -999.25    1.29310    -999.25    -999.25  114.93830    -999.25    -999.25  114.93830   74.90980   78.47450   74.90980    -999.25    -999.25    1.25770    -999.25    -999.25    -999.25    -999.25    -999.25    -999.25    -999.25  -44.62230   -5.19690    1.22810    -999.25 1863.68730 1982.61520
 3900.00000    1.35440    1.41090    1.47850    1.48020    1.52100   17.37450   17.54690  657.46220    5.29690    -999.25    -999.25    -999.25    -999.25    -999.25    1.52100    -999.25    -999.25  115.66580    -999.25    -999.25  115.66580   72.53600   70.10760   72.53600    -999.25    -999.25    1.47850    -999.25    -999.25    -999.25    -999.25    -999.25    -999.25    -999.25  -41.31320   -1.76460    1.35440    -999.25 1865.12920 1996.92570
 3950.00000    1.16240    1.17240    1.19110    1.20530    1.22540   18.93870   18.05880  816.06010    5.80880    -999.25    -999.25    -999.25    -999.25    -999.25    1.22540    -999.25    -999.25  116.15970    -999.25    -999.25  116.15970   75.05980   71.08980   75.05980    -999.25    -999.25    1.19110    -999.25    -999.25    -999.25    -999.25    -999.25    -999.25    -999.25  -46.73050   -7.05870    1.16240    -999.25 1836.07810 2042.55230
 4000.00000    1.18080    1.17620    1.20920    1.23830    1.24310   18.45580   17.78960  804.44050    5.53960    -999.25    -999.25    -999.25    -999.25    -999.25    1.24310    -999.25    -999.25  114.50000    -999.25    -999.25  114.50000   67.76430   75.51290   67.76430    -999.25    -999.25    1.20920    -999.25    -999.25    -999.25    -999.25    -999.25    -999.25    -999.25  -43.61570   -3.82080    1.18080    -999.25 1883.00380 2036.48480
 4050.00000    0.98500    1.00180    1.03650    1.05090    1.06570   19.58660   18.90170  938.35040    6.65170    -999.25    -999.25    -999.25    -999.25    -999.25    1.06570    -999.25    -999.25  118.44920    -999.25    -999.25  118.44920   80.08200   85.52350   80.08200    -999.25    -999.25    1.03650    -999.25    -999.25    -999.25    -999.25    -999.25    -999.25    -999.25  -42.10830   -2.19020    0.98500    -999.25 1865.30770 2108.15210
 4100.00000    1.30330    1.28150    1.33620    1.35370    1.37570   20.46420   19.15450  726.90270    6.90450    -999.25    -999.25    -999.25    -999.25    -999.25    1.37570    -999.25    -999.25  110.13580    -999.25    -999.25  110.13580   78.76360   81.78000   78.76360    -999.25    -999.25    1.33620    -999.25    -999.25    -999.25    -999.25    -999.25    -999.25    -999.25  -42.63000   -2.58870    1.30330    -999.25 1904.19190 2062.50340
 4150.00000    1.06160    1.07130    1.12690    1.12980    1.16070   19.44620   17.34280  861.54910    5.09280    -999.25    -999.25    -999.25    -999.25    -999.25    1.16070    -999.25    -999.25  114.70210    -999.25    -999.25  114.70210   72.47180   78.84080   72.47180    -999.25    -999.25    1.12690    -999.25    -999.25    -999.25    -999.25    -999.25    -999.25    -999.25  -40.78880   -0.62430    1.06160    -999.25 1895.99290 2058.49220
 4200.00000    1.00240    1.02550    1.03920    1.08940    1.11250   18.75740   17.18180  898.87640    4.93180    -999.25    -999.25    -999.25    -999.25    -999.25    1.11250    -999.25    -999.25  115.72850    -999.25    -999.25  115.72850   90.09090   90.04230   90.09090    -999.25    -999.25    1.03920    -999.25    -999.25    -999.25    -999.25    -999.25    -999.25    -999.25  -40.45530   -0.16770    1.00240    -999.25 1952.13380 2083.76610
 4250.00000    4.00130    3.41500    3.23740    2.83380    2.75910   17.43730   15.40100  362.43700    3.15100    -999.25    -999.25    -999.25    -999.25    -999.25    2.75910    -999.25    -999.25   81.78000    -999.25    -999.25   81.78000   59.67800   60.17790   59.67800    -999.25    -999.25    3.23740    -999.25    -999.25    -999.25    -999.25    -999.25    -999.25    -999.25  -69.58120  -29.17040    4.00130    -999.25 1954.88980 2086.75240
 4300.00000    2.89510    2.70120    2.68950    2.50870    2.60640   17.20750   15.02580  383.67100    2.77580    -999.25    -999.25    -999.25    -999.25    -999.25    2.60640    -999.25    -999.25   90.99770    -999.25    -999.25   90.99770   81.87650   89.22070   81.87650    -999.25    -999.25    2.68950    -999.25    -999.25    -999.25    -999.25    -999.25    -999.25    -999.25  -50.28950   -9.75550    2.89510    -999.25 1984.20120 2107.52980
 4350.00000    1.86360    1.86440    1.81250    1.76810    1.76980   18.19920   16.16910  565.03560    3.91910    -999.25    -999.25    -999.25    -999.25    -999.25    1.76980    -999.25    -999.25  100.84270    -999.25    -999.25  100.84270   87.77740   84.13620   87.77740    -999.25    -999.25    1.81250    -999.25    -999.25    -999.25    -999.25    -999.25    -999.25    -999.25  -50.36640   -9.70930    1.86360    -999.25 2041.39790 2088.89720
 4400.00000    1.27960    1.36270    1.31070    1.28490    1.34780   17.19550   15.89870  741.94980    3.64870    -999.25    -999.25    -999.25    -999.25    -999.25    1.34780    -999.25    -999.25  109.10820    -999.25    -999.25  109.10820   83.04030   85.84780   83.04030    -999.25    -999.25    1.31070    -999.25    -999.25    -999.25    -999.25    -999.25    -999.25    -999.25  -48.34150   -7.56120    1.27960    -999.25 1993.11250 2102.00270
 4450.00000    1.73610    1.82370    1.83240    1.70970    1.88640   18.30510   16.95000  530.11030    4.70000    -999.25    -999.25    -999.25    -999.25    -999.25    1.88640    -999.25    -999.25   99.05240    -999.25    -999.25   99.05240   78.97260   78.13080   78.97260    -999.25    -999.25    1.83240    -999.25    -999.25    -999.25    -999.25    -999.25    -999.25    -999.25  -49.63230   -8.72880    1.73610    -999.25 2042.99300 2163.81570
 4500.00000    1.51430    1.60760    1.55050    1.54310    1.59630   18.81950   17.63570  626.44870    5.38570    -999.25    -999.25    -999.25    -999.25    -999.25    1.59630    -999.25    -999.25  102.95840    -999.25    -999.25  102.95840   78.99240   79.41770   78.99240    -999.25    -999.25    1.55050    -999.25    -999.25    -999.25    -999.25    -999.25    -999.25    -999.25  -47.66890   -6.64230    1.51430    -999.25 2041.42440 2139.07100
 4550.00000    1.52790    1.59110    1.56470    1.52900    1.60880   18.75150   17.70670  621.58130    5.45670    -999.25    -999.25    -999.25    -999.25    -999.25    1.60880    -999.25    -999.25  101.13290    -999.25    -999.25  101.13290   82.21550   79.86420   82.21550    -999.25    -999.25    1.56470    -999.25    -999.25    -999.25    -999.25    -999.25    -999.25    -999.25  -49.54500   -8.39520    1.52790    -999.25 2040.71180 2129.68090
 4600.00000    1.39250    1.43070    1.42630    1.36090    1.46670   18.58430   17.51290  681.80270    5.26290    -999.25    -999.25    -999.25    -999.25    -999.25    1.46670    -999.25    -999.25  105.27070    -999.25    -999.25  105.27070   87.87300   89.06770   87.87300    -999.25    -999.25    1.42630    -999.25    -999.25    -999.25    -999.25    -999.25    -999.25    -999.25  -47.12850   -5.85550    1.39250    -999.25 2021.13900 2197.53000
 4650.00000    1.23480    1.30450    1.26600    1.25280    1.30310   18.75850   17.69950  767.40080    5.44950    -999.25    -999.25    -999.25    -999.25    -999.25    1.30310    -999.25    -999.25  109.07110    -999.25    -999.25  109.07110   84.43030   84.54100   84.43030    -999.25    -999.25    1.26600    -999.25    -999.25    -999.25    -999.25    -999.25    -999.25    -999.25  -50.17020   -8.77400    1.23480    -999.25 2029.48460 2197.27030
