~Version ---------------------------------------------------
VERS. 2.0 : CWLS log ASCII Standard -VERSION 2.0
WRAP.  NO : ONE LINE PER DEPTH STEP
~Well ------------------------------------------------------
STRT.F                     1050.0 : START DEPTH
STOP.F                    10450.0 : STOP DEPTH
STEP.F                   50.00000 : STEP LENGTH
NULL.                     -999.25 : NULL VALUE
COMP. GOLDKING PRODUCTION COMPANY : COMPANY
WELL.    ALICE AINSWORTH ET AL #1 : WELL
FLD .         OAK FOREST PROSPECT : FIELD
LOC .                             : LOCATION
CNTY.                    GONZALES : COUNTY
STAT.                       TEXAS : STATE
CTRY.    UNITED STATES OF AMERICA : COUNTRY
SRVC.                Schlumberger : SERVICE COMPANY
DATE.                 18-Jan-1981 : LOGDATE
API .              42177306920000 : API NUMBER
UWI .              42177306920000 : UNIQUE WELL ID
SLAT.WGS84          29.5020058328 : SURFACE LATITUDE
SLON.WGS84         -97.5543126964 : SURFACE LONGITUDE
~Curve Information -----------------------------------------
DEPT   .F                 : 
DT     .US/F 60 500 00 00 : DELTA-T (INTERVAL TRANSIT TIME)
GRR    .GAPI 07 310 01 00 : GAMMA RAY FROM RESISTIVITY LOG
ILD    .OHMM 07 120 46 00 : INDUCTION DEEP RESISTIVITY
ILM    .OHMM 07 120 44 00 : INDUCTION MEDIUM RESISTIVITY
SFLU   .OHMM 07 220 01 00 : SHALLOW FOCUSED RESISTIVITY (UNAVERAGED)
SPR    .MV   07 010 01 00 : SPONTANEOUS POTENTIAL FROM RESISTIVITY LOG
NPHI_SS.DEC  42 890 03 00 : NEUTRON POROSITY SANDSTONE
DPHI_SS.DEC  45 890 12 00 : DENSITY POROSITY SANDSTONE
DPHI_LS.DEC  45 890 10 00 : DENSITY POROSITY LIMESTONE
NPHI_LS.DEC  42 890 01 00 : NEUTRON POROSITY LIMESTONE
DRHO   .G/C3 45 356 01 00 : BULK DENSITY CORRECTION
RHOB   .G/C3 45 350 01 00 : BULK DENSITY
CALD   .IN   45 280 60 00 : CALIPER FROM DENSITY LOG
~Params ----------------------------------------------------
EKB .FT                352.1 : KELLY BUSHING
EDF .FT                351.1 : DRILLING FLOOR
EGL .FT                337.1 : GROUND LEVEL
DATE.               01/18/81 : RUN DATE
RUN .                      1 : RUN NUMBER
CLNT.                A2DTECH : CLIENT CODE
ORIG.            1" 5" PRINT : ORIGIN OF DATA
UWI .         42177306920000 : UNIQUE WELL ID
DICO. A2D Technologies, Inc. : DIGITIZING COMPANY
~Other -----------------------------------------------------
~ASCII -----------------------------------------------------
 1050.00000    -999.25    -999.25    -999.25    -999.25    -999.25    -999.25    0.54000    -999.25    -999.25    -999.25    -999.25    -999.25    -999.25
 1100.00000  129.07970   57.53830    9.01960    6.87690    7.77640  -17.47630    0.46150    0.26560    -999.25    -999.25    0.11250    2.20470   12.33960
 1150.00000  118.15480   59.17160    8.55610    6.63350    6.45770  -21.68790    0.40730    0.27070    -999.25    -999.25    0.10410    2.20320   14.27670
 1200.00000  127.84040   22.78190   22.81860    9.14600   14.44020   18.71590    0.44330    0.35560    -999.25    -999.25    0.09320    2.06230   15.11480
 1250.00000   78.62660   40.73100   33.31000   18.49590   25.06060   12.69350    0.33830    0.15290    -999.25    -999.25    0.14230    2.37570   12.84000
 1300.00000  132.75050   34.73240   34.89110   12.09460   18.30580   18.30830    0.43940    0.36000    -999.25    -999.25    0.02330    2.05110   16.19580
 1350.00000  125.64830   25.99510   36.68080    9.91170   20.12960   19.96090    0.49740    0.34740    -999.25    -999.25    0.08380    2.07310   18.12990
 1400.00000  145.35000   65.31070    2.96480    2.64380    2.60630   -3.23920    0.53790    0.26950    -999.25    -999.25    0.10210    2.20580   11.06290
 1450.00000  124.86460   63.57920    9.19830    6.85020    6.68570    0.84640    0.43450    0.32230    -999.25    -999.25   -0.00180    2.11490    8.76390
 1500.00000  123.23810   41.48870   24.21060   11.61930   13.01840   24.56880    0.35660    0.31670    -999.25    -999.25    0.02240    2.12560   10.18760
 1550.00000  123.97930   38.02850   14.62910    9.63930    9.21600   13.71600    0.41970    0.31830    -999.25    -999.25    0.01180    2.13490    9.37510
 1600.00000   39.08880   40.07770    8.37500    7.11590   27.39410    2.88340    0.39050    0.27230    -999.25    -999.25    0.03820    2.18780    9.26020
 1650.00000  120.45310   66.76380    5.63660    4.83430    4.47660   -0.12170    0.39830    0.24320    -999.25    -999.25    0.03530    2.24950   10.38300
 1700.00000  124.05650   61.72900    4.14600    3.64220    3.76200   -1.44150    0.43710    0.24700    -999.25    -999.25    0.01780    2.23820    9.97280
 1750.00000  121.37850   68.65970    3.79950    3.33240    3.52580   -1.36570    0.40030    0.20180    -999.25    -999.25    0.03300    2.31170    9.13120
 1800.00000  130.74790   55.19710    3.35890    3.31180    3.14460    0.45610    0.42340    0.33800    -999.25    -999.25    0.05880    2.09330   10.62870
 1850.00000  119.14680   43.21660    9.30840    6.86960    6.32940    6.16940    0.44710    0.32470    -999.25    -999.25    0.00670    2.10970    8.03190
 1900.00000  119.98060   67.08170    3.90390    3.36180    3.28850   -0.56470    0.42890    0.27300    -999.25    -999.25    0.05440    2.20110    9.33390
 1950.00000  119.26660   67.17280    3.85030    3.54710    3.50890   -4.04400    0.41860    0.24890    -999.25    -999.25    0.02060    2.23760    8.51660
 2000.00000  123.04820   79.13450    3.09650    2.96670    3.27740   -4.20100    0.43830    0.25600    -999.25    -999.25    0.03070    2.22530    8.82430
 2050.00000  121.95490   46.75680    5.78060    5.08720    5.16950    0.10970    0.35350    0.30990    -999.25    -999.25    0.00320    2.13210    8.38170
 2100.00000  135.16150   70.32960    2.22820    2.01700    1.63950   -2.16300    0.48850    0.22380    -999.25    -999.25    0.04140    2.27030    9.13390
 2150.00000  123.21100   70.87250    2.12440    2.06310    2.38270   -0.50460    0.45020    0.24810    -999.25    -999.25    0.02910    2.23550    9.38980
 2200.00000  116.15300   64.74760    4.49460    3.91070    3.72940   -3.94850    0.38940    0.24400    -999.25    -999.25    0.01920    2.23720    9.07710
 2250.00000  115.94650   54.76780    6.39820    5.43360    5.18600   -0.97000    0.42910    0.28730    -999.25    -999.25   -0.00540    2.16070    8.38130
 2300.00000  144.77470   61.67190    2.89190    2.41510    2.15560   -1.24920    0.50890    0.41860    -999.25    -999.25    0.06730    1.91730   10.10670
 2350.00000  118.41100   70.02690    3.95680    3.66180    4.05010   -3.82380    0.45680    0.29210    -999.25    -999.25    0.03530    2.16640    8.19540
 2400.00000  117.35970   46.75290    8.64600    7.33930    6.74100    4.34770    0.38640    0.31910    -999.25    -999.25    0.01840    2.11820    8.23390
 2450.00000  111.16100   46.91280    4.48980    3.83860    3.89490   -2.02520    0.38620    0.27920    -999.25    -999.25    0.02910    2.19740    8.30520
 2500.00000  109.61400   24.99030    8.27570    7.51860    7.33690    3.61100    0.35130    0.25320    -999.25    -999.25    0.03880    2.25980    8.31010
 2550.00000  122.86730   32.83740    8.04750    6.89250    5.88360    5.26550    0.37220    0.32560    -999.25    -999.25    0.02390    2.11450    8.40080
 2600.00000  115.41100   36.26620    8.49530    6.93740    6.17920    5.88240    0.36310    0.32070    -999.25    -999.25    0.02550    2.11990    8.01320
 2650.00000  125.49100   54.44670    2.12140    1.99380    2.09610   -0.21410    0.45970    0.25850    -999.25    -999.25    0.06890    2.20610    9.13740
 2700.00000  127.31240   66.51460    1.64590    1.61020    1.51520   -1.17050    0.43420    0.24360    -999.25    -999.25    0.05080    2.24980    9.39860
 2750.00000  110.62060   44.93550    4.81680    4.14650    3.79430   -2.55880    0.36430    0.26120    -999.25    -999.25    0.02650    2.21590    7.98930
 2800.00000  112.46940   44.61820    4.68980    4.49640    5.19050   -1.12630    0.42630    0.28370    -999.25    -999.25    0.02400    2.17310    7.99460
 2850.00000  119.23270   54.50590    2.27380    2.34080    2.10240    0.75970    0.38530    0.41240    -999.25    -999.25    0.03290    1.95060    9.15350
 2900.00000  139.76940   55.01110    3.00110    2.28180    2.37980   -0.08070    0.68640    0.59460    -999.25    -999.25   -0.01480    1.66650    8.74470
 2950.00000  123.15270   56.51510    2.26400    1.96960    1.63890   -2.14000    0.43460    0.24370    -999.25    -999.25    0.15160    2.24560    8.73780
 3000.00000  110.51560   47.86800    3.40610    3.24320    3.35480   -6.36990    0.40420    0.25070    -999.25    -999.25    0.02800    2.23250    8.00740
 3050.00000  109.48790   35.80610    7.13830    6.16250    5.60820   -2.60650    0.41680    0.27740    -999.25    -999.25    0.02580    2.19020    7.89420
 3100.00000  107.02720   37.08110    7.89540    6.93590    5.98810   -1.14370    0.38010    0.29390    -999.25    -999.25    0.02090    2.15700    7.90810
 3150.00000  110.13350   63.68170    2.87440    2.80310    3.70700   -3.50590    0.44510    0.36530    -999.25    -999.25    0.06030    2.05430    8.58270
 3200.00000  106.24500   46.54770    4.92770    4.82440    4.65580  -13.67050    0.36180    0.28520    -999.25    -999.25    0.00720    2.17780    8.16700
 3250.00000  123.40610   79.37210    1.80610    1.84010    1.89620   -0.74340    0.44410    0.22260    -999.25    -999.25    0.10180    2.28320    8.82200
 3300.00000  104.52790   58.99910    3.22070    3.41530    3.64350  -15.23570    0.37040    0.21550    -999.25    -999.25    0.02160    2.30010    8.15240
 3350.00000  110.55030   72.33180    2.30900    2.47090    2.01810   -7.45920    0.45800    0.22050    -999.25    -999.25    0.07190    2.29020    8.81050
 3400.00000  109.88150   76.70010    2.26860    2.31310    2.09140   -2.19930    0.44070    0.20250    -999.25    -999.25    0.12520    2.31870    9.03510
 3450.00000  105.04350   66.93110    2.54230    2.59210    2.79020   -5.13550    0.36970    0.16800    -999.25    -999.25    0.06450    2.37340    8.56440
 3500.00000   93.46470   56.57480    2.42460    2.49470    2.18170   -1.90880    0.28560    0.12790    -999.25    -999.25    0.04650    2.44970    8.18450
 3550.00000  108.97430   71.06320    1.72120    1.78540    1.87880   -0.42980    0.40710    0.19280    -999.25    -999.25    0.02630    2.33240   10.08680
 3600.00000  102.39640   67.80240    2.07500    2.11280    2.18960   -0.82140    0.35590    0.11910    -999.25    -999.25    0.04900    2.45320   11.21110
