~Version ---------------------------------------------------
VERS. 2.0 : CWLS log ASCII Standard -VERSION 2.0
WRAP. YES : MULTIPLE LINES PER DEPTH STEP
~Well ------------------------------------------------------
STRT.FT                     600.0 : START DEPTH
STOP.FT                    6950.0 : STOP DEPTH
STEP.FT                  50.00000 : STEP LENGTH
NULL.                     -999.25 : NULL VALUE
COMP. ENCANA OIL & GAS (USA) INC. : COMPANY
WELL.               F. J. WEBB #1 : WELL
FLD .                     WILDCAT : FIELD
LOC .                             : LOCATION
CNTY.                      DIMMIT : COUNTY
STAT.                       TEXAS : STATE
CTRY.    UNITED STATES OF AMERICA : COUNTRY
SRVC.                Baker Hughes : SERVICE COMPANY
DATE.                 05-Jan-2006 : LOGDATE
API .              42127332970000 : API NUMBER
UWI .              42127332970000 : UNIQUE WELL ID
SLAT.WGS84          28.5870102193 : SURFACE LATITUDE
SLON.WGS84         -99.9764767301 : SURFACE LONGITUDE
~Curve Information -----------------------------------------
DEPT    .FT    : DEPTH FEET  [ALL CURVES ARE NULLED AS PER OFFSET FROM TD 6964F]
CALRED  .IN    : CALIPER FROM RESISTIVITY LOG
CALWS   .IN    : CALIPER [CALRED]
CNCFLSED.V/V   : NEUTRON POROSITY LIMESTONE FROM HDI/CD/CN LOG
CONDWS  .MMHO  : CONDUCTIVITY [1000/DRESWS]
DCORWS  .G/C3  : DENSITY CORRECTION [ZCORED]
DENWS   .G/C3  : BULK DENSITY [M=2.71 F=1.0] [CALCULATED FROM DPOWS]
DPOWS   .V/V   : DENSITY POROSITY [M=2.71 F=1.0] [PORZLSED]
DRESWS  .OHMM  : DEEP RESISTIVITY [M1R9ED]
GRRED   .GAPI  : GAMMA RAY FROM RESISTIVITY LOG
GRWS    .GAPI  : GAMMA RAY [594 GRREDNRM 732 GRRED]
M1R1ED  .OHMM  : 10 INCH DOI RESISTIVITY FROM HDI/CD/CN LOG
M1R2ED  .OHMM  : 20 INCH DOI RESISTIVITY FROM HDI/CD/CN LOG
M1R3ED  .OHMM  : 30 INCH DOI RESISTIVITY FROM HDI/CD/CN LOG
M1R6ED  .OHMM  : 60 INCH DOI RESISTIVITY FROM HDI/CD/CN LOG
M1R9ED  .OHMM  : 90 INCH DOI RESISTIVITY FROM HDI/CD/CN LOG
M1RXED  .OHMM  : 120 INCH DOI RESISTIVITY FROM HDI/CD/CN LOG
MRESWS  .OHMM  : MEDIUM RESISTIVITY [M1R3ED]
NPOWS   .V/V   : NEUTRON POROSITY LIMESTONE [CNCFLSED]
PEFED   .B/E   : PHOTOELECTRIC FACTOR FROM DENSITY LOG
PEFWS   .B/E   : PHOTOELECTRIC FACTOR [PEFED]
PORZLSED.V/V   : DENSITY POROSITY [M=2.71 F=1.0] FROM HDI/CD/CN LOG
SPRED   .MV    : SPONTANEOUS POTENTIAL FROM RESISTIVITY LOG
SPWS    .MV    : SPONTANEOUS POTENTIAL [BASELINE 0 MV] [SPRED]
SRESWS  .OHMM  : SHALLOW RESISTIVITY [594 M1R1ED 777 M1R2ED 791 M1R1ED 957 M1R2ED 962.5 M1R1ED 1436.5 M1R2ED 1678 M1R1ED 2193 M1R2ED 3139 M1R1ED 3874 M1R2ED]
TENRED  .LBF   : TENSION FROM RESISTIVITY LOG
ZCORED  .G/C3  : DENSITY CORRECTION FROM HDI/CD/CN LOG
~Params ----------------------------------------------------
PD  .                     GL : PERMANENT DATUM
EPD .F                 697.3 : ELEVATION PERMANENT DATUM
LMF .                     KB : LOG MEASURED FROM
DAPD.F                  12.0 : FEET ABOVE PERMANENT DATUM
DMF .                     KB : DRILLING MEASURED FROM
EKB .F                 709.3 : KELLING BUSHING
EDF .F                 708.3 : DRILLING FLOOR
EGL .F                 697.3 : GROUND LEVEL
DATE.             01/05/2006 : RUN DATE
RUN .                      1 : RUN NUMBER
DD  .F                  6972 : DEPTH DRILLER
DL  .F                  6964 : DEPTH LOGGER
BLI .F                  6956 : BOTTOM LOG INTERVAL
TLI .F                   732 : TOP LOG INTERVAL
CS  .IN                9.625 : CASING SIZE
CBD .F                   732 : CASING BOTTOM DRILLER
CBL .F                   732 : CASING BOTTOM LOGGER
BS  .IN                 8.75 : BIT SIZE
BSD .F                  6972 : BIT SIZE AT DEPTH
DFT .                    WBM : DRILLING FLUID TYPE
DFD .                    9.7 : DRILLING FLUID DENSITY
DFV .                     79 : DRILLING FLUID VISCOSITY
DFPH.                   11.0 : DRILLING FLUID PH
DFL .                    8.4 : DRILLING FLUID LOSS
MSS .               FLOWLINE : MUD SAMPLE SOURCE
RMS .OHMM               0.36 : RESISTIVITY MUD SAMPLE
MST .F                    75 : MUD SAMPLE TEMPERATURE
RMF .OHMM               0.29 : RESISTIVITY MUD FILTRATE SAMPLE
MFST.F                    75 : MUD FILTRATE SAMPLE TEMPERATURE
RMC .OHMM               0.45 : RESISTIVITY MUD CAKE
MCST.F                    75 : MUD CAKE SAMPLE TEMPERATURE
MFSS.                      M : MUD FILTRATE SAMPLE SOURCE
MCSS.                      C : MUD CAKE SAMPLE SOURCE
RMB .OHMM               0.15 : RESISTIVITY MUD AT BHT
TCS .HRS                  10 : TIME CURCULATED STOPPED
LUN .                HL-6540 : LOGGING UNIT NUMBER
LUL .              ALICE, TX : LOGGING UNIT LOCATION
ENGI.              C. MCCANN : RECORDING ENGINEER
WITN.            D. JOHNSTON : WITNESSED BY
CLNT.                A2DTECH : CLIENT CODE
ORIG.            1" 5" PRINT : ORIGIN OF DATA
UWI .         42127332970000 : UNIQUE WELL ID
DICO. A2D Technologies, Inc. : DIGITIZING COMPANY
~Other -----------------------------------------------------
~ASCII -----------------------------------------------------
# ...
 6000.00000    9.43340    9.43340    0.06320    3.48600    0.19400    2.49780    0.12410  286.86470   20.81330   20.81330  327.74160  204.19610  162.43660  311.14470  286.86470  475.83030  162.43660    0.06320    4.72190    4.72190    0.12410  -32.33800  -24.34760  204.19610  -27.67540    0.19400
 6050.00000   10.39840   10.39840    0.11350   11.49200    0.30260    2.42840    0.16470   87.01710   34.16290   34.16290  106.20780  141.74980   29.49410  221.59920   87.01710  301.26890   29.49410    0.11350    4.51130    4.51130    0.16470  -15.58500   -7.01390  141.74980  -31.34300    0.30260
 6100.00000   10.82040   10.82040    0.06320   14.75200    0.32080    2.55700    0.08950   67.78760   14.25190   14.25190  956.72760   46.21980   35.81390   55.41360   67.78760   83.56390   35.81390    0.06320    5.08280    5.08280    0.08950  -28.11510  -18.96330   46.21980   18.15810    0.32080
 6150.00000   10.33790   10.33790    0.05190    3.07970    0.28450    2.47470    0.13760  324.70200   16.56020   16.56020  451.34050  128.43530  164.69960  185.53670  324.70200  229.63290  164.69960    0.05190    5.05270    5.05270    0.13760  -16.04870   -6.34120  128.43530  -92.71710    0.28450
 6200.00000   10.72990   10.72990    0.06690    4.29240    0.30870    2.38990    0.18720  232.96740   23.13220   23.13220  360.22010  176.59520  141.39620  227.60150  232.96740  280.63640  141.39620    0.06690    4.69190    4.69190    0.18720  -25.40070  -17.62330  176.59520  113.62430    0.30870
 6250.00000   11.48370   11.48370    0.05490    5.00000    0.29960    2.19560    0.30080  200.00000   16.28960   16.28960  273.51540  308.14830  174.09610  406.24830  200.00000  521.80800  174.09610    0.05490    5.13960    5.13960    0.30080  -38.97510  -33.12770  308.14830  -52.32200    0.29960
 6300.00000   14.45700   14.45700    0.12560    3.43790    0.25430    2.36030    0.20450  290.87500   23.30300   23.30300    6.94730   18.93520   98.59210  111.52890  290.87500  275.62270   98.59210    0.12560    4.81220    4.81220    0.20450  -29.47310  -25.55580   18.93520   33.06460    0.25430
 6350.00000   12.02640   12.02640    0.05560   26.41440    0.27400    2.31280    0.23230   37.85810   50.60890   50.60890    9.83720   15.73730   33.41460   35.80330   37.85810   77.63930   33.41460    0.05560    5.20300    5.20300    0.23230  -13.78480  -11.79760   15.73730   75.60250    0.27400
 6400.00000    9.25240    9.25240    0.01800    7.37260   -0.01740    2.87960   -0.09920  135.63790   13.57470   13.57470  675.72820   51.06060   47.26390   92.99160  135.63790  180.09480   47.26390    0.01800    5.60910    5.60910   -0.09920  -15.89740  -13.16950   51.06060  -23.41680   -0.01740
 6450.00000    9.28270    9.28270    0.05340   32.07550    0.12580    2.54930    0.09400   31.17640   26.24430   26.24430  217.96930   22.17810   20.85180   29.64010   31.17640   41.05370   20.85180    0.05340    4.69200    4.69200    0.09400  -41.53900  -35.17710   22.17810   32.72840    0.12580
 6500.00000    9.19220    9.19220    0.13530   55.09820   -0.01430    2.60960    0.05870   18.14940   55.42910   55.42910 1623.28770   14.34660   11.64370   16.28640   18.14940   19.59220   11.64370    0.13530    4.66150    4.66150    0.05870  -20.42280   -7.90840   14.34660  144.88200   -0.01430
 6550.00000   10.91100   10.91100    0.05110    1.45480    0.24230    2.58650    0.07220  687.38560   38.93720   38.93720 1472.70250  266.41730  747.06840  346.27400  687.38560  513.47300  747.06840    0.05110    4.15010    4.15010    0.07220  -54.66050  -29.65570  266.41730  -12.05950    0.24230
 6600.00000    9.76510    9.76510    0.03160    6.59840    0.10050    2.64960    0.03530  151.55080   27.82730   27.82730  346.51420   88.36810   82.31860  132.74750  151.55080  179.13610   82.31860    0.03160    4.48120    4.48120    0.03530  -50.13570  -11.37560   88.36810  -78.86650    0.10050
 6650.00000    9.10180    9.10180    0.04360    3.53450   -0.00530    2.64450    0.03830  282.92620   48.41610   48.41610  511.53430   44.46050   40.57120  116.29420  282.92620  738.74250   40.57120    0.04360    4.48150    4.48150    0.03830  -98.16030  -52.23980   44.46050   13.75910   -0.00530
 6700.00000   10.21730   10.21730    0.01730    3.63410    0.18790    2.55180    0.09250  275.17210   37.55750   37.55750  809.67580  170.17270  186.60780  287.92970  275.17210  414.48710  186.60780    0.01730    4.93250    4.93250    0.09250  -91.31230  -38.23150  170.17270  -93.69950    0.18790
 6750.00000   11.69470   11.69470    0.02100    6.41810    0.17580    2.53250    0.10380  155.81030   26.24340   26.24340  409.45690   89.49890   82.31670  138.83620  155.81030  333.23010   82.31670    0.02100    4.86510    4.86510    0.10380  -82.71490  -24.13080   89.49890   34.87450    0.17580
 6800.00000   12.39560   12.39560    0.03980    1.67130    0.23320    2.62010    0.05260  598.34800   23.30240   23.30240 1412.44850  421.69190  834.66460  643.17850  598.34800  924.33650  834.66460    0.03980    4.60160    4.60160    0.05260  -79.69830  -29.01890  421.69190  -80.34360    0.23320
 6850.00000   10.88100   10.88100    0.02920    1.92000    0.29360    2.54460    0.09670  520.82600   35.74770   35.74770  649.20290   97.62090  389.12800  188.64770  520.82600  347.15090  389.12800    0.02920    4.75130    4.75130    0.09670  -54.74650  -13.71530   97.62090  -14.88560    0.29360
 6900.00000    8.98150    8.98150    -999.25    1.10240    0.08230    2.67790    0.01880  907.14640   23.07690    -999.25 2056.45700  460.52810  598.32000  689.14630  907.14640 1283.61960  598.32000    -999.25    4.51130    4.51130    0.01880  -43.19750  -13.42420  460.52810  -33.02070    0.08230
 6950.00000    -999.25    -999.25    -999.25    0.97310    -999.25    -999.25    -999.25 1027.69260    -999.25    -999.25    7.98410   36.62990  124.80180  760.54600 1027.69260 1139.70950  124.80180    -999.25    -999.25    -999.25    -999.25  -35.95780  -13.38950   36.62990  -83.75570    -999.25
