~Version ---------------------------------------------------
VERS. 2.0 : CWLS log ASCII Standard -VERSION 2.0
WRAP.  NO : ONE LINE PER DEPTH STEP
~Well ------------------------------------------------------
STRT.F                   2550.0 : START DEPTH
STOP.F                  14350.0 : STOP DEPTH
STEP.F                 50.00000 : STEP LENGTH
NULL.                   -999.25 : NULL VALUE
COMP. GENERAL CRUDE OIL COMPANY : COMPANY
WELL.    A G HENKES GAS UNIT #1 : WELL
FLD .                   WILDCAT : FIELD
LOC .                           : LOCATION
CNTY.                    LAVACA : COUNTY
STAT.                     TEXAS : STATE
CTRY.  UNITED STATES OF AMERICA : COUNTRY
SRVC.                   Unknown : SERVICE COMPANY
DATE.               29-Aug-1977 : LOGDATE
API .            42285307220000 : API NUMBER
UWI .            42285307220000 : UNIQUE WELL ID
SLAT.WGS84        29.3839239903 : SURFACE LATITUDE
SLON.WGS84       -96.9359395822 : SURFACE LONGITUDE
~Curve Information -----------------------------------------
DEPT   .F    0   1   0  0 : 1 MEASURED DEPTH
SPR    .MV   06 010 01 00 : SPONTANEOUS POTENTIAL FROM RESISTIVITY LOG
CALR   .IN   06 280 01 00 : CALIPER FROM RESISTIVITY LOG
ILD    .OHMM 06 120 46 00 : INDUCTION DEEP RESISTIVITY
ILM    .OHMM 06 120 44 00 : INDUCTION MEDIUM RESISTIVITY
LL8    .OHMM 06 220 08 00 : LATEROLOG 8
DT     .US/F 60 500 00 00 : DELTA-T (INTERVAL TRANSIT TIME)
CALD   .IN   45 280 60 00 : CALIPER FROM DENSITY LOG
DPHI_SS.DEC  45 890 10 00 : DENSITY POROSITY SANDSTONE
NPHI_LS.DEC  42 890 01 00 : NEUTRON POROSITY LIMESTONE
DPHI_LS.DEC  45 890 10 00 : DENSITY POROSITY LIMESTONE
RHOB   .G/C3 45 350 01 00 : BULK DENSITY
CORR   .G/C3 45 356 01 00 : DENSITY CORRECTION
GRD    .GAPI 45 310 01 00 : GAMMA RAY FROM DENSITY LOG
~Params ----------------------------------------------------
PD  .                     GL : PERMANENT DATUM
EPD .FT                  260 : ELEVATION PERMANENT DATUM
LMF .                     KB : LOG MEASURED FROM
DAPD.FT                   18 : FEET ABOVE PERMANENT DATUM
DMF .                     KB : DRILLING MEASURED FROM
EKB .FT                  278 : KELLY BUSHING
EDF .FT                  277 : DRILLING FLOOR
EGL .FT                  260 : GROUND LEVEL
DATE.              8-29-1977 : RUN DATE
RUN .                      4 : RUN NUMBER
DD  .FT                14505 : DEPTH DRILLER
DL  .FT                14401 : DEPTH LOGGER
BLI .FT                14394 : BOTTOM LOG INTERVAL
TLI .FT                13663 : TOP LOG INTERVAL
CS  .IN                    7 : CASING SIZE
CBD .FT                13646 : CASING BOTTOM DRILLER
CBL .FT                13663 : CASING BOTTOM LOGGER
BS  .IN                    6 : BIT SIZE
DFT .                CLS-LIG : DRILLING FLUID TYPE
DFD .                    1.6 : DRILLING FLUID DENSITY
DFV .                     45 : DRILLING FLUID VISCOSITY
DFPH.                    1.0 : DRILLING FLUID PH
DFL .                    3.8 : DRILLING FLUID LOSS
MSS .               CIRC PIT : MUD SAMPLE SOURCE
RMS .OHMM              0.865 : RESISTIVITY MUD SAMPLE
MST .DEGF                 75 : MUD SAMPLE TEMPERATURE
RMF .OHMM               0.57 : RESISTIVITY MUD FILTRATE SAMPLE
MFST.DEGF                 75 : MUD FILTRATE SAMPLE TEMPERATURE
RMC .OHMM                1.3 : RESISTIVITY MUD CAKE
MCST.DEGF                 75 : MUD CAKE SAMPLE TEMPERATURE
MFSS.               MEASURED : MUD FILTRATE SAMPLE SOURCE
MCSS.             CALCULATED : MUD CAKE SAMPLE SOURCE
LUN .                   8005 : LOGGING UNIT NUMBER
LUL .                   VICT : LOGGING UNIT LOCATION
CLNT.                A2DTECH : CLIENT CODE
ORIG.            2" 5" PRINT : ORIGIN OF DATA
UWI .         42285307220000 : UNIQUE WELL ID
DICO. A2D Technologies, Inc. : DIGITIZING COMPANY
~Other -----------------------------------------------------
~ASCII -----------------------------------------------------
# ...
 7750.00000  -72.39610   12.16210    1.99250    2.69740    4.13000   84.16870    -999.25    -999.25    -999.25    -999.25    -999.25    -999.25    -999.25
 7800.00000  -47.94080   12.03460    2.32610    2.52830    3.83350   80.78500    -999.25    -999.25    -999.25    -999.25    -999.25    -999.25    -999.25
 7850.00000  -66.00710   12.24980    1.51920    1.98550    3.49600   86.50990    -999.25    -999.25    -999.25    -999.25    -999.25    -999.25    -999.25
 7900.00000  -70.38100   12.23160    2.32340    3.04510    6.16960   82.84010    -999.25    -999.25    -999.25    -999.25    -999.25    -999.25    -999.25
 7950.00000 -137.31580   11.98130    0.82680    1.25030    7.23320   81.56440    -999.25    -999.25    -999.25    -999.25    -999.25    -999.25    -999.25
 8000.00000 -110.29180   12.00110    1.11670    1.55750    6.58160   83.88400    -999.25    -999.25    -999.25    -999.25    -999.25    -999.25    -999.25
 8050.00000 -104.06540   11.89770    1.18760    1.73730    4.68550   79.77100    -999.25    -999.25    -999.25    -999.25    -999.25    -999.25    -999.25
 8100.00000  -87.76270   12.19480    1.42280    1.80210   12.86440   77.21880    -999.25    -999.25    -999.25    -999.25    -999.25    -999.25    -999.25
 8150.00000 -146.31210   11.94960    0.79620    1.18150    8.29530   78.29940    -999.25    -999.25    -999.25    -999.25    -999.25    -999.25    -999.25
 8200.00000 -152.56260   11.89050    0.76520    1.20110    7.89370   78.44610    -999.25    -999.25    -999.25    -999.25    -999.25    -999.25    -999.25
 8250.00000 -103.32650   12.40620    1.17010    1.46990    6.86840  111.09730    -999.25    -999.25    -999.25    -999.25    -999.25    -999.25    -999.25
 8300.00000 -135.41850   11.83560    1.01230    1.46600    7.07400   79.70800    -999.25    -999.25    -999.25    -999.25    -999.25    -999.25    -999.25
 8350.00000 -143.07710   11.79330    0.88470    1.31670    7.56380   80.35650    -999.25    -999.25    -999.25    -999.25    -999.25    -999.25    -999.25
 8400.00000  -84.87380   12.01870    2.15750    2.93420    6.51460   83.13260    -999.25    -999.25    -999.25    -999.25    -999.25    -999.25    -999.25
 8450.00000 -130.75320   11.82070    1.08110    1.61910    7.88220   77.94000    -999.25    -999.25    -999.25    -999.25    -999.25    -999.25    -999.25
 8500.00000  -70.34280   12.14840    2.24660    2.85410    6.94690   75.93950    -999.25    -999.25    -999.25    -999.25    -999.25    -999.25    -999.25
 8550.00000  -92.59290   12.07420    1.73100    2.28700    7.57070  103.53190    -999.25    -999.25    -999.25    -999.25    -999.25    -999.25    -999.25
 8600.00000 -139.19950   11.73630    0.97010    1.47870    8.14320   78.58830    -999.25    -999.25    -999.25    -999.25    -999.25    -999.25    -999.25
 8650.00000 -150.78830   11.82930    0.64130    0.86730    2.06960   81.20730    -999.25    -999.25    -999.25    -999.25    -999.25    -999.25    -999.25
 8700.00000 -147.85100   11.76310    0.79760    1.24580    8.06030   78.48920    -999.25    -999.25    -999.25    -999.25    -999.25    -999.25    -999.25
 8750.00000 -148.17500   11.76030    0.79520    1.27960    9.31390   79.64120    -999.25    -999.25    -999.25    -999.25    -999.25    -999.25    -999.25
 8800.00000 -125.86340   11.83620    1.36920    2.01870    9.30330   76.35300    -999.25    -999.25    -999.25    -999.25    -999.25    -999.25    -999.25
 8850.00000 -129.85600   11.57470    1.10070    1.63020    7.89110   79.05750    -999.25    -999.25    -999.25    -999.25    -999.25    -999.25    -999.25
 8900.00000 -103.73260   11.76610    1.56010    2.11930    8.24220   71.61690    -999.25    -999.25    -999.25    -999.25    -999.25    -999.25    -999.25
 8950.00000 -138.41430   11.75970    1.09950    1.74070    9.19180   77.51550    -999.25    -999.25    -999.25    -999.25    -999.25    -999.25    -999.25
 9000.00000  -40.47580   13.02340    2.64940    2.59600    4.74760   85.49440    -999.25    -999.25    -999.25    -999.25    -999.25    -999.25    -999.25
 9050.00000 -124.00010   11.85580    1.20190    1.62570   12.17210   76.82920    -999.25    -999.25    -999.25    -999.25    -999.25    -999.25    -999.25
 9100.00000 -141.00570   11.84180    1.02690    1.51400   11.46210   75.60520    -999.25    -999.25    -999.25    -999.25    -999.25    -999.25    -999.25
 9150.00000 -130.34020   11.83580    1.21060    1.67760    7.65250   74.78550    -999.25    -999.25    -999.25    -999.25    -999.25    -999.25    -999.25
 9200.00000 -107.98360   12.06340    2.06330    2.85680   10.20360   75.86750    -999.25    -999.25    -999.25    -999.25    -999.25    -999.25    -999.25
 9250.00000  -52.53730   12.41040    3.99760    3.76220    5.23840   78.20730    -999.25    -999.25    -999.25    -999.25    -999.25    -999.25    -999.25
 9300.00000  -48.99070   12.66960    3.81600    3.71070    5.27390   77.19250    -999.25    -999.25    -999.25    -999.25    -999.25    -999.25    -999.25
 9350.00000  -66.29250   12.40020    3.84480    4.15050    7.95200   75.19430    -999.25    -999.25    -999.25    -999.25    -999.25    -999.25    -999.25
 9400.00000  -60.34700   12.43230    5.45590    5.54010    8.83290   73.31100    -999.25    -999.25    -999.25    -999.25    -999.25    -999.25    -999.25
 9450.00000  -40.37650   12.95540    2.89400    2.78550    3.78940   80.48150    -999.25    -999.25    -999.25    -999.25    -999.25    -999.25    -999.25
 9500.00000  -42.37110   13.13740    1.98850    2.01870    2.76280   87.35570    -999.25    -999.25    -999.25    -999.25    -999.25    -999.25    -999.25
 9550.00000  -41.68800   13.59490    1.65050    1.67720    2.41970   87.48490    -999.25    -999.25    -999.25    -999.25    -999.25    -999.25    -999.25
 9600.00000  -43.24300   12.80660    2.00200    2.16510    3.17990   82.77380    -999.25    -999.25    -999.25    -999.25    -999.25    -999.25    -999.25
 9650.00000  -42.97010   13.59300    1.25690    1.28970    1.96300   94.25360    -999.25    -999.25    -999.25    -999.25    -999.25    -999.25    -999.25
 9700.00000  -42.12010   13.97280    1.66740    1.69330    2.39460   91.58330    -999.25    -999.25    0.42620    -999.25    -999.25    -999.25    -999.25
 9750.00000  -19.33720    -999.25    1.39960    1.36870    1.75320   94.91210   11.96770    0.12810    0.32870    -999.25    2.46400   -0.00790    -999.25
 9800.00000  -14.82600    -999.25    1.02340    1.04800    1.33340   99.88100   10.97210    0.21510    0.39130    -999.25    2.31360   -0.16100    -999.25
 9850.00000  -15.36790    -999.25    1.16620    1.13220    1.31290  100.50850   11.97330    0.26840    0.32070    -999.25    2.22620   -0.16240    -999.25
 9900.00000  -16.46960    -999.25    0.85760    0.83160    1.10360  106.37470   12.19500    0.25080    0.38650    -999.25    2.25840   -0.19210    -999.25
 9950.00000  -15.78320    -999.25    1.19860    1.14770    1.28760   97.19440   12.69860    0.24840    0.35800    -999.25    2.25690   -0.15790    -999.25
 10000.00000  -16.11360    -999.25    1.05620    1.00470    1.24980   99.54540   11.84680    0.24810    0.35030    -999.25    2.26620   -0.17130    -999.25
 10050.00000  -14.99000    -999.25    1.17110    1.15440    1.32140   97.71860   11.80190    0.25250    0.35080    -999.25    2.25580   -0.17660    -999.25
 10100.00000  -16.34860    -999.25    1.38080    1.35320    1.66450   90.24280   12.71060    0.13920    0.31750    -999.25    2.44340   -0.03880    -999.25
 10150.00000  -15.25160    -999.25    1.20180    1.17360    1.48420   94.12210   11.57030    0.19250    0.34280    -999.25    2.35500   -0.08470    -999.25
 10200.00000  -16.98090    -999.25    1.16160    1.19250    1.46000   96.56420   11.24160    0.16520    0.32660    -999.25    2.39940   -0.02420    -999.25
 10250.00000  -15.71150    -999.25    1.52400    1.55150    2.11920   90.34750   11.54630    0.11560    0.27610    -999.25    2.48560    0.00380    -999.25
 10300.00000  -15.15010    -999.25    1.57790    1.61650    1.78030   90.82000   12.44940    0.13010    0.29950    -999.25    2.45680   -0.00330    -999.25
