~Version ---------------------------------------------------
VERS. 2.0 : CWLS log ASCII Standard -VERSION 2.0
WRAP.  NO : ONE LINE PER DEPTH STEP
~Well ------------------------------------------------------
STRT.F                  2450.0 : START DEPTH
STOP.F                 15800.0 : STOP DEPTH
STEP.F                50.00000 : STEP LENGTH
NULL.                  -999.25 : NULL VALUE
COMP.     MARATHON OIL COMPANY : COMPANY
WELL.                 CAZEY #1 : WELL
FLD .                  WILDCAT : FIELD
LOC .                          : LOCATION
CNTY.                ROBERTSON : COUNTY
STAT.                    TEXAS : STATE
CTRY. UNITED STATES OF AMERICA : COUNTRY
SRVC.        STRATAGRAPH, INC. : SERVICE COMPANY
DATE.              30-Dec-1995 : LOGDATE
API .           42395304440000 : API NUMBER
UWI .           42395304440000 : UNIQUE WELL ID
SLAT.WGS84       31.0729547384 : SURFACE LATITUDE
SLON.WGS84      -96.4245842071 : SURFACE LONGITUDE
~Curve Information -----------------------------------------
DEPT.F                 : 
DTCO.US/F 60 523 00 00 : COMPRESSIONAL-WAVE INTERVAL TRANSIT TIME ACAUSTIC SLOWNESS
SPR .MV   07 010 01 00 : SPONTANEOUS POTENTIAL
TEND.LB   45 635 01 00 : TENSION FROM DENSITY LOG
DCAL.IN   07 280 30 00 : DIFFERENTIAL CALIPER
SFLU.OHMM 07 220 01 00 : SPHERICALLY FOCUSED LOG UNAVERAGED RESISTIVITY
ILM .OHMM 07 120 44 00 : INDUCTION LOG MEDIUM
ILD .OHMM 07 120 46 00 : INDUCTION LOG DEEP
PEF .B/E  45 358 01 00 : PHOTOELECTRIC FACTOR
DRHO.G/C3 45 356 01 00 : DENSITY CORRECTION
DT  .US/F 60 520 00 00 : INTERVAL TRANSIT TIME
DPHI.DEC  45 890 10 00 : DENSITY POROSITY LIMESTONE
GRD .GAPI 45 310 01 00 : GAMMA RAY FROM DENSITY LOG
IDPH.OHMM 07 120 46 00 : INDUCTION DEEP PHASOR RES.
IMPH.OHMM 07 120 44 00 : INDUCTION MEDIUM PHASOR RES.
NPHI.DEC  42 890 01 00 : NEUTRON POROSITY LIMESTONE
DTLF.US/F 60 523 00 00 : ACOUSTIC TRANSIT TIME, LONG SPACED, FAR ARRAY
DTLN.US/F 60 523 00 00 : ACOUSTIC TRANSIT TIME, LONG SPACED, NEAR ARRAY
~Params ----------------------------------------------------
EKB .F                 421.0 : Kelly bushing
EGL .F                 390.0 : Ground level
EDF .F                 420.0 : Drilling floor
EPD .F                 390.0 : Permanent datum
TD  .F               15800.0 : Total depth
DATE.            31-DEC-1995 : Date logged
CLNT.                A2DTECH : Client Code
SL  . 344' FNWL & 1230' FNEL : Surface Location
PD  .                     GL : Permanent Datum
LMF .                     KB : Log Measured From
DMF .                     KB : Drilling Measured From
DAPD.F                    31 : Feet Above Permanent Datum
DD  .F                 15800 : Depth driller
DL  .F                 15796 : Depth logger
BLI .F                 15793 : Bottom log interval
CS1 .IN                7.875 : Casing size
CBD1.        7.875" @ 14300' : Casing driller 1
CBL1.F                 14292 : Casing logger 1
BS1 .IN                  8.5 : Bit size
BSD1.F                 15800 : Depth drilled with bit1
DFT .                THERMEX : Type fluid in hole
DFD .                   16.2 : Density
DFPH.                   10.5 : pH
MSS .              CIRC TANK : Source of sample
RMS .OHMM              1.932 : Rm
RMF .OHMM              1.872 : Rmf
RMC .OHMM              2.181 : Rmc
MFSS.                   MEAS : Source Rmf.
MCSS.                   CALC : Source Rmc.
RMB .OHMM              0.423 : Rm. at BHT
BHT .F                   358 : BHT.
TCS .HRS                 130 : Time Circ. stopped
TLAB.HRS                1130 : Time logger at bottom
LUN .                   8400 : Logging unit number
LUL .                    LER : Logging unit location
ENGI.                 CORLEA : Recorded By
WITN.              FAIRHURST : Witnessed by
ORIG.               5" PRINT : Origin of data
UWI .         42395304440000 : Unique Well ID
DICO. A2D TECHNOLOGIES, INC. : Digitizing Company
~Other -----------------------------------------------------
~ASCII -----------------------------------------------------
# ...
 4500.00000  107.89300  -27.14400 3260.00000    7.35400    1.28300    1.28600    1.30700    -999.25    -999.25    -999.25    -999.25   61.13600    -999.25    -999.25    -999.25  115.59300  104.31400
 4550.00000   99.80200  -30.98300 3140.00000    8.88600    1.58300    1.66100    1.68100    -999.25    -999.25    -999.25    -999.25   55.36500    -999.25    -999.25    -999.25   95.36800   96.93300
 4600.00000  101.72900  -32.09200 3198.68190    8.89800    1.36400    1.38000    1.37000    -999.25    -999.25    -999.25    -999.25   55.61900    -999.25    -999.25    -999.25  103.32000  102.97300
 4650.00000  107.34300  -31.59000 3260.00000    7.93200    1.21700    1.23400    1.25100    -999.25    -999.25    -999.25    -999.25   56.29900    -999.25    -999.25    -999.25  107.49500  108.68800
 4700.00000  122.83100  -34.80100 3180.00000    8.71000    1.30400    1.32200    1.34000    -999.25    -999.25    -999.25    -999.25   48.13300    -999.25    -999.25    -999.25  147.45500  -59.70200
 4750.00000  103.96800  -39.22600 3315.46510    8.27200    1.68500    1.72400    1.74400    -999.25    -999.25    -999.25    -999.25   52.92700    -999.25    -999.25    -999.25  141.11000   99.74200
 4800.00000  104.63500  -38.08300 3315.19800    8.90700    1.36500    1.37900    1.36800    -999.25    -999.25    -999.25    -999.25   50.80200    -999.25    -999.25    -999.25  -59.49100  121.41200
 4850.00000  104.25000  -32.08900 3260.00000    7.48700    1.47200    1.48000    1.50100    3.88500    0.02500    -999.25    -999.25   52.19500    -999.25    -999.25    -999.25  125.28300   82.24700
 4900.00000   93.74800  -34.92500 3260.00000    8.27900    1.37700    1.38000    1.37100    3.83200    0.08200    -999.25    -999.25   51.17300    -999.25    -999.25    -999.25  108.51600   78.86700
 4950.00000   88.05200  -39.05900 3300.00000    4.94300    2.04000    2.05100    2.05900    4.29700   -0.01100    -999.25    -999.25   48.93900    -999.25    -999.25    -999.25  103.09400   91.98800
 5000.00000   94.82600  -41.48500 3420.00000    4.47800    1.99500    2.07900    2.15300    4.21500    0.02300    -999.25    -999.25   51.59700    -999.25    -999.25    -999.25   91.98800   86.91800
 5050.00000   78.90900  -37.02600 3460.00000    2.40600    3.85800    3.96500    3.91100    4.67400    0.01200    -999.25    0.15900   29.78100    -999.25    -999.25    0.25100   73.98000   87.53500
 5100.00000   75.51400  -44.99700 3461.76490    2.04800    5.14700    4.07500    4.24700    5.02000    0.00500    -999.25    0.13300   22.60800    -999.25    -999.25    0.27900   73.44900   75.41200
 5150.00000   73.62800  -44.47700 3422.51490    2.48900    3.91100    4.31600    4.36500    4.75100   -0.00200    -999.25    0.14700   28.51900    -999.25    -999.25    0.25400  -32.26600   59.18500
 5200.00000   75.26500  -41.57800 3420.00000    2.25200    4.70900    4.39900    4.48700    4.62700    0.02400    -999.25    0.16000   24.52600    -999.25    -999.25    0.28400   74.39500   72.10700
 5250.00000   72.56800  -60.96800 3450.00000    0.85600    6.03600    5.79600    5.65100    5.30600   -0.01100    -999.25    0.14600   25.60400    -999.25    -999.25    0.22300   70.91500   63.66800
 5300.00000   91.11700  -66.67400 3533.92310    1.46300    4.48700    5.21800    5.21100    5.03600    0.00200    -999.25    0.16800   26.32600    -999.25    -999.25    0.24200  107.89100   17.83300
 5350.00000  101.37600  -45.34200 3575.69800    3.58900    1.53700    1.47500    1.50000    3.71400    0.07600    -999.25    -999.25   66.96800    -999.25    -999.25    -999.25  148.05200  100.33800
 5400.00000   95.94400  -39.43800 3571.42900    6.03000    1.34400    1.25600    1.28900    3.66100    0.04900    -999.25    -999.25   64.87100    -999.25    -999.25    -999.25   94.92400   96.56100
 5450.00000  100.24200  -40.56800 3463.75710    5.58100    1.36400    1.36700    1.37000    3.64000    0.07300    -999.25    -999.25   60.41900    -999.25    -999.25    -999.25   95.59600   95.56700
 5500.00000   99.08800  -42.15800 3420.00000    5.07700    1.59400    1.59300    1.53900    3.59800    0.08400    -999.25    -999.25   62.85700    -999.25    -999.25    -999.25   97.24900   98.92100
 5550.00000  101.28900  -41.00000 3496.89210    5.05100    1.66900    1.66100    1.64300    3.65500    0.10500    -999.25    0.32200   69.86700    -999.25    -999.25    -999.25  100.34000   99.94000
 5600.00000  104.83300  -40.74400 3540.00000    6.03800    1.52100    1.42900    1.42600    3.88300    0.09100    -999.25    0.34100   79.61200    -999.25    -999.25    -999.25  100.93600  101.47500
 5650.00000  103.92400  -42.47400 3519.28590    7.37700    2.69700    2.72900    2.73400    4.00900    0.00200    -999.25    -999.25   67.96400    -999.25    -999.25    -999.25  102.32600   97.75300
 5700.00000   97.38100  -42.63400 3552.27490    2.04200    4.27200    3.55200    3.31700    4.67300    0.02000    -999.25    0.23700   87.40100    -999.25    -999.25    0.29600   96.01100   39.89900
 5750.00000   86.92700  -42.04400 3503.02000    1.83000    4.61200    4.48700    4.23500    4.59200    0.05800    -999.25    0.20300   68.89700    -999.25    -999.25    0.34900   55.01000   87.47100
 5800.00000   96.44400  -42.47100 3625.14700    9.24500    1.21700    1.02500    1.02000    3.82900   -0.01700    -999.25    -999.25   43.13500    -999.25    -999.25    -999.25   85.95200  101.30700
 5850.00000  107.67200  -41.02000 3500.00000    5.30300    1.62400    1.12900    0.98100    3.70300    0.01100    -999.25    -999.25   62.44700    -999.25    -999.25    -999.25  127.17700  202.92200
 5900.00000   61.88700  -44.77200 3709.41210    2.40600    9.61400    9.16400   11.02200    5.10100    0.02100    -999.25    0.02500   24.46900    -999.25    -999.25    0.09200   59.55500   62.16700
 5950.00000   62.13700  -45.86700 3620.00000    3.17700    7.66500   10.22800   11.18200    5.46200    0.03300    -999.25    0.02700   26.51100    -999.25    -999.25    0.06700   61.41800   61.86900
 6000.00000   76.06400  -45.21300 3633.81100    4.06500    4.10500    4.35000    4.36500    4.69000    0.01400    -999.25    0.17900   51.00300    -999.25    -999.25    0.20500   76.68000   76.28200
 6050.00000   59.32800  -49.06800 3711.97900    1.83800   10.25200   13.37100   13.92300    4.95000    0.10000    -999.25    0.15700   26.02500    -999.25    -999.25    0.05800   58.26800   58.44000
 6100.00000   55.71900  -63.48100 3740.00000    5.45800   17.23500   25.48100   29.04400    4.03300   -0.01000    -999.25    -999.25   25.84700    -999.25    -999.25    0.17100   53.66900   54.41400
 6150.00000   58.27300  -59.67100 3789.86690    4.21400   16.54000   19.23700   26.95000    4.66200    0.13500    -999.25    0.24400   17.83500    -999.25    -999.25    0.11800   55.47000   56.60000
 6200.00000   58.29600  -52.39500 3918.64600    3.08800   13.99200   17.77900   20.06500    4.87500    0.13300    -999.25    0.17800   19.55200    -999.25    -999.25    0.06500   58.41700   57.56500
 6250.00000   52.98500  -55.40400 3820.00000    2.56400   51.70800   41.50800   37.18900    5.61800    0.00500    -999.25    0.13800   14.95900    -999.25    -999.25    0.01600   50.83500   50.83500
 6300.00000   60.69900  -49.62900 3840.25100    2.02200   10.36900   11.67700   12.06000    4.77700    0.00500    -999.25    0.04300   28.08700    -999.25    -999.25    0.06600   93.57900   13.52900
 6350.00000   57.54200  -51.11200 3860.00000    1.75000   16.09200   15.44200   16.09200    5.26900   -0.00200    -999.25    0.11000   24.71200    -999.25    -999.25    0.05800   55.80500   58.68600
 6400.00000   63.86800  -50.15600 3769.70090    3.40400    7.83400    5.29100    4.75400    4.01400    0.00000    -999.25    0.27500   47.48100    -999.25    -999.25    0.17700   64.32200   60.17900
 6450.00000   56.39400  -57.80400 3806.96900    4.36200   18.28800   22.59600   25.66700    5.62400    0.12300    -999.25    0.21500   31.51900    -999.25    -999.25    0.05200   55.20900   54.81100
 6500.00000   72.21900  -48.42700 3822.84690    2.87000    3.75300    3.81000    3.81200    4.59900    0.01200    -999.25    0.09900   52.70500    -999.25    -999.25    0.14800   72.10700   71.11300
