~Version ---------------------------------------------------
VERS. 2.0 : CWLS log ASCII Standard -VERSION 2.0
WRAP. YES : MULTIPLE LINES PER DEPTH STEP
~Well ------------------------------------------------------
STRT.FT                  850.0 : START DEPTH
STOP.FT                 7550.0 : STOP DEPTH
STEP.FT               50.00000 : STEP LENGTH
NULL.                  -999.25 : NULL VALUE
COMP.      REDMAN OPERATING CO : COMPANY
WELL.         J C WALLACE  #11 : WELL
FLD .               JOURDANTON : FIELD
LOC .                          : LOCATION
CNTY.                 ATASCOSA : COUNTY
STAT.                    TEXAS : STATE
CTRY. UNITED STATES OF AMERICA : COUNTRY
SRVC.             Schlumberger : SERVICE COMPANY
DATE.              09-Mar-2006 : LOGDATE
API .           42013342130000 : API NUMBER
UWI .           42013342130000 : UNIQUE WELL ID
SLAT.WGS84       28.8623537028 : SURFACE LATITUDE
SLON.WGS84      -98.6331986757 : SURFACE LONGITUDE
~Curve Information -----------------------------------------
DEPT    .FT    : DEPTH FEET
AT10ED  .OHMM  : 10 INCH RESISTIVITY TWO FOOT RESOLUTION FROM AIT LOG
AT20ED  .OHMM  : 20 INCH RESISTIVITY TWO FOOT RESOLUTION FROM AIT LOG
AT30ED  .OHMM  : 30 INCH RESISTIVITY TWO FOOT RESOLUTION FROM AIT LOG
AT60ED  .OHMM  : 60 INCH RESISTIVITY TWO FOOT RESOLUTION FROM AIT LOG
AT90ED  .OHMM  : 90 INCH RESISTIVITY TWO FOOT RESOLUTION FROM AIT LOG
CALWS   .IN    : CALIPER [DCALED+7.875]
CONDWS  .MMHO  : CONDUCTIVITY [1000/DRESWS]
DCALED  .IN    : DIFFERENTIAL CALIPER FROM DENSITY LOG
DCORWS  .G/C3  : DENSITY CORRECTION [HDRAED]
DENWS   .G/C3  : BULK DENSITY [M=2.71 F=1.0] [CALCULATED FROM DPOWS]
DPHZLSED.V/V   : DENSITY POROSITY [M=2.71 F=1.0] FROM DENSITY LOG
DPHZSSED.V/V   : DENSITY POROSITY [M=2.65 F=1.0] FROM DENSITY LOG
DPOWS   .V/V   : DENSITY POROSITY [M=2.71 F=1.0] [MERGED DPHISSED CONVERTED TO LS/DPHZLSED at 6000]
DRESWS  .OHMM  : DEEP RESISTIVITY [AT90ED]
GRRED   .GAPI  : GAMMA RAY FROM RESISTIVITY LOG
GRWS    .GAPI  : GAMMA RAY [GRRED] *CASED HOLE ABOVE 891 FT*
HDRAED  .G/C3  : DENSITY CORRECTION FROM DENSITY LOG
MRESWS  .OHMM  : MEDIUM RESISTIVITY [AT30ED]
NPOWS   .V/V   : NEUTRON POROSITY LIMESTONE [MERGED TNPHSSED CONVERTED TO LS/TNPHLSED at 6000] *CASED HOLE ABOVE 891 FT*
SPRED   .MV    : SPONTANEOUS POTENTIAL FROM RESISTIVITY LOG
SPWS    .MV    : SPONTANEOUS POTENTIAL [BASELINE 0 MV] [SPRED]
SRESWS  .OHMM  : SHALLOW RESISTIVITY [AT20ED]
TENRED  .LBF   : TENSION FROM RESISTIVITY LOG
TNPHLSED.V/V   : THERMAL NEUTRON POROSITY LIMESTONE FROM LWD LOG
TNPHSSED.V/V   : THERMAL NEUTRON POROSITY SANDSTONE FROM LWD LOG
~Params ----------------------------------------------------
PD  .                     GL : PERMANENT DATUM
EPD .FT                  445 : ELEVATION PERMANENT DATUM
LMF .                     KB : LOG MEASURED FROM
DAPD.FT                   15 : FEET ABOVE PERMANENT DATUM
DMF .                     KB : DRILLING MEASURED FROM
EKB .FT                  445 : KELLY BUSHING
EDF .FT                  460 : DRILLING FLOOR
EGL .FT                  459 : GROUND LEVEL
DATE.             03/09/2006 : RUN DATE
RUN .                      1 : RUN NUMBER
DD  .FT                 7575 : DEPTH DRILLER
DL  .FT                 7570 : DEPTH LOGGER
BLI .FT                 7570 : BOTTOM LOG INTERVAL
TLI .FT                  891 : TOP LOG INTERVAL
CS  .IN                8.625 : CASING SIZE
CBD .FT                  888 : CASING BOTTOM DRILLER
CBL .FT                  891 : CASING BOTTOM LOGGER
BS  .IN                7.875 : BIT SIZE
BSD .FT                 7575 : BIT SIZE AT DEPTH
DFT .  FRESH WATER BASED MUD : DRILLING FLUID TYPE
DFD .                   10.2 : DRILLING FLUID DENSITY
DFV .                     40 : DRILLING FLUID VISCOSITY
DFPH.                    8.7 : DRILLING FLUID PH
DFL .                    5.2 : DRILLING FLUID LOSS
MSS .                MUD PIT : MUD SAMPLE SOURCE
RMS .OHMM              1.006 : RESISTIVITY MUD SAMPLE
MST .FT                   82 : MUD SAMPLE TEMPERATURE
RMF .OHMM              0.754 : RESISTIVITY MUD FILTRATE SAMPLE
MFST.FT                   82 : MUD FILTRATE SAMPLE TEMPERATURE
RMC .OHMM              1.512 : RESISTIVITY MUD CAKE
MCST.FT                   82 : MUD CAKE SAMPLE TEMPERATURE
MFSS.             CALCULATED : MUD FILTRATE SAMPLE SOURCE
MCSS.             CALCULATED : MUD CAKE SAMPLE SOURCE
RMB .OHMM              0.501 : RESISTIVITY MUD AT BHT
TCS .HRS                1200 : TIME CURCULATED STOPPED
TLAB.HRS                1930 : TIME LOGGER AT BOTTOM
LUN .                   2129 : LOGGING UNIT NUMBER
LUL .               VICTORIA : LOGGING UNIT LOCATION
ENGI.         JOSEPH JEPHSON : RECORDING ENGINEER
WITN.         BRIAN MCMICKEN : WITNESSED BY
CLNT.                A2DTECH : CLIENT CODE
ORIG.            1" 5" PRINT : ORIGIN OF DATA
UWI .         42013342130000 : UNIQUE WELL ID
DICO. A2D Technologies, Inc. : DIGITIZING COMPANY
~Other -----------------------------------------------------
~ASCII -----------------------------------------------------
# ...
 2250.00000   12.63610   19.40860   19.77850   24.15250   24.26460    8.28050   41.21230    0.40550    0.02220    2.42430    -999.25    0.13680    0.16710   24.26460  111.18420  111.18420    0.02220   19.77850    0.26000   10.73260    2.07760   19.40860 1346.88040    -999.25    0.30400
 2300.00000   15.34020   25.18900   26.31610   31.94950   32.09960    7.71460   31.15300   -0.16040    0.00220    2.28670    -999.25    0.22020    0.24760   32.09960   85.27780   85.27780    0.00220   26.31610    0.29730   15.01650    7.54890   25.18900 1353.13830    -999.25    0.34100
 2350.00000   11.53050   17.36760   18.85470   20.81210   21.37740    7.83650   46.77840   -0.03850    0.00170    2.28960    -999.25    0.21840    0.24580   21.37740   75.35760   75.35760    0.00170   18.85470    0.25690   14.29410    8.01390   17.36760 1364.74710    -999.25    0.30090
 2400.00000    6.23740    8.08830    8.97800    9.15360    9.20180    7.99270  108.67440    0.11770    0.05460    2.34850    -999.25    0.18270    0.21140    9.20180  108.86530  108.86530    0.05460    8.97800    0.28490   17.79190   12.69910    8.08830 1409.14270    -999.25    0.32870
 2450.00000   13.48170   24.80960   26.84680   30.29840   30.45890    7.78910   32.83110   -0.08590    0.00080    2.10220    -999.25    0.33200    0.35540   30.45890   38.96630   38.96630    0.00080   26.84680    0.29260   19.04140   15.13600   24.80960 1352.66190    -999.25    0.33640
 2500.00000   10.32650   14.97230   16.03910   16.42190   16.51770    7.77330   60.54110   -0.10170   -0.00630    2.09310    -999.25    0.33750    0.36070   16.51770   69.18290   69.18290   -0.00630   16.03910    0.33350   15.45430   12.73620   14.97230 1377.44970    -999.25    0.37680
 2550.00000    9.58920   13.42180   13.95760   14.26280   16.76120    7.76810   59.66160   -0.10690   -0.00520    2.10530    -999.25    0.33010    0.35360   16.76120   61.34610   61.34610   -0.00520   13.95760    0.29190   14.65160   13.12090   13.42180 1485.96310    -999.25    0.33570
 2600.00000    8.43750    9.93290   10.36580   13.36830   13.98460    7.79340   71.50720   -0.08160   -0.00080    2.15520    -999.25    0.29990    0.32450   13.98460  107.36820  107.36820   -0.00080   10.36580    0.33680    9.88110    9.50430    9.93290 1476.14820    -999.25    0.38000
 2650.00000    6.15170    8.33250    8.92370    9.46640    9.52300    7.84520  105.00890   -0.02980    0.00050    2.13450    -999.25    0.31240    0.33650    9.52300   81.74810   81.74810    0.00050    8.92370    0.34080    8.35820    8.92950    8.33250 1493.07760    -999.25    0.38400
 2700.00000    6.29450    8.58970    8.82120    9.03920    9.11650    7.82300  109.69120   -0.05200   -0.00610    2.18190    -999.25    0.28370    0.30880    9.11650  102.76880  102.76880   -0.00610    8.82120    0.36710    2.76330    4.28280    8.58970 1510.60410    -999.25    0.40980
 2750.00000    1.67060    2.02520    2.11370    2.21410    2.22620    8.02440  449.19590    0.14940    0.07010    2.18190    -999.25    0.28370    0.30880    2.22620  105.84650  105.84650    0.07010    2.11370    0.43910    3.83910    6.30670    2.02520 1493.23940    -999.25    0.48080
 2800.00000    3.78760    4.48380    4.55990    4.80400    4.82730    7.75030  207.15510   -0.12470    0.00950    2.21260    -999.25    0.26510    0.29090    4.82730   96.55880   96.55880    0.00950    4.55990    0.33580   -1.17130    2.24440    4.48380 1592.86850    -999.25    0.37900
 2850.00000    3.07480    3.37410    3.45590    3.58910    3.62320    8.74850  275.99910    0.87350    0.06980    2.30100    -999.25    0.21150    0.23920    3.62320  111.26140  111.26140    0.06980    3.45590    0.36670    3.20140    7.56530    3.37410 1614.78880    -999.25    0.40940
 2900.00000    6.59450    6.68910    6.82200    6.96430    6.99750    7.77830  142.90820   -0.09670    0.00050    2.14810    -999.25    0.30420    0.32860    6.99750   79.48990   79.48990    0.00050    6.82200    0.32530   -2.49150    2.82050    6.68910 1559.90750    -999.25    0.36870
 2950.00000    3.96270    4.05060    4.19610    4.54520    4.64350    8.04140  215.35480    0.16640    0.00590    2.20270    -999.25    0.27110    0.29670    4.64350   91.10460   91.10460    0.00590    4.19610    0.30530   -2.61030    2.61610    4.05060 1565.72620    -999.25    0.34890
 3000.00000    2.08210    2.31440    2.39680    2.49160    2.50880    8.41160  398.59690    0.53660    0.03060    2.31750    -999.25    0.20150    0.22950    2.50880  120.02600  120.02600    0.03060    2.39680    0.37440    3.08850    8.07490    2.31440 1573.61340    -999.25    0.41690
 3050.00000    2.31960    2.60420    2.64900    2.70750    2.72350    8.27690  367.17460    0.40190    0.04510    2.28350    -999.25    0.22210    0.24940    2.72350  122.73860  122.73860    0.04510    2.64900    0.34230    1.94270    6.68900    2.60420 1581.17860    -999.25    0.38540
 3100.00000    3.60910    3.99050    4.09250    4.19720    4.27810    7.91480  233.74860    0.03980    0.00100    2.29510    -999.25    0.21510    0.24260    4.27810  114.25620  114.25620    0.00100    4.09250    0.31940   -0.34550    4.16080    3.99050 1629.11560    -999.25    0.36290
 3150.00000    8.07630    9.99980   10.65430   11.18340   11.81330    7.75830   84.65040   -0.11670   -0.00070    2.15220    -999.25    0.30170    0.32620   11.81330   83.34790   83.34790   -0.00070   10.65430    0.27040    5.08800    9.35430    9.99980 1641.00940    -999.25    0.31430
 3200.00000   11.61120   13.97930   14.21920   14.36760   14.44130    7.85150   69.24580   -0.02350    0.00440    2.12070    -999.25    0.32080    0.34460   14.44130   71.24580   71.24580    0.00440   14.21920    0.26890   13.57510   17.60130   13.97930 1678.82280    -999.25    0.31280
 3250.00000    6.55200    7.52070    7.86950    7.93190    8.41810    7.93200  118.79160    0.05700   -0.00140    2.23420    -999.25    0.25200    0.27820    8.41810  100.19010  100.19010   -0.00140    7.86950    0.29050    0.03790    3.82410    7.52070 1639.09440    -999.25    0.33430
 3300.00000    5.47380    5.88030    6.15810    6.37060    6.52790    7.79470  153.18860   -0.08030    0.00190    2.23060    -999.25    0.25420    0.28040    6.52790  121.86180  121.86180    0.00190    6.15810    0.29200   -0.40740    3.13870    5.88030 1671.91390    -999.25    0.33580
 3350.00000   11.61430   14.12310   14.69920   15.09100   15.81810    7.77950   63.21870   -0.09550    0.00080    2.11060    -999.25    0.32690    0.35050   15.81810   79.76210   79.76210    0.00080   14.69920    0.29190   12.11540   15.42150   14.12310 1667.46230    -999.25    0.33570
 3400.00000    5.81680    6.79320    7.24090    7.39710    7.63720    7.77850  130.93800   -0.09650    0.00470    2.19910    -999.25    0.27330    0.29880    7.63720   78.82350   78.82350    0.00470    7.24090    0.30270    1.20980    4.27590    6.79320 1741.74210    -999.25    0.34640
 3450.00000    2.77850    3.12420    3.25500    3.28040    3.29540    7.81420  303.45330   -0.06080    0.04700    2.30420    -999.25    0.20960    0.23730    3.29540  121.74710  121.74710    0.04700    3.25500    0.32970    3.63550    6.46150    3.12420 1726.59480    -999.25    0.37300
 3500.00000    9.84440   10.72090   11.25110   11.60390   12.84460    7.78730   77.85370   -0.08770    0.00070    2.11080    -999.25    0.32680    0.35040   12.84460   67.10230   67.10230    0.00070   11.25110    0.28700    9.15450   11.74050   10.72090 1743.19450    -999.25    0.33080
 3550.00000    1.73090    1.91860    2.18560    2.26280    2.34250    8.32570  426.89430    0.45070    0.04310    2.25850    -999.25    0.23730    0.26410    2.34250  113.09420  113.09420    0.04310    2.18560    0.33720    4.11270    6.45860    1.91860 1793.95020    -999.25    0.38040
 3600.00000    9.26130   10.89590   11.32100   11.41950   11.47740    7.75770   87.12770   -0.11730   -0.00090    2.10750    -999.25    0.32880    0.35240   11.47740   64.80410   64.80410   -0.00090   11.32100    0.26610   13.42050   15.52640   10.89590 1751.49060    -999.25    0.31000
