~Version ---------------------------------------------------
VERS. 2.0 : CWLS log ASCII Standard -VERSION 2.0
WRAP. YES : MULTIPLE LINES PER DEPTH STEP
~Well ------------------------------------------------------
STRT.FT                 2050.0 : START DEPTH
STOP.FT                15100.0 : STOP DEPTH
STEP.FT               50.00000 : STEP LENGTH
NULL.                  -999.25 : NULL VALUE
COMP. BUTTES RESOURCES COMPANY : COMPANY
WELL.             KING GAIL #1 : WELL
FLD .                  WILDCAT : FIELD
LOC .                          : LOCATION
CNTY.                     LEON : COUNTY
STAT.                    TEXAS : STATE
CTRY. UNITED STATES OF AMERICA : COUNTRY
SRVC.             Schlumberger : SERVICE COMPANY
DATE.              13-Apr-1977 : LOGDATE
API .           42289301060000 : API NUMBER
UWI .           42289301060000 : UNIQUE WELL ID
SLAT.WGS84        31.383896527 : SURFACE LATITUDE
SLON.WGS84      -96.2493859425 : SURFACE LONGITUDE
~Curve Information -----------------------------------------
DEPT    .FT    : DEPTH FEET
CALDED  .IN    : CALIPER FROM DENSITY LOG [AJD TO ILDED]
CALWS   .IN    : CALIPER [CALDED]
CONDWS  .MMHO  : CONDUCTIVITY [1000/DRESWS]
CORRED  .G/C3  : DENSITY CORRECTION FROM DENSITY LOG [AJD TO ILDED]
DCORWS  .G/C3  : DENSITY CORRECTION [CORRED]
DENWS   .G/C3  : BULK DENSITY [M=2.71 F=1.0] [CALCULATED FROM DPOWS]
DPHILSED.V/V   : DENSITY POROSITY [M=2.71 F=1.0] FROM DENSITY LOG [AJD TO ILDED]
DPOWS   .V/V   : DENSITY POROSITY [M=2.71 F=1.0] [DPHILSED]
DRESWS  .OHMM  : DEEP RESISTIVITY [ILDED]
DRHOED  .G/C3  : DENSITY CORRECTION FROM DENSITY LOG [AJD TO ILDED]
DTED    .US/F  : DELTA TIME FROM SONIC LOG [AJD TO RHOBED]
DTWS    .US/F  : DELTA TIME [DTED]
GRDED   .GAPI  : GAMMA RAY FROM DENSITY LOG [AJD TO ILDED]
GRWS    .GAPI  : GAMMA RAY [GRDED]
ILDED   .OHMM  : INDUCTION LOG DEEP RESISTIVITY
ILMED   .OHMM  : INDUCTION LOG MEDIUM RESISTIVITY
LL8ED   .OHMM  : 8 INCH LATEROLOG RESISTIVITY
MCALED  .IN    : CALIPER MICROLOG [AJD TO SPRED]
MRESWS  .OHMM  : MEDIUM RESISTIVITY [ILMED]
NPHILSED.V/V   : NEUTRON POROSITY LIMESTONE FROM DENSITY LOG [AJD TO ILDED]
NPOWS   .V/V   : NEUTRON POROSITY LIMESTONE [NPHILSED]
RHOBED  .G/C3  : BULK DENSITY FROM DENSITY LOG [AJD TO ILDED]
SFLED   .OHMM  : SPHERICALLY FOCUSED LOG RESISTIVITY [AJD TO ILDED]
SPMED   .MV    : SPONTANEOUS POTENTIAL FROM MICROLOGLOG [AJD TO SPRED]
SPRED   .MV    : SPONTANEOUS POTENTIAL FROM RESISTIVITY LOG
SPWS    .MV    : SPONTANEOUS POTENTIAL [BASELINE 0 MV] [SPRED]
SRESWS  .OHMM  : SHALLOW RESISTIVITY [SPL SFLED <14485> LL8ED]
TENDED  .LBF   : TENSION FROM DENSITY LOG
~Params ----------------------------------------------------
PD  .                     GL : PERMANENT DATUM
EPD .FT                  503 : ELEVATION PERMANENT DATUM
LMF .                     KB : LOG MEASURED FROM
DAPD.FT                   18 : FEET ABOVE PERMANENT DATUM
DMF .                     KB : DRILLING MEASURED FROM
EKB .FT                  521 : KELLY BUSHING
EDF .FT                  520 : DRILLING FLOOR
EGL .FT                  503 : GROUND LEVEL
DATE.               04/13/77 : RUN DATE
RUN .                      1 : RUN NUMBER
DD  .FT                15147 : DEPTH DRILLER
DL  .FT                15148 : DEPTH LOGGER
BLI .FT                15147 : BOTTOM LOG INTERVAL
TLI .FT                13098 : TOP LOG INTERVAL
CS  .IN                    7 : CASING SIZE
CBD .FT                13097 : CASING BOTTOM DRILLER
CBL .FT                13098 : CASING BOTTOM LOGGER
BS  .IN                    6 : BIT SIZE
BSD .FT                15147 : BIT SIZE AT DEPTH
DFT .               LOW LIME : DRILLING FLUID TYPE
DFD .                   15.7 : DRILLING FLUID DENSITY
DFV .                     48 : DRILLING FLUID VISCOSITY
DFPH.                   12.5 : DRILLING FLUID PH
DFL .                   10.8 : DRILLING FLUID LOSS
MSS .                    PIT : MUD SAMPLE SOURCE
RMS .OHMM               0.89 : RESISTIVITY MUD SAMPLE
MST .DEGF                 75 : MUD SAMPLE TEMPERATURE
RMF .OHMM               0.67 : RESISTIVITY MUD FILTRATE SAMPLE
MFST.DEGF                 75 : MUD FILTRATE SAMPLE TEMPERATURE
RMC .OHMM               0.34 : RESISTIVITY MUD CAKE
MCST.DEGF                 75 : MUD CAKE SAMPLE TEMPERATURE
MFSS.                      M : MUD FILTRATE SAMPLE SOURCE
MCSS.                      C : MUD CAKE SAMPLE SOURCE
RMB .OHMM               0.21 : RESISTIVITY MUD AT BHT
TCS .HRS                2000 : TIME CIRCULATED STOPPED
TLAB.HRS                 300 : TIME LOGGER AT BOTTOM
LUN .                   7659 : LOGGING UNIT NUMBER
LUL .                 DAYTON : LOGGING UNIT LOCATION
ENGI.          CHENAULT EAST : RECORDING ENGINEER
WITN.                  MILES : WITNESSED BY
CLNT.                A2DTECH : CLIENT CODE
ORIG.            2" 5" PRINT : ORIGIN OF DATA
UWI .         42289301060000 : UNIQUE WELL ID
DICO. A2D Technologies, Inc. : DIGITIZING COMPANY
~Other -----------------------------------------------------
~ASCII -----------------------------------------------------
# ...
 7050.00000   10.52880   10.52880   82.48720    0.00060    -999.25    2.68780    0.01300    0.01300   12.12310    -999.25    -999.25    -999.25   37.60360   37.60360   12.12310   14.48900    -999.25   10.31150   14.48900    0.03990    0.03990    2.67930   19.40150  -64.82360  -64.43640   -9.42840   19.40150  304.35130
 7100.00000   10.67700   10.67700  126.37910   -0.00630    -999.25    2.65490    0.03220    0.03220    7.91270    -999.25    -999.25    -999.25   47.93570   47.93570    7.91270    8.28980    -999.25   10.51760    8.28980    0.05650    0.05650    2.64780    9.02800  -59.63830  -59.03950   -4.23440    9.02800  329.18430
 7150.00000   10.62060   10.62060  134.80540   -0.00430    -999.25    2.66210    0.02800    0.02800    7.41810    -999.25    -999.25    -999.25   42.38650   42.38650    7.41810    8.41770    -999.25   10.39880    8.41770    0.05230    0.05230    2.64440    8.44940  -60.40610  -60.04360   -5.44150    8.44940  290.67240
 7200.00000   10.66820   10.66820  195.74830    0.00510    -999.25    2.66020    0.02910    0.02910    5.10860    -999.25    -999.25    -999.25   48.84740   48.84740    5.10860    5.33170    -999.25   10.48330    5.33170    0.11950    0.11950    2.65250    5.33450  -57.41350  -57.85630   -3.45710    5.33450  299.83080
 7250.00000   11.04810   11.04810  320.33830    0.10440    -999.25    2.23700    0.27660    0.27660    3.12170    -999.25    -999.25    -999.25   55.99950   55.99950    3.12170    3.60150    -999.25   10.89010    3.60150    0.21040    0.21040    2.28070    4.17600  -60.72680  -60.48160   -6.28530    4.17600  251.95330
 7300.00000   10.78940   10.78940  143.80010    0.00360    -999.25    2.66210    0.02800    0.02800    6.95410    -999.25    -999.25    -999.25   49.76320   49.76320    6.95410    8.05560    -999.25   10.63470    8.05560    0.09840    0.09840    2.64680    7.18720  -56.10440  -55.75040   -1.75710    7.18720  258.67710
 7350.00000   11.14610   11.14610  273.69520    0.11070    -999.25    2.32900    0.22280    0.22280    3.65370    -999.25    -999.25    -999.25   56.75980   56.75980    3.65370    3.74650    -999.25   11.10040    3.74650    0.15230    0.15230    2.33370    4.74410  -58.34620  -59.07760   -5.28720    4.74410  303.86640
 7400.00000   11.10500   11.10500  273.08980    0.07340    -999.25    2.61940    0.05300    0.05300    3.66180    -999.25    -999.25    -999.25   73.26910   73.26910    3.66180    3.67430    -999.25   11.22160    3.67430    0.20780    0.20780    2.61010    5.06690  -58.60870  -59.09200   -5.50450    5.06690  240.43420
 7450.00000   11.01790   11.01790  170.35190    0.01440    -999.25    2.66950    0.02370    0.02370    5.87020    -999.25    -999.25    -999.25   55.98080   55.98080    5.87020    6.39460    -999.25   10.71290    6.39460    0.10890    0.10890    2.64830    9.50930  -54.55170  -55.03020   -1.58200    9.50930   53.65520
 7500.00000   11.48580   11.48580  123.36080    0.03040    -999.25    2.66670    0.02530    0.02530    8.10630    -999.25    -999.25    -999.25   65.22040   65.22040    8.10630    9.23280    -999.25   10.90340    9.23280    0.06900    0.06900    2.66280   11.05120  -55.43130  -56.87860   -3.27970   11.05120  243.17200
 7550.00000   10.86870   10.86870  126.29930    0.00550    -999.25    2.66250    0.02780    0.02780    7.91770    -999.25    -999.25    -999.25   54.17490   54.17490    7.91770    9.08740    -999.25   10.68730    9.08740    0.08410    0.08410    2.65150    9.80320  -56.19500  -56.97270   -3.22310    9.80320  285.48460
 7600.00000   10.56640   10.56640   41.17730    0.00990    -999.25    2.66520    0.02620    0.02620   24.28520    -999.25    -999.25    -999.25   45.14780   45.14780   24.28520   27.99980    -999.25   10.20230   27.99980    0.03240    0.03240    2.65550   29.75410  -59.64120  -59.97850   -6.07820   29.75410  236.08910
 7650.00000   10.34960   10.34960   64.07010    0.04730    -999.25    2.66840    0.02430    0.02430   15.60790    -999.25    -999.25    -999.25   36.21600   36.21600   15.60790   21.32260    -999.25   10.19340   21.32260    0.04090    0.04090    2.65500   30.65710  -60.25220  -60.80150   -6.75040   30.65710  260.74890
 7700.00000   11.47660   11.47660  110.33140    0.05730    -999.25    2.68010    0.01750    0.01750    9.06360    -999.25    -999.25    -999.25   57.83570   57.83570    9.06360   15.99000    -999.25   10.18020   15.99000    0.01500    0.01500    2.66820   58.10330  -53.25850  -54.07930    0.12250   58.10330  264.09610
 7750.00000   10.24030   10.24030   50.82540    0.02590    -999.25    2.68670    0.01360    0.01360   19.67520    -999.25    -999.25    -999.25   29.25630   29.25630   19.67520   21.75000    -999.25   10.14300   21.75000    0.05060    0.05060    2.67340   32.78850  -56.17880  -56.60870   -2.53820   32.78850  337.09960
 7800.00000   11.04760   11.04760  263.45600   -0.04470    -999.25    2.38940    0.18750    0.18750    3.79570    -999.25    -999.25    -999.25   60.88410   60.88410    3.79570    4.15610    -999.25   11.99310    4.15610    0.16110    0.16110    1.99950    6.13300  -57.51370  -57.32270   -3.88480    6.13300  315.42200
 7850.00000   12.65480   12.65480  164.12010    0.04810    -999.25    2.63220    0.04550    0.04550    6.09310    -999.25    -999.25    -999.25   65.69630   65.69630    6.09310    4.71410    -999.25   10.62810    4.71410    0.08110    0.08110    2.60990   19.87250  -60.80180  -59.93130   -7.12600   19.87250  261.16860
 7900.00000   10.06970   10.06970  121.99290    0.02350    -999.25    2.67920    0.01800    0.01800    8.19720    -999.25    -999.25    -999.25   50.93950   50.93950    8.19720    9.07950    -999.25    9.99430    9.07950    0.06770    0.06770    2.66140    9.54300  -55.87350  -55.43540   -3.26270    9.54300  294.95550
 7950.00000   10.30760   10.30760  143.21930    0.05540    -999.25    2.67120    0.02270    0.02270    6.98230    -999.25    -999.25    -999.25   54.60850   54.60850    6.98230    9.24610    -999.25    9.98580    9.24610    0.08540    0.08540    2.66660   13.56470  -55.20040  -54.33400   -2.79390   13.56470  300.22420
 8000.00000   10.19550   10.19550   22.11870    0.03910    -999.25    2.69530    0.00860    0.00860   45.21060    -999.25    -999.25    -999.25   40.70430   40.70430   45.21060   54.17170    -999.25   10.17550   54.17170    0.01650    0.01650    2.68060   84.51560  -64.16390  -63.94890  -13.04130   84.51560  301.49510
 8050.00000   10.37100   10.37100  166.40320    0.01870    -999.25    2.63820    0.04200    0.04200    6.00950    -999.25    -999.25    -999.25   64.71780   64.71780    6.00950    6.61420    -999.25   10.17310    6.61420    0.11040    0.11040    2.62990    7.08720  -54.37420  -53.99840   -3.72340    7.08720  270.13570
 8100.00000   10.13430   10.13430   52.83090    0.03790    -999.25    2.69340    0.00970    0.00970   18.92830    -999.25    -999.25    -999.25   38.05190   38.05190   18.92830   19.42490    -999.25   10.01810   19.42490    0.04570    0.04570    2.68400   20.38290  -55.67780  -55.56750   -5.92510   20.38290  321.03160
 8150.00000   10.40720   10.40720   69.29720    0.05960    -999.25    2.48740    0.13020    0.13020   14.43060    -999.25    -999.25    -999.25   39.79250   39.79250   14.43060   15.99840    -999.25   10.26960   15.99840    0.08660    0.08660    2.49260   18.22550  -52.41200  -53.53730   -4.77120   18.22550  308.62860
 8200.00000   10.29330   10.29330   56.95510    0.03530    -999.25    2.68610    0.01400    0.01400   17.55770    -999.25    -999.25    -999.25   52.95450   52.95450   17.55770   23.31070    -999.25   10.14920   23.31070    0.00480    0.00480    2.67300   95.90720  -67.43040  -66.55880  -24.51790   95.90720  327.54700
 8250.00000   10.29080   10.29080   22.68930    0.00780    -999.25    2.71560   -0.00330   -0.00330   44.07370    -999.25    -999.25    -999.25   46.78520   46.78520   44.07370   83.13440    -999.25   10.04920   83.13440    0.00690    0.00690    2.68420  126.86770  -70.90800  -69.47930  -31.09050  126.86770  281.65770
