~Version ---------------------------------------------------
VERS. 2.0 : CWLS log ASCII Standard -VERSION 2.0
WRAP.  NO : ONE LINE PER DEPTH STEP
~Well ------------------------------------------------------
STRT.F                     300.0 : START DEPTH
STOP.F                   19600.0 : STOP DEPTH
STEP.F                  50.00000 : STEP LENGTH
NULL.                    -999.25 : NULL VALUE
COMP. CITIES SERVICE OIL COMPANY : COMPANY
WELL.          PEELER RANCH A #1 : WELL
FLD .                    WILDCAT : FIELD
LOC .                            : LOCATION
CNTY.                   ATASCOSA : COUNTY
STAT.                      TEXAS : STATE
CTRY.   UNITED STATES OF AMERICA : COUNTRY
SRVC.               Schlumberger : SERVICE COMPANY
DATE.                12-Feb-1972 : LOGDATE
API .             42013301410000 : API NUMBER
UWI .             42013301410000 : UNIQUE WELL ID
SLAT.WGS84         28.6903618688 : SURFACE LATITUDE
SLON.WGS84        -98.4697337546 : SURFACE LONGITUDE
~Curve Information -----------------------------------------
DEPT.F                 : 
GRD .GAPI 45 310 01 00 : GAMMA RAY FROM DENSITY LOG
CALD.IN   45 280 60 00 : CALIPER FROM DENSITY LOG
CORR.G/C3 45 356 01 00 : DENSITY CORRECTION
RHOB.G/C3 45 350 01 00 : BULK DENSITY
GRS .GAPI 60 310 01 00 : GAMMA RAY FROM SONIC LOG
DT  .US/F 60 500 32 00 : DELTA-T (INTERVAL TRANSIT TIME)
CALS.IN   60 280 50 00 : CALIPER FROM SONIC LOG
ALL8.OHMM 05 221 08 00 : AMPLIFIED LATEROLOG-8
ILD .OHMM 05 120 46 00 : INDUCTION LOG DEEP
ASN .OHMM 05 041 16 00 : AMPLIFIED SHORT NORMAL 16"
CILD.MMHO 05 110 46 00 : CONDUCTIVITY INDUCTION LOG DEEP
SPR .MV   05 010 01 00 : SPONTANEOUS POTENTIAL FROM RES.
NEUT.NAPI 35 330 01 00 : NEUTRON
SNP .DEC  41 890 01 00 : SIDEWALL NEUTRON POROSITY
~Params ----------------------------------------------------
PD  .                     GL : PERMANENT DATUM
EPD .F                   297 : ELEVATION PERMANENT DATUM
LMF .                     KB : LOG MEASURED FROM
DAPD.F                  30.5 : FEET ABOVE PERMANENT DATUM
DMF .                     KB : DRILLING MEASURED FROM
EKB .F                 327.5 : KELLING BUSHING
EDF .F                 326.5 : DRILLING FLOOR
EGL .F                   297 : GROUND LEVEL
DATE.             02-12-1972 : RUN DATE
RUN .                      9 : RUN NUMBER
DD  .F                 19629 : DEPTH DRILLER
DL  .F                 19635 : DEPTH LOGGER
BLI .F                 19628 : BOTTOM LOG INTERVAL
TLI .F                 19127 : TOP LOG INTERVAL
BS  .IN                  4.4 : BIT SIZE
BSD .F                 19629 : BIT SIZE AT DEPTH
DFT .       INVERMUL 43% OIL : DRILLING FLUID TYPE
DFD .                   19.1 : DRILLING FLUID DENSITY
DFV .                     88 : DRILLING FLUID VISCOSITY
TCS .HRS                  12 : TIME CURCULATED STOPPED
LUN .                   7504 : LOGGING UNIT NUMBER
LUL .                  PLEAS : LOGGING UNIT LOCATION
ENGI.               CLEMENTS : RECORDING ENGINEER
WITN.         GRIGSBY THOMAS : WITNESSED BY
CLNT.                A2DTECH : CLIENT CODE
ORIG.            2" 5" PRINT : ORIGIN OF DATA
UWI .         42013301410000 : UNIQUE WELL ID
DICO. A2D Technologies, Inc. : DIGITIZING COMPANY
~Other -----------------------------------------------------
~ASCII -----------------------------------------------------
# ...
 17300.00000  110.18580    7.12140   -0.05310    2.74390   74.21200   62.32920    6.68450    -999.25    3.28750    -999.25  122.15140    -999.25  841.13100    -999.25
 17350.00000   91.22910    7.11420   -0.06270    2.70490   97.54450   66.92130    6.68890    -999.25    3.95920    -999.25  119.57880    -999.25  760.61410    -999.25
 17400.00000   90.57770    7.10550   -0.05770    2.74330   91.01970   63.80200    6.72110    -999.25    3.84940    -999.25  110.27860    -999.25  841.94020    -999.25
 17450.00000  102.26340    7.13910   -0.05350    2.75490   88.67600   63.86210    6.71190    -999.25    2.82160    -999.25  150.99600    -999.25  808.82850    -999.25
 17500.00000   93.43760    7.13640   -0.06210    2.81110   85.15070   62.84980    6.71070    -999.25    2.46000    -999.25  169.14780    -999.25  807.66400    -999.25
 17550.00000   83.77550    7.12960   -0.04870    2.80080   63.64290   56.74360    6.71790    -999.25    3.36380    -999.25  133.46610    -999.25  973.49890    -999.25
 17600.00000   80.90240    7.12230   -0.06470    2.74490   74.85220   63.94460    6.73470    -999.25    3.62300    -999.25  147.47010    -999.25  987.49480    -999.25
 17650.00000   54.45140    7.08990   -0.05770    2.79580   64.92440   61.77560    6.72820    -999.25    3.90830    -999.25  119.12350    -999.25 1407.17110    -999.25
 17700.00000   73.24040    7.14070   -0.07120    2.80160   63.95540   61.60560    6.73000    -999.25    3.24110    -999.25  146.84120    -999.25  857.72030    -999.25
 17750.00000   62.70720    7.13350   -0.04340    2.72130   81.68330   63.73610    6.73800    -999.25    7.30780    -999.25  118.01700    -999.25 1588.59380    -999.25
 17800.00000   60.59870    7.11790   -0.05100    2.76290   70.66790   61.18850    6.74250    -999.25    6.65020    -999.25  103.70080    -999.25 1314.29720    -999.25
 17850.00000   34.04790    7.04470   -0.06790    2.75180   31.66690   51.00710    6.74850    -999.25   14.76200    -999.25   29.08370    -999.25 2157.47830    -999.25
 17900.00000   64.22610    7.08170   -0.06340    2.83530   62.34510   59.69620    6.77470    -999.25    5.80210    -999.25   85.48400    -999.25  902.54400    -999.25
 17950.00000   46.47800    7.09940   -0.06060    2.79790   47.30550   55.62070    6.78160    -999.25    6.98650    -999.25   57.65510    -999.25 1126.13670    -999.25
 18000.00000   19.16680    7.07520   -0.04630    2.94720   17.73780   52.61190    6.76680    -999.25   46.60480    -999.25    -999.25    -999.25 2580.16210    -999.25
 18050.00000   25.23160    7.05260   -0.05490    2.87860   16.48090   52.89720    6.79390    -999.25   20.72230    -999.25   23.73360    -999.25 2532.70210    -999.25
 18100.00000   57.71440    7.07200   -0.04600    2.90600   35.32290   57.40240    6.79600    -999.25    7.18910    -999.25   96.11620    -999.25 2157.65010    -999.25
 18150.00000   23.56090    7.13460   -0.05890    2.92500   52.96220   55.07530    6.88720    -999.25   36.42060    -999.25   19.40810    -999.25 3100.36870    -999.25
 18200.00000   32.44710    6.99220   -0.03980    2.81150   46.18530   50.25300    6.61640    -999.25   48.79570    -999.25   13.94420    -999.25 3140.43210    -999.25
 18250.00000   25.70650    6.99350   -0.06590    2.90780   54.68630   53.75770    6.63680    -999.25    7.16470    -999.25    -999.25    -999.25 2487.22140    -999.25
 18300.00000   19.22670    7.01770   -0.04540    2.88440   43.77480   50.71220    6.59870    -999.25   29.25330    -999.25    -999.25    -999.25 3008.80030    -999.25
 18350.00000   38.75270    7.01410   -0.04580    2.72300   59.59250   58.60210    6.59650    -999.25    0.79520    -999.25  199.60160    -999.25 1339.80740    -999.25
 18400.00000   40.30960    7.00180   -0.06790    2.83560   49.56410   54.34860    6.61440    -999.25    8.25860    -999.25   61.70860    -999.25 1692.91140    -999.25
 18450.00000   15.55680    7.03250   -0.06630    2.79770   47.41500   55.59960    6.62070    -999.25    6.85810    -999.25   46.54710    -999.25 2543.93920    -999.25
 18500.00000   22.43380    6.96040   -0.05010    2.94110   34.18820   51.66000    6.61300    -999.25   22.75460    -999.25   32.17130    -999.25 2451.05300    -999.25
 18550.00000   16.05330    7.05900   -0.06080    2.87160   30.23660   51.96680    6.61120    -999.25   15.78290    -999.25   40.77030    -999.25 2817.96240    -999.25
 18600.00000   24.58240    -999.25   -0.05050    2.85340   41.85910   56.90860    -999.25    -999.25    9.83340    -999.25   36.46630    -999.25 2874.88770    -999.25
 18650.00000   19.54090    -999.25   -0.05930    2.89220   41.65580   54.65290    -999.25    -999.25   11.42080    -999.25   32.27090    -999.25 2204.87790    -999.25
 18700.00000   13.33340    -999.25   -0.06490    2.76420   29.69400   50.40020    -999.25    -999.25   11.92490    -999.25   36.11150    -999.25 3826.58640    -999.25
 18750.00000   10.84050    -999.25   -0.04700    2.90020   25.63500   52.19120    -999.25    -999.25   21.52110    -999.25   27.49000    -999.25 4048.02640    -999.25
 18800.00000   11.52080    -999.25   -0.06150    2.85190   23.57600   51.34610    -999.25    -999.25   30.76970    -999.25   15.52590    -999.25 4774.51860    -999.25
 18850.00000    8.52220    -999.25   -0.06220    2.88370   20.87170   51.83850    -999.25    -999.25   45.08260    -999.25   11.11740    -999.25 4979.82320    -999.25
 18900.00000    3.86720    -999.25   -0.05500    2.72490   16.01590   49.02750    -999.25    -999.25   49.77860    -999.25   10.92170    -999.25 5905.06540    -999.25
 18950.00000    3.68320    -999.25   -0.06310    2.71030    8.28370   50.67200    -999.25    -999.25   47.77970    -999.25   10.50180    -999.25 5695.88870    -999.25
 19000.00000    4.66850    -999.25   -0.07160    2.73500   14.53690   49.19890    -999.25    -999.25    2.67130    -999.25  127.60450    -999.25 1925.33250    -999.25
 19050.00000    5.67180    -999.25   -0.05550    2.69920   14.44460   52.14920    -999.25    -999.25    4.75660    -999.25  104.20000    -999.25 5734.30960    -999.25
 19100.00000    5.12140    -999.25   -0.06330    2.80610   12.88700   47.22670    -999.25    -999.25   20.41460    -999.25   18.38860    -999.25 4183.19040    -999.25
 19150.00000    3.69080    -999.25    -999.25    2.84830    3.34500   46.17660    -999.25    -999.25   37.56360    -999.25    9.63880    -999.25 4656.99800    -999.25
 19200.00000    6.19110    -999.25    -999.25    2.78600    6.23840   45.42000    -999.25    -999.25   22.81970    -999.25   25.81900    -999.25 4575.49900    -999.25
 19250.00000    6.03880    -999.25    -999.25    2.84390    5.24000   45.03850    -999.25    -999.25   73.90330    -999.25    -999.25    -999.25 5050.32860    -999.25
 19300.00000    9.40710    5.15400    -999.25    2.78190    8.79890   47.46880    -999.25    -999.25   34.86000    -999.25   11.86030    -999.25 4833.62450    -999.25
 19350.00000   15.33930    5.31190    -999.25    2.74060   12.87540   49.16430    -999.25    -999.25   42.77320    -999.25    9.13270    -999.25 4624.58980    -999.25
 19400.00000   17.10340    5.40710    -999.25    2.70420   20.35440   51.93330    -999.25    -999.25   47.01620    -999.25    9.10560    -999.25 4256.65720    -999.25
 19450.00000   11.25510    5.26840    -999.25    2.70140   11.54850   50.31960    -999.25    -999.25   63.69130    -999.25    6.77290    -999.25 5142.50930    -999.25
 19500.00000   15.87390    5.51940    -999.25    2.69510   15.28140   50.80940    -999.25    -999.25   39.04800    -999.25   10.64980    -999.25 4549.21390    -999.25
 19550.00000   16.80330    5.45410    -999.25    2.71610   16.57960   48.87860    -999.25    -999.25   49.39900    -999.25    7.78900    -999.25 5102.92920    -999.25
 19600.00000   34.79420    6.02810    -999.25    2.77830   30.69830   48.91780    -999.25    -999.25   15.78000    -999.25   27.53980    -999.25 3153.31910    -999.25
