~Version ---------------------------------------------------
VERS. 2.0 : CWLS log ASCII Standard -VERSION 2.0
WRAP. YES : MULTIPLE LINES PER DEPTH STEP
~Well ------------------------------------------------------
STRT.FT                 3700.0 : START DEPTH
STOP.FT                11650.0 : STOP DEPTH
STEP.FT               50.00000 : STEP LENGTH
NULL.                  -999.25 : NULL VALUE
COMP.     LA SALLE ENERGY CORP : COMPANY
WELL.                   PAM #1 : WELL
FLD .                  WILDCAT : FIELD
LOC .                          : LOCATION
CNTY.                   GRIMES : COUNTY
STAT.                    TEXAS : STATE
CTRY. UNITED STATES OF AMERICA : COUNTRY
SRVC.             Schlumberger : SERVICE COMPANY
DATE.              15-May-1981 : LOGDATE
API .           42185302670000 : API NUMBER
UWI .           42185302670000 : UNIQUE WELL ID
SLAT.WGS84       30.7678132029 : SURFACE LATITUDE
SLON.WGS84      -95.8888588158 : SURFACE LONGITUDE
~Curve Information -----------------------------------------
DEPT    .FT    : DEPTH FEET
CALWS   .IN    : CALIPER [DCALED+8.75]
CONDWS  .MMHO  : CONDUCTIVITY [1000/DRESWS]
DCALRED .IN    : DIFFERENTIAL CALIPER FROM RES. LOG
DCORWS  .G/C3  : DENSITY CORRECTION [DRHOED]
DENWS   .G/C3  : BULK DENSITY [CALCULATED FROM DPOWS][M=2.65 F=1.0]<9830>[M=2.71 F=1.0]<10130>[M=2.68 F=1.0]<11075>[M=2.71 F=1.0] TO TD
DPHILSED.V/V   : DENSITY POROSITY [M=2.71 F=1.0] FROM DENSITY LOG
DPHISSED.V/V   : DENSITY POROSITY [M=2.65 F=1.0] FROM DENSITY LOG
DPOWS   .V/V   : DENSITY POROSITY SNADSTONE [DPHISSED]<9830>[DPHILSED]<10130>[DPHISSED]<11075>[DPHILSED] TO TD
DRESWS  .OHMM  : DEEP RESISTIVITY [ILDED]
DRHOED  .G/C3  : DENSITY CORRECTION FROM DENSITY LOG
GRRED   .GAPI  : GAMMA RAY FROM RESISTIVITY LOG
GRWS    .GAPI  : GAMMA RAY [GRRED]
ILDED   .OHMM  : INDUCTION LOG DEEP RESISTIVITY
ILMED   .OHMM  : INDUCTION LOG MEDIUM RESISTIVITY
MRESWS  .OHMM  : MEDIUM RESISTIVITY [ILMED]
NPHILSED.V/V   : NEUTRON POROSITY LIMESTONE FROM DENSITY LOG
NPHISSED.V/V   : NEUTRON POROSITY SANDSTONE FROM DENSITY LOG
NPOWS   .V/V   : NEUTRON POROSITY SANDSTONE [NPHISSED]<9830>[NPHILSED]<10130>[NPHISSED]<11075>[NPHILSED] TO TD
SFLUED  .OHMM  : SPHERICALLY FOCUSED LOG RESISTIVITY
SPRED   .MV    : SPONTANEOUS POTENTIAL FROM RESISTIVITY LOG
SPWS    .MV    : SPONTANEOUS POTENTIAL [BASELINE 0 MV] [SPRED]
SRESWS  .OHMM  : SHALLOW RESISTIVITY [SFLUED]
TENRED  .LBF   : TENSION FROM RESISTIVITY LOG
~Params ----------------------------------------------------
PD  .                     GL : PERMANENT DATUM
EPD .FT                  259 : ELEVATION PERMANENT DATUM
LMF .                    TKB : LOG MEASURED FROM
DAPD.FT                   13 : FEET ABOVE PERMANENT DATUM
DMF .                    TKB : DRILLING MEASURED FROM
EKB .FT                  272 : KELLY BUSHING
EDF .FT                  271 : DRILLING FLOOR
EGL .FT                  259 : GROUND LEVEL
DATE.               05/15/81 : RUN DATE
RUN .                      1 : RUN NUMBER
DD  .FT                11590 : DEPTH DRILLER
DL  .FT                11619 : DEPTH LOGGER
BLI .FT                11616 : BOTTOM LOG INTERVAL
TLI .FT                 3730 : TOP LOG INTERVAL
CS  .IN                9.625 : CASING SIZE
CBD .FT                 3819 : CASING BOTTOM DRILLER
CBL .FT                 3730 : CASING BOTTOM LOGGER
BS  .IN                 8.75 : BIT SIZE
BSD .FT                11590 : BIT SIZE AT DEPTH
DFT .                  GELEX : DRILLING FLUID TYPE
DFD .                    9.6 : DRILLING FLUID DENSITY
DFV .                     44 : DRILLING FLUID VISCOSITY
DFPH.                      9 : DRILLING FLUID PH
DFL .                    6.6 : DRILLING FLUID LOSS
MSS .               CIRC PIT : MUD SAMPLE SOURCE
RMS .OHMM                1.7 : RESISTIVITY MUD SAMPLE
MST .DEGF                 75 : MUD SAMPLE TEMPERATURE
RMF .OHMM               1.38 : RESISTIVITY MUD FILTRATE SAMPLE
MFST.DEGF                 75 : MUD FILTRATE SAMPLE TEMPERATURE
RMC .OHMM               2.04 : RESISTIVITY MUD CAKE
MCST.DEGF                 75 : MUD CAKE SAMPLE TEMPERATURE
MFSS.                      M : MUD FILTRATE SAMPLE SOURCE
MCSS.                      C : MUD CAKE SAMPLE SOURCE
RMB .OHMM              0.557 : RESISTIVITY MUD AT BHT
TCS .HRS                1300 : TIME CIRCULATED STOPPED
TLAB.HRS                2300 : TIME LOGGER AT BOTTOM
LUN .                   8066 : LOGGING UNIT NUMBER
LUL .                 DAYTON : LOGGING UNIT LOCATION
ENGI.               HARRISON : RECORDING ENGINEER
WITN.                  DUKES : WITNESSED BY
CLNT.                A2DTECH : CLIENT CODE
ORIG.            2" 5" PRINT : ORIGIN OF DATA
UWI .         42185302670000 : UNIQUE WELL ID
DICO. A2D Technologies, Inc. : DIGITIZING COMPANY
~Other -----------------------------------------------------
~ASCII -----------------------------------------------------
# ...
 5250.00000    9.51150  547.37530    0.76150    0.07640    2.46670    -999.25    0.11110    0.11110    1.82690    0.07640   91.84340   91.84340    1.82690    2.38870    2.38870    -999.25    0.28070    0.28070    4.22370  -30.50680  -23.82490    4.22370 2825.32690
 5300.00000    8.84680 2738.22560    0.09680    0.01570    2.21870    -999.25    0.26140    0.26140    0.36520    0.01570   54.82980   54.82980    0.36520    0.45530    0.45530    -999.25    0.28170    0.28170    1.83970  -99.40090  -92.91920    1.83970 2843.38160
 5350.00000    8.85000 1689.76010    0.10000    0.04890    2.25400    -999.25    0.24000    0.24000    0.59180    0.04890   66.42130   66.42130    0.59180    0.78550    0.78550    -999.25    0.30890    0.30890    3.09420  -87.00490  -80.72330    3.09420 2906.76340
 5400.00000    8.87400 2721.08840    0.12400    0.04580    2.24390    -999.25    0.24610    0.24610    0.36750    0.04580   50.62640   50.62640    0.36750    0.43440    0.43440    -999.25    0.29510    0.29510    1.36370  -96.85720  -90.77570    1.36370 2912.02560
 5450.00000    9.27940 1176.60900    0.52940    0.05070    2.33220    -999.25    0.19260    0.19260    0.84990    0.05070   85.41410   85.41410    0.84990    1.48170    1.48170    -999.25    0.27130    0.27130    5.48180  -90.03860  -84.15720    5.48180 2933.20830
 5500.00000    9.30170 1656.45190    0.55170    0.01150    2.24890    -999.25    0.24310    0.24310    0.60370    0.01150   62.73480   62.73480    0.60370    1.04680    1.04680    -999.25    0.28680    0.28680    3.95600  -93.56770  -87.88650    3.95600 2963.71460
 5550.00000    9.71140  906.37180    0.96140    0.02220    2.30930    -999.25    0.20650    0.20650    1.10330    0.02220   85.66770   85.66770    1.10330    1.68940    1.68940    -999.25    0.26800    0.26800    5.18860  -61.59800  -56.11690    5.18860 2979.74760
 5600.00000    9.65990  544.09920    0.90990    0.05850    2.52410    -999.25    0.07630    0.07630    1.83790    0.05850  121.12120  121.12120    1.83790    1.92460    1.92460    -999.25    0.29930    0.29930    2.45140   -2.81020   -0.01480    2.45140 3003.03170
 5650.00000    8.84150 3072.19650    0.09150    0.03940    2.22940    -999.25    0.25490    0.25490    0.32550    0.03940   55.43590   55.43590    0.32550    0.44690    0.44690    -999.25    0.28380    0.28380    2.51720 -104.49580  -98.86690    2.51720 3198.86210
 5700.00000    8.95090 2024.70130    0.20090    0.04130    2.27120    -999.25    0.22960    0.22960    0.49390    0.04130   56.19080   56.19080    0.49390    0.67890    0.67890    -999.25    0.27370    0.27370    2.73120 -103.40850  -98.07570    2.73120 3021.24730
 5750.00000    9.45980  539.02550    0.70980    0.07240    2.47130    -999.25    0.10830    0.10830    1.85520    0.07240  123.43070  123.43070    1.85520    1.72590    1.72590    -999.25    0.37040    0.37040    1.76230  -15.91290  -10.87620    1.76230 3038.63550
 5800.00000    8.98480 1534.68380    0.23480    0.02420    2.27810    -999.25    0.22540    0.22540    0.65160    0.02420   68.29820   68.29820    0.65160    1.02410    1.02410    -999.25    0.28280    0.28280    3.74040  -92.16150  -92.13150    3.74040 3091.97530
 5850.00000    9.25150  722.70000    0.50150    0.05030    2.42150    -999.25    0.13850    0.13850    1.38370    0.05030   90.30100   90.30100    1.38370    2.05940    2.05940    -999.25    0.29230    0.29230    5.51050  -57.36660  -52.52750    5.51050 3080.85990
 5900.00000    8.85230 1674.48100    0.10230    0.03240    2.31060    -999.25    0.20570    0.20570    0.59720    0.03240   69.58700   69.58700    0.59720    0.98290    0.98290    -999.25    0.27510    0.27510    5.33960  -89.06410  -84.39800    5.33960 3071.32500
 5950.00000    8.83650 1597.95460    0.08650    0.05250    2.35430    -999.25    0.17920    0.17920    0.62580    0.05250   62.09840   62.09840    0.62580    1.03420    1.03420    -999.25    0.28010    0.28010    6.38570  -96.91500  -92.42200    6.38570 3106.96410
 6000.00000    8.72900 2255.30000   -0.02100    0.03840    2.26820    -999.25    0.23140    0.23140    0.44340    0.03840   61.80540   61.80540    0.44340    0.60100    0.60100    -999.25    0.28360    0.28360    2.80360  -99.65030  -95.33030    2.80360 3137.54570
 6050.00000    8.77750 1449.27540    0.02750    0.05430    2.36500    -999.25    0.17270    0.17270    0.69000    0.05430   72.05520   72.05520    0.69000    0.89260    0.89260    -999.25    0.30330    0.30330    2.43410  -88.60120  -84.45420    2.43410 3157.67920
 6100.00000    8.65070 1527.65040   -0.09930    0.05820    2.27410    -999.25    0.22780    0.22780    0.65460    0.05820   69.12750   69.12750    0.65460    1.07700    1.07700    -999.25    0.28250    0.28250    5.18340  -93.93520  -89.96130    5.18340 3158.77050
 6150.00000    9.67690 2346.86690    0.92690    0.01660    2.25520    -999.25    0.23930    0.23930    0.42610    0.01660   68.21290   68.21290    0.42610    0.56060    0.56060    -999.25    0.23410    0.23410    1.87410  -77.16440  -73.36350    1.87410 3200.74900
 6200.00000   10.31500  423.85460    1.56500    0.02010    2.50960    -999.25    0.08510    0.08510    2.35930    0.02010   94.76340   94.76340    2.35930    3.04350    3.04350    -999.25    0.23140    0.23140    5.69930  -22.88900  -19.26110    5.69930 3216.82350
 6250.00000    9.72450  735.24010    0.97450    0.04190    2.46420    -999.25    0.11260    0.11260    1.36010    0.04190  101.11570  101.11570    1.36010    1.58960    1.58960    -999.25    0.28100    0.28100    2.71560  -15.99440  -12.53960    2.71560 3303.69410
 6300.00000    8.90520  788.02200    0.15520    0.02660    2.34570    -999.25    0.18440    0.18440    1.26900    0.02660   68.16340   68.16340    1.26900    1.89660    1.89660    -999.25    0.25590    0.25590    6.39310  -61.52930  -58.24750    6.39310 3257.20020
 6350.00000    8.84860  575.73840    0.09860    0.03680    2.45180    -999.25    0.12010    0.12010    1.73690    0.03680   94.43200   94.43200    1.73690    2.17480    2.17480    -999.25    0.27530    0.27530    4.53500  -28.12960  -25.02090    4.53500 3250.45730
 6400.00000    8.98640  369.54910    0.23640    0.06260    2.07050    -999.25    0.35120    0.35120    2.70600    0.06260   92.91520   92.91520    2.70600    3.55660    3.55660    -999.25    0.46130    0.46130    5.77200  -40.36780  -37.43210    5.77200 3274.98240
 6450.00000    8.96070  442.14530    0.21070    0.07730    2.47490    -999.25    0.10610    0.10610    2.26170    0.07730  108.01470  108.01470    2.26170    2.42410    2.42410    -999.25    0.28080    0.28080    3.02620   -6.24520   -3.48250    3.02620 3297.84770
 6500.00000    8.77930 1496.33400    0.02930    0.04500    2.33650    -999.25    0.19000    0.19000    0.66830    0.04500   53.36350   53.36350    0.66830    1.05490    1.05490    -999.25    0.26160    0.26160    6.07890  -99.70910  -97.11950    6.07890 3335.09770
 6550.00000    8.83010 2192.02100    0.08010    0.02640    2.30660    -999.25    0.20810    0.20810    0.45620    0.02640   55.08490   55.08490    0.45620    0.64000    0.64000    -999.25    0.27950    0.27950    1.47240  -97.74670  -95.33010    1.47240 3328.11400
 6600.00000    8.90160 2848.19140    0.15160    0.03720    2.26900    -999.25    0.23090    0.23090    0.35110    0.03720   57.27630   57.27630    0.35110    0.47710    0.47710    -999.25    0.27920    0.27920    0.85650 -105.75800 -103.51440    0.85650 3365.54250
 6650.00000    8.77120 2245.17290    0.02120    0.02860    2.27260    -999.25    0.22870    0.22870    0.44540    0.02860   53.86450   53.86450    0.44540    0.53460    0.53460    -999.25    0.26980    0.26980    1.06660 -105.71850 -103.64800    1.06660 3382.07060
 6700.00000    8.99380 1483.67940    0.24380    0.01370    2.28490    -999.25    0.22130    0.22130    0.67400    0.01370   53.61150   53.61150    0.67400    1.01160    1.01160    -999.25    0.26270    0.26270    4.75250 -108.39230 -106.49480    4.75250 3393.09960
 6750.00000    9.30140  485.03660    0.55140    0.04170    2.54700    -999.25    0.06240    0.06240    2.06170    0.04170   88.48600   88.48600    2.06170    2.12180    2.12180    -999.25    0.26860    0.26860    2.83550  -19.12900  -17.40450    2.83550 3499.17310
