~Version ---------------------------------------------------
VERS. 2.0 : CWLS log ASCII Standard -VERSION 2.0
WRAP.  NO : ONE LINE PER DEPTH STEP
~Well ------------------------------------------------------
STRT.F                    3400.0 : START DEPTH
STOP.F                    8750.0 : STOP DEPTH
STEP.F                  50.00000 : STEP LENGTH
NULL.                    -999.25 : NULL VALUE
COMP. CHAMPLIN PETROLEUM COMPANY : COMPANY
WELL.     CHARLES PATRANELLA  #1 : WELL
FLD .                     KURTEN : FIELD
LOC .                            : LOCATION
CNTY.                     BRAZOS : COUNTY
STAT.                      TEXAS : STATE
CTRY.   UNITED STATES OF AMERICA : COUNTRY
SRVC.               Schlumberger : SERVICE COMPANY
DATE.                19-Jul-1982 : LOGDATE
API .             42041307630000 : API NUMBER
UWI .             42041307630000 : UNIQUE WELL ID
SLAT.WGS84         30.7304455515 : SURFACE LATITUDE
SLON.WGS84        -96.3661208898 : SURFACE LONGITUDE
~Curve Information -----------------------------------------
DEPT.F                 : 
DCAL.IN   06 280 01 00 : DIFFERENTIAL CALIPER
DPHI.DEC  45 890 10 00 : DENSITY POROSITY
DRHO.G/C3 45 356 01 00 : BULK DENSITY CORRECTION
GRR .GAPI 06 310 01 00 : GAMMA RAY FROM RESISTIVITY
ILD .OHMM 06 120 46 00 : INDUCTION DEEP RESISTIVITY
ILM .OHMM 06 120 44 00 : INDUCTION MEDIUM RESISTIVITY
NPHI.DEC  42 890 01 00 : NEUTRON POROSITY
RHOB.G/C3 45 350 01 00 : BULK DENSITY
SFLU.OHMM 06 220 01 00 : SFL RESISTIVITY (UNAVERAGED)
SPR .MV   06 010 01 00 : SPONTANEOUS POTENTIAL FROM RESISTIVITY
~Params ----------------------------------------------------
PD  .                     GL : PERMANENT DATUM
EPD .FT                  347 : ELEVATION PERMANENT DATUM
LMF .                    RKB : LOG MEASURED FROM
DAPD.FT                   15 : FEET ABOVE PERMANENT DATUM
DMF .                    RKB : DRILLING MEASURED FROM
EKB .FT                  362 : KELLY BUSHING
EDF .FT                  361 : DRILLING FLOOR
EGL .FT                  347 : GROUND LEVEL
DATE.               07/19/82 : RUN DATE
RUN .                      1 : RUN NUMBER
DD  .FT                 8750 : DEPTH DRILLER
DL  .FT                 8754 : DEPTH LOGGER
BLI .FT                 8750 : BOTTOM LOG INTERVAL
TLI .FT                 3395 : TOP LOG INTERVAL
CS  .IN                9.675 : CASING SIZE
CBD .FT                 3395 : CASING BOTTOM DRILLER
CBL .FT                 3395 : CASING BOTTOM LOGGER
BS  .IN                 8.75 : BIT SIZE
BSD .FT                 8750 : BIT SIZE AT DEPTH
DFT .                 BEN EX : DRILLING FLUID TYPE
DFD .                    9.6 : DRILLING FLUID DENSITY
DFV .                     34 : DRILLING FLUID VISCOSITY
DFPH.                      9 : DRILLING FLUID PH
DFL .                      6 : DRILLING FLUID LOSS
MSS .               FLOWLINE : MUD SAMPLE SOURCE
RMS .OHMM                2.5 : RESISTIVITY MUD SAMPLE
MST .DEGF                114 : MUD SAMPLE TEMPERATURE
RMF .OHMM                2.0 : RESISTIVITY MUD FILTRATE SAMPLE
MFST.DEGF                114 : MUD FILTRATE SAMPLE TEMPERATURE
RMC .OHMM               3.75 : RESISTIVITY MUD CAKE
MCST.DEGF                114 : MUD CAKE SAMPLE TEMPERATURE
MFSS.             CALCULATED : MUD FILTRATE SAMPLE SOURCE
MCSS.             CALCULATED : MUD CAKE SAMPLE SOURCE
RMB .OHMM              1.567 : RESISTIVITY MUD AT BHT
TCS .HRS                 200 : TIME CIRCULATED STOPPED
TLAB.HRS                 730 : TIME LOGGER AT BOTTOM
LUN .                   8176 : LOGGING UNIT NUMBER
LUL .                BRENHAM : LOGGING UNIT LOCATION
ENGI.                MARANUK : RECORDING ENGINEER
WITN.                  VODAK : WITNESSED BY
CLNT.                A2DTECH : CLIENT CODE
ORIG.               5" PRINT : ORIGIN OF DATA
UWI .         42041307630000 : UNIQUE WELL ID
DICO. A2D Technologies, Inc. : DIGITIZING COMPANY
~Other -----------------------------------------------------
~ASCII -----------------------------------------------------
# ...
 6700.00000    1.82090    -999.25    -999.25   85.33330    1.24470    1.23100    -999.25    -999.25    1.33330  -14.31920
 6750.00000    1.79110    -999.25    -999.25   83.77780    1.48820    1.45220    -999.25    -999.25    1.56160  -13.57960
 6800.00000    1.64180    -999.25    -999.25   85.33330    1.69300    1.73680    -999.25    -999.25    1.79170  -14.02270
 6850.00000    1.85080    -999.25    -999.25   85.77780    1.45780    1.57260    -999.25    -999.25    1.57240  -14.77490
 6900.00000    2.41790    -999.25    -999.25   90.44300    1.44640    1.45220    -999.25    -999.25    1.58320  -17.12940
 6950.00000    2.41800    -999.25    -999.25   77.55410    1.71930    1.76090    -999.25    -999.25    1.77960  -15.79930
 7000.00000    2.71650    -999.25    -999.25   81.77700    1.69590    1.72490    -999.25    -999.25    1.73120  -15.94670
 7050.00000    2.41800    -999.25    -999.25   90.66670    1.58640    1.64370    -999.25    -999.25    1.61650  -16.24260
 7100.00000    2.14930    -999.25    -999.25   87.55500    2.12760    2.13520    -999.25    -999.25    2.40790  -16.24260
 7150.00000    3.10450    -999.25    -999.25   90.66590    1.69590    1.72490    -999.25    -999.25    1.81650  -19.20190
 7200.00000    3.68360    -999.25    -999.25   89.11070    1.90610    1.95240    -999.25    -999.25    2.12760  -21.12480
 7250.00000    4.44780    -999.25    -999.25   73.99980    1.52970    1.57720    -999.25    -999.25    1.73120  -20.82890
 7300.00000    5.25370    -999.25    -999.25   75.77690    1.60180    1.65510    -999.25    -999.25    1.80410  -20.53250
 7350.00000    6.53730    -999.25    -999.25   72.44390    1.73120    1.79760    -999.25    -999.25    2.15710  -26.00590
 7400.00000    6.80590    -999.25    -999.25   68.66480    1.44470    1.49270    -999.25    -999.25    1.69590  -22.75220
 7450.00000    6.15520    -999.25    -999.25   75.55500    1.52970    1.58810    -999.25    -999.25    1.76730  -20.97630
 7500.00000    3.14530    -999.25    -999.25   65.29090    2.50750    2.59490    -999.25    -999.25    3.08380  -18.38280
 7550.00000    5.10380    -999.25    -999.25   81.39380    2.52750    2.63400    -999.25    -999.25    2.82290  -16.60490
 7600.00000    4.30270    0.07980    0.07920   82.72060    1.91940    1.94170    0.24790    2.57060    2.12940  -19.22890
 7650.00000    1.92320    0.07890    0.00040   43.67650    4.48960    4.82090    0.09680    2.60010    6.63470  -16.32470
 7700.00000    1.54300    0.05570   -0.00090   41.02830    6.09790    6.15350    0.09770    2.61910    5.90700  -18.48710
 7750.00000    1.39460    0.05570    0.01230   33.51940    9.63240    9.92410    0.09230    2.60570   12.67590  -17.64710
 7800.00000    1.36780    0.05120    0.00190   45.88430    5.82470    6.07000    0.07440    2.61710    5.86530  -12.64710
 7850.00000    0.97940    0.05120   -0.00400   67.94120    6.72690    6.29210    0.09590    2.62160    6.81950  -10.12720
 7900.00000    1.36480    0.11920    0.08810   28.59980   12.79440   13.39870    0.06640    2.51440   11.96190  -27.57070
 7950.00000    4.68830    0.14950    0.05090   86.83540    1.32620    1.33530    0.37040    2.43680    1.58440  -14.83680
 8000.00000    3.38280    0.08870    0.09270   91.58460    1.17990    1.24640    0.35620    2.48410    1.44930  -17.04860
 8050.00000    3.64990    0.07180    0.09700   88.01470    1.44930    1.48950    0.34110    2.53360    1.69680  -18.08240
 8100.00000    2.24790    0.09230    0.01980   41.91180    6.36800    7.66240    0.07950    2.46270  114.80440  -26.70820
 8150.00000    7.03260    0.12090    0.06290   78.08500    1.54150    1.57090    0.36020    2.45230    1.84210  -29.95590
 8200.00000    6.11280    0.16300    0.04800   86.91180    2.62270    2.54180    0.41150    2.43460    2.52480  -26.81170
 8250.00000    3.67950    0.07350    0.05390   95.73530    2.37210    2.35750    0.32980    2.52960    3.34380  -20.29440
 8300.00000    4.77730    0.22910    0.09260   81.39520    2.59490    2.37560    0.39460    2.29780    3.23120  -23.43880
 8350.00000    1.81010    0.09680    0.03760  125.84640    4.14910    4.33850    0.33640    2.48850    6.19590  -16.44540
 8400.00000    5.84570    0.21040    0.10000   76.21860    2.52940    2.49020    0.34360    2.32520    4.19220  -22.54250
 8450.00000    2.19090   -0.00600    0.00060   50.07350    9.41130    8.62190    0.09860    2.69030   22.62540  -12.79410
 8500.00000    1.45150    0.01360    0.00190   16.32350   42.48250   36.08620    0.01360    2.68810   50.52490  -21.03110
 8550.00000    1.57290   -0.00340    0.00640   19.85040   23.57270   20.87300    0.02260    2.71900   23.57540  -11.32520
 8600.00000    1.00690   -0.00420    0.01530   30.44120   22.47140   22.62570    0.02080    2.71870   22.16530  -10.34870
 8650.00000    0.89020    0.01310    0.01380   16.98290   65.00320   60.92440    0.00210    2.70000   51.49550  -23.52940
 8700.00000    0.49960    0.00690    0.00190   13.67860   74.55440   82.48330    0.00470    2.70900   81.49840  -15.58820
 8750.00000    0.10880    0.02090    0.01080   21.17650   28.56240   26.24740    0.02350    2.69030   20.60210    8.38240
