~Version ---------------------------------------------------
VERS. 2.0 : CWLS log ASCII Standard -VERSION 2.0
WRAP.  NO : ONE LINE PER DEPTH STEP
~Well ------------------------------------------------------
STRT.F                   900.0 : START DEPTH
STOP.F                  9150.0 : STOP DEPTH
STEP.F                50.00000 : STEP LENGTH
NULL.                  -999.25 : NULL VALUE
COMP.           ROBBINS ENERGY : COMPANY
WELL.            BALDWIN J. #1 : WELL
FLD .                       WC : FIELD
LOC .                          : LOCATION
CNTY.                ROBERTSON : COUNTY
STAT.                    TEXAS : STATE
CTRY. UNITED STATES OF AMERICA : COUNTRY
SRVC.             Schlumberger : SERVICE COMPANY
DATE.              16-Nov-1991 : LOGDATE
API .           42395303790000 : API NUMBER
UWI .           42395303790000 : UNIQUE WELL ID
SLAT.WGS84       31.3093381365 : SURFACE LATITUDE
SLON.WGS84       -96.343477195 : SURFACE LONGITUDE
~Curve Information -----------------------------------------
DEPT.F                 : 
GRR .GAPI 07 310 01 00 : GAMMA RAY FROM RESISTIVITY
DRHO.G/C3 45 356 01 00 : BULK DENSITY CORRECTION
SFLU.OHMM 07 220 01 00 : SHALLOW FOCUSED RESISTIVITY (UNAVERAGED)
SPR .MV   07 010 01 00 : SPONTANEOUS POTENTIAL FROM RESISTIVITY
ILD .OHMM 07 120 46 00 : INDUCTION DEEP RESISTIVITY
ILM .OHMM 07 120 44 00 : INDUCTION MEDIUM RESISTIVITY
DCAL.IN   07 280 01 00 : DIFFERENTIAL CALIPER
PEF .B/E  45 358 01 00 : PHOTO ELECTRIC FACTOR
NPHI.DEC  42 890 01 00 : NEUTRON POROSITY
DPHI.DEC  45 890 10 00 : DENSITY POROSITY
~Params ----------------------------------------------------
PD  .                     GL : PERMANENT DATUM
EPD .FT                  338 : ELEVATION PERMANENT DATUM
LMF .                    RKB : LOG MEASURED FROM
DAPD.FT                   16 : FEET ABOVE PERMANENT DATUM
DMF .                    RKB : DRILLING MEASURED FROM
EKB .FT                  354 : KELLY BUSHING
EDF .FT                  353 : DRILLING FLOOR
EGL .FT                  338 : GROUND LEVEL
DATE.               11/18/91 : RUN DATE
RUN .                      1 : RUN NUMBER
DD  .FT                 9200 : DEPTH DRILLER
DL  .FT                 9188 : DEPTH LOGGER
BLI .FT                 9181 : BOTTOM LOG INTERVAL
TLI .FT                  945 : TOP LOG INTERVAL
CS  .IN                8.625 : CASING SIZE
CBD .FT                  955 : CASING BOTTOM DRILLER
CBL .FT                  945 : CASING BOTTOM LOGGER
BS  .IN                7.875 : BIT SIZE
BSD .FT                 9200 : BIT SIZE AT DEPTH
DFT .                    GEL : DRILLING FLUID TYPE
DFD .                    9.8 : DRILLING FLUID DENSITY
DFV .                     39 : DRILLING FLUID VISCOSITY
DFPH.                      9 : DRILLING FLUID PH
DFL .                    9.2 : DRILLING FLUID LOSS
MSS .              CIRC TANK : MUD SAMPLE SOURCE
RMS .OHMM                2.4 : RESISTIVITY MUD SAMPLE
MST .DEGF                 96 : MUD SAMPLE TEMPERATURE
RMF .OHMM                1.8 : RESISTIVITY MUD FILTRATE SAMPLE
MFST.DEGF                 96 : MUD FILTRATE SAMPLE TEMPERATURE
RMC .OHMM                3.6 : RESISTIVITY MUD CAKE
MCST.DEGF                 96 : MUD CAKE SAMPLE TEMPERATURE
MFSS.                   CALC : MUD FILTRATE SAMPLE SOURCE
MCSS.                   CALC : MUD CAKE SAMPLE SOURCE
RMB .OHMM              1.148 : RESISTIVITY MUD AT BHT
TCS .HRS                 300 : TIME CIRCULATED STOPPED
TLAB.HRS                 930 : TIME LOGGER AT BOTTOM
LUN .                   2019 : LOGGING UNIT NUMBER
LUL .                  TYLER : LOGGING UNIT LOCATION
ENGI.               BROWNING : RECORDING ENGINEER
WITN.                  SNELL : WITNESSED BY
CLNT.                A2DTECH : CLIENT CODE
ORIG.     1" 2" 5" 10" PRINT : ORIGIN OF DATA
UWI .         42395303790000 : UNIQUE WELL ID
DICO. A2D Technologies, Inc. : DIGITIZING COMPANY
~Other -----------------------------------------------------
~ASCII -----------------------------------------------------
# ...
 7500.00000   39.78660    0.02500   16.00480  -38.77240    6.92060    7.43860    3.25910    4.23460    0.07040    0.08240
 7550.00000   41.56020    0.00910   77.86590  -39.84090   63.10110   64.47320    3.41220    5.27740    0.01080    0.00930
 7600.00000   17.90060    0.05950   41.15600 -125.52040   21.82710   28.72860    4.27690    5.04680    0.02530    0.03140
 7650.00000   17.55280    0.06790   61.77330  -97.23800   17.49590   17.67170    2.87330    4.32150    0.07170    0.09700
 7700.00000   57.06430    0.00190    5.94220  -34.61820    4.54260    4.60890    2.91740    4.47820    0.11950    0.03230
 7750.00000   31.28880    0.04000   50.98880  -42.44170   28.03180   31.84910    3.24130    4.87260    0.01640    0.04880
 7800.00000   17.75150    0.02860   43.89020 -116.16940   20.61770   25.87830    2.68880    5.15680    0.02760    0.06140
 7850.00000   12.29470    0.02230   24.02550 -173.72270    2.59620    2.62300    1.76230    5.06660    0.11210    0.13700
 7900.00000   40.08030    0.02090   28.96710 -118.58540   24.42120   25.06360    3.18620    5.20350    0.00660    0.04820
 7950.00000   33.40460    0.00920   63.55010  -30.25360   36.72010   37.75680    2.18140    5.16190    0.01290    0.01020
 8000.00000   33.29850    0.00860  125.44880  -25.47550   40.09600   40.69280    2.01430    4.59020    0.01970    0.01480
 8050.00000   50.80230    0.01670   18.62580  -19.44620   14.76350   12.77550    2.08830    4.58850    0.06210    0.00890
 8100.00000   64.64940    0.02770    7.06820  -19.31560    5.61900    5.67980    4.72990    4.06970    0.13510   -0.00080
 8150.00000   87.23350    0.18990    3.39990  -35.94820    3.12350    3.18750    5.30370    2.72230    0.34180    0.32390
 8200.00000   77.54360    0.05070    5.19360  -29.44640    3.96690    4.01100    5.91810    2.98510    0.28540    0.35050
 8250.00000   92.61660    0.16740    4.11460  -25.70900    3.75270    3.79060    6.63750    3.29880    0.27110    0.14770
 8300.00000   77.17070    0.08010    9.82590  -10.81040    2.96740    2.99740    2.24570    3.84900    0.14780    0.04980
 8350.00000   59.40370    0.01830    8.57610  -13.63590    7.60560    7.83890    3.09750    4.11510    0.16190    0.14770
 8400.00000   89.32980    0.14440    4.58800  -23.68630    3.02320    3.29080    6.47830    3.34670    0.25370    0.17970
 8450.00000   44.76720    0.00310   46.90730  -12.33830   15.54970   21.79240    2.11540    4.30220    0.03440    0.00450
 8500.00000   34.35530    0.01070  221.94450  -41.24720  110.01340  111.43870    2.73160    5.00160    0.00130   -0.00080
 8550.00000   36.46590    0.04730  141.63740  -34.53500   59.69760   62.17070    3.02640    4.91870    0.00320   -0.01060
 8600.00000   39.17110    0.19990   72.76150  -55.97830   87.67320   88.67330    2.55730    4.72450    0.00900   -0.00270
 8650.00000   44.50910    0.01300    8.48550 -120.79760    6.70180    6.76960    2.30950    5.03850    0.04120    0.04640
 8700.00000   34.77470    0.01190  246.36700   -8.69160   71.80270   72.62890    1.70520    5.06540    0.00730   -0.00840
 8750.00000   84.06890    0.06710    8.55470   -7.33800    3.81860    3.86660    2.26960    3.19410    0.14450    0.03910
 8800.00000   44.54470    0.00820   54.77240  -53.58210   12.45100   12.90560    1.85890    3.54950    0.01830   -0.00440
 8850.00000   66.82910    0.01040    3.37950  -28.21300    2.67660    2.70350    1.53440    2.65120    0.12400    0.07890
 8900.00000   62.57380    0.00640    4.48110  -29.75330    3.28680    3.33880    1.80210    2.61490    0.08910    0.05090
 8950.00000   80.50760    0.08950    4.92050  -16.57900    4.50320    4.61510    0.72540    2.54540    0.09030    0.05140
 9000.00000   80.91240    0.00280    5.40270  -25.54360    4.69100    4.73890    1.80890    2.77960    0.08560    0.07010
 9050.00000  112.83300    0.01400    4.49260    6.34300    3.68680    3.72600    1.30090    2.99970    0.16380    0.02170
 9100.00000  107.57520    0.00570    5.21030    6.12660    4.64780    4.70100    0.48100    2.63510    0.11660    0.05520
 9150.00000    -999.25    0.00350    4.50850    0.71120    4.30260    4.35640    0.54710    2.74630    -999.25    0.05080
