~Version ---------------------------------------------------
VERS.      2.0 : CWLS log ASCII Standard -VERSION 2.0
WRAP.      YES : Multiple lines per depth step
CREA. 07/19/18 : LAS Creation Date
~Well ------------------------------------------------------
STRT.FT                           4000.0 : START DEPTH
STOP.FT                          13600.0 : STOP DEPTH
STEP.FT                         50.00000 : STEP LENGTH
NULL.                            -999.25 : NULL VALUE
COMP. TEXSTAR NORTH AMERICA INCORPORATED : COMPANY
WELL.                         HOMEYER #2 : WELL
FLD .                     CENTRAL KENEDY : FIELD
LOC .                                    : LOCATION
CNTY.                             KARNES : COUNTY
STAT.                              TEXAS : STATE
CTRY.           UNITED STATES OF AMERICA : COUNTRY
SRVC.                       Schlumberger : SERVICE COMPANY
DATE.                        30-Mar-1990 : LOGDATE
API .                     42255312470000 : API NUMBER
UWI .                     42255312470000 : UNIQUE WELL ID
SLAT.WGS84                 28.7726896993 : SURFACE LATITUDE
SLON.WGS84                -97.8709093626 : SURFACE LONGITUDE
~Curve Information -----------------------------------------
DEPT    .FT    : DEPTH FEET
CALWS   .IN    : CALIPER [DCALDED+BIT]
CONDWS  .MMHO  : DEEP CONDUCTIVITY [1000/DRESWS]
DCALDED .IN    : DIFFERENTIAL CALIPER FROM DENSITY LOG
DCORWS  .G/C3  : DENSITY CORRECTION [DRHOED]
DENWS   .G/C3  : BULK DENSITY [TOP CALC. DPHISSED M=2.68 F=1.0, 12400' DPHISSED M=2.71 F=1.0]]
DPHILSED.V/V   : DENSITY POROSITY (LS) [M=2.71 F=1.0] FROM DENSITY LOG
DPHISSED.V/V   : DENSITY POROSITY (SS) [M=2.68 F=1.0] FROM DENSITY LOG
DPOLSWS .V/V   : DENSITY POROSITY LIMESTONE [M=2.71 F=1.0] [CALC. FROM DENWS]
DRESWS  .OHMM  : DEEP RESISTIVITY [ILDED]
DRHOED  .G/C3  : DENSITY CORRECTION FROM DENSITY LOG
DTED    .US/F  : DELTA TIME FROM DIL/SONIC LOG
DTLED   .US/F  : DELTA TIME LONG SPACING FROM DIL/SONIC LOG
DTWS    .US/F  : DELTA TIME COMPRESSIONAL [DTED]
GRDED   .GAPI  : GAMMA RAY FROM DENSITY LOG
GRRED   .GAPI  : GAMMA RAY FROM RESISTIVITY LOG
GRWS    .GAPI  : GAMMA RAY [TOP GRDED 6100' GRRED 13560' GRDED]
ILDED   .OHMM  : INDUCTION LOG DEEP RESISTIVITY
ILMED   .OHMM  : INDUCTION LOG MEDIUM RESISTIVITY
MRESWS  .OHMM  : MEDIUM RESISTIVITY [ILMED]
NPHILSED.V/V   : NEUTRON POROSITY LIMESTONE FROM DENSITY LOG
NPHISSED.V/V   : NEUTRON POROSITY SANDSTONE FROM DENSITY LOG
NPOLSWS .V/V   : NEUTRON POROSITY LIMESTONE [TOP CONVERSED NPHISSED TO LIME FROM POWER LOG; 12400' NPHILSED]
PEFED   .B/E   : PHOTOELECTRIC FACTOR FROM DENSITY LOG
PEFWS   .B/E   : PHOTOELECTRIC FACTOR [PEFED]
SFLUED  .OHMM  : SPHERICALLY FOCUSED LOG RESISTIVITY
SPHILSED.V/V   : SONIC POROSITY (LS) [DTM=49 DTF=189] FROM DIL/SONIC LOG
SPHISSED.V/V   : SONIC POROSITY (SS) [DTM=55.6 DTF=189] FROM DIL/SONIC LOG
SPOLSWS .V/V   : SONIC POROSITY (LS) [DTM=49 DTF=189] [CALC. FROM DTWS]
SPRED   .MV    : SPONTANEOUS POTENTIAL FROM RESISTIVITY LOG
SPWS    .MV    : SPONTANEOUS POTENTIAL [BASELINE 0 MV] [SPRED]
SRESWS  .OHMM  : SHALLOW RESISTIVITY [SFLUED]
TENDED  .LBF   : TENSION FROM DENSITY LOG
TENRED  .LBF   : TENSION FROM RESISTIVITY LOG
~Params ----------------------------------------------------
PD  .                     GL : PERMANENT DATUM
EPD .FT                  455 : ELEVATION PERMANENT DATUM
LMF .                     KB : LOG MEASURED FROM
DAPD.FT                   23 : MEASUREMENT ABOVE PERMANENT DATUM
DMF .                     KB : DRILLING MEASURED FROM
EKB .FT                  478 : KELLY BUSHING
EDF .FT                  477 : DRILLING FLOOR
EGL .FT                  455 : GROUND LEVEL
DATE.               03/30/90 : RUN DATE
RUN .                      1 : RUN NUMBER
DD  .FT                13600 : DEPTH DRILLER
DL  .FT                13608 : DEPTH LOGGER
BLI .FT                13602 : BOTTOM LOG INTERVAL
TLI .FT                 3954 : TOP LOG INTERVAL
CS  .IN                9.625 : CASING SIZE
CBD .FT                 3950 : CASING BOTTOM DRILLER
CBL .FT                 3954 : CASING BOTTOM LOGGER
BS  .IN                  8.5 : BIT SIZE
BSD .FT                13600 : BIT SIZE AT DEPTH
DFT .               KCL KLIG : DRILLING FLUID TYPE
DFD .                   10.7 : DRILLING FLUID DENSITY
DFV .                     41 : DRILLING FLUID VISCOSITY
DFPH.                   11.5 : DRILLING FLUID PH
DFL .                    9.4 : DRILLING FLUID LOSS
MSS .               CIRC PIT : MUD SAMPLE SOURCE
RMS .OHMM               0.63 : RESISTIVITY MUD SAMPLE
MST .DEGF                 75 : MUD SAMPLE TEMPERATURE
RMF .OHMM               0.55 : RESISTIVITY MUD FILTRATE SAMPLE
MFST.DEGF                 75 : MUD FILTRATE SAMPLE TEMPERATURE
RMC .OHMM               0.95 : RESISTIVITY MUD CAKE
MCST.DEGF                 75 : MUD CAKE SAMPLE TEMPERATURE
MFSS.                   MEAS : MUD FILTRATE SAMPLE SOURCE
MCSS.                   CALC : MUD CAKE SAMPLE SOURCE
RMB .OHMM              0.167 : RESISTIVITY MUD AT BHT
TCS .HRS                1530 : TIME CIRCULATED STOPPED
TLAB.HRS                  50 : TIME LOGGER AT BOTTOM
LUN .                   8268 : LOGGING UNIT NUMBER
LUL .             PLEASANTON : LOGGING UNIT LOCATION
ENGI.                 WILKIE : RECORDING ENGINEER
WITN.         REQUARTH GIBBS : WITNESSED BY
CLNT.                A2DTECH : CLIENT CODE
ORIG.            1" 5" PRINT : ORIGIN OF DATA
UWI .         42255312470000 : UNIQUE WELL ID
DICO. A2D Technologies, Inc. : DIGITIZING COMPANY
~Other -----------------------------------------------------
GRR SATURATED AT 5988'.
~ASCII -----------------------------------------------------
# ...
 12800.00000    9.70790   31.91610    1.20790    0.02750    2.54480    0.09660    -999.25    0.09660   31.33210    0.02750   74.35500   72.55960   74.35500  100.61060   82.31670   82.31670   31.33210   28.77370   28.77370    0.12220    -999.25    0.12220    3.75930    3.75930   33.13070    0.20770    -999.25    0.18110  -33.84650  -11.96690   33.13070 5049.52240 4169.10300
 12850.00000    9.77570   53.91210    1.27570    0.02950    2.72860   -0.01090    -999.25   -0.01090   18.54870    0.02950   61.55310   60.66990   61.55310   42.50700   54.89150   54.89150   18.54870   16.95750   16.95750    0.06790    -999.25    0.06790    4.13700    4.13700   26.70100    0.12450    -999.25    0.08970  -35.12860   -9.59030   26.70100 5026.63180 4194.61380
 12900.00000   12.66800    0.50000    4.16800    0.05990    2.74780   -0.02210    -999.25   -0.02210 2000.00000    0.05990   50.86440   50.87650   50.86440   25.03280   24.71080   24.71080 2000.00000  151.54560  151.54560   -0.00510    -999.25   -0.00510    5.54780    5.54780  700.68160    0.02160    -999.25    0.01330  -93.71330  -64.51620  700.68160 5069.34650 4235.03660
 12950.00000   11.26930    0.51880    2.76930    0.01980    2.71720   -0.00420    -999.25   -0.00420 1927.56710    0.01980   50.39790   49.93060   50.39790   17.57060   23.33960   23.33960 1927.56710  174.91510  174.91510   -0.00380    -999.25   -0.00380    4.85260    4.85260  325.67120    0.00940    -999.25    0.01000  -88.34420  -55.48840  325.67120 5008.88850 4194.28080
 13000.00000   12.67950   12.66700    4.17950    0.04270    2.72760   -0.01030    -999.25   -0.01030   78.94530    0.04270   48.71000   49.08340   48.71000   20.59420   21.83720   21.83720   78.94530   66.87910   66.87910   -0.00920    -999.25   -0.00920    5.19460    5.19460  236.38160   -0.00640    -999.25   -0.00210  -80.79490  -44.28040  236.38160 5096.53580 4203.81640
 13050.00000   11.30250   26.43010    2.80240    0.02630    2.69930    0.00630    -999.25    0.00620   37.83570    0.02630   52.03470   51.15600   52.03470   18.35120   16.88810   16.88810   37.83570   26.02120   26.02120   -0.00280    -999.25   -0.00280    5.08750    5.08750   20.70710    0.03180    -999.25    0.02170  -89.57360  -49.40040   20.70710 5061.86080 4255.86570
 13100.00000   11.02960   85.33080    2.52960    0.01540    2.65890    0.02990    -999.25    0.02990   11.71910    0.01540   56.21550   55.98280   56.21550   15.36950   16.96630   16.96630   11.71910   10.49510   10.49510    0.00570    -999.25    0.00570    5.11140    5.11140   22.45560    0.07660    -999.25    0.05150  -89.84970  -46.01770   22.45560 5138.37710 4264.93600
 13150.00000   11.52550   14.49740    3.02550    0.02570    2.70440    0.00330    -999.25    0.00330   68.97780    0.02570   51.58010   51.46220   51.58010   24.54200   28.29590   28.29590   68.97780   40.88620   40.88620   -0.00500    -999.25   -0.00500    5.13420    5.13420   39.27230    0.03230    -999.25    0.01840  -84.82390  -37.33320   39.27230 5117.60840 4281.82320
 13200.00000   13.59150  289.21800    5.09150    0.01600    2.54570    0.09610    -999.25    0.09610    3.45760    0.01600   58.36380   57.79060   58.36380   25.16770   29.62400   29.62400    3.45760    4.13750    4.13750    0.04890    -999.25    0.04890    5.44270    5.44270   12.15190    0.09380    -999.25    0.06690  -82.00530  -30.85590   12.15190 5117.31530 4267.91110
 13250.00000   10.47920   25.93380    1.97920    0.01100    2.67650    0.01960    -999.25    0.01960   38.55970    0.01100   52.04670   51.56350   52.04670   35.70560   39.18000   39.18000   38.55970   31.70630   31.70630   -0.00100    -999.25   -0.00100    5.22960    5.22960   46.71720    0.03480    -999.25    0.02180  -75.42500  -20.61680   46.71720 5140.04090 4253.87550
 13300.00000   10.46290  179.93050    1.96290    0.01100    2.62090    0.05210    -999.25    0.05210    5.55770    0.01100   55.44360   54.96040   55.44360   30.60320   33.05980   33.05980    5.55770    5.28120    5.28120    0.00780    -999.25    0.00780    4.95640    4.95640   16.47340    0.06520    -999.25    0.04600  -86.13150  -27.66460   16.47340 5215.36930 4269.47220
 13350.00000   10.48050   14.00590    1.98050    0.00370    2.67260    0.02190    -999.25    0.02190   71.39830    0.00370   50.56210   50.07890   50.56210   35.36660   37.10420   37.10420   71.39830   60.60040   60.60040   -0.00350    -999.25   -0.00350    5.48520    5.48520   69.39410    0.01360    -999.25    0.01120  -83.65370  -21.52810   69.39410 5210.83090 4330.47070
 13400.00000   10.31680    0.50810    1.81680    0.00820    2.70380    0.00360    -999.25    0.00360 1968.02910    0.00820   49.66580   49.18260   49.66580   25.65790   29.00570   29.00570 1968.02910 1844.03480 1844.03480   -0.00650    -999.25   -0.00650    4.82620    4.82620 1779.75670    0.00060    -999.25    0.00480  -85.91660  -20.13230 1779.75670 5229.79220 4328.33640
 13450.00000    9.79300    0.51020    1.29300    0.01630    2.71410   -0.00240    -999.25   -0.00240 1959.87010    0.01630   51.78130   51.20840   51.78130   34.87070   34.95660   34.95660 1959.87010  360.67370  360.67370   -0.00420    -999.25   -0.00420    5.25420    5.25420  171.31520    0.02630    -999.25    0.01990  -97.09710  -27.65400  171.31520 5241.32270 4333.67720
 13500.00000    9.61750    0.50000    1.11750    0.02790    2.71940   -0.00550    -999.25   -0.00550 2000.00000    0.02790   50.19760   49.71440   50.19760   59.17860   60.25390   60.25390 2000.00000 1960.99260 1960.99260    0.00280    -999.25    0.00280    5.44770    5.44770 1019.51430    0.00690    -999.25    0.00860  -91.04720  -17.94540 1019.51430 5296.60870 4368.05420
 13550.00000    9.20640   25.23910    0.70640    0.01250    2.67790    0.01880    -999.25    0.01880   39.62110    0.01250   52.64540   52.16220   52.64540   14.33070   16.18790   16.18790   39.62110   31.01250   31.01250    0.00950    -999.25    0.00950    5.32340    5.32340   54.62520    0.03720    -999.25    0.02600  -85.71100   -8.95050   54.62520 5317.93150 4375.07810
 13600.00000    8.73870   20.28990    0.23870    0.03320    2.71890   -0.00520    -999.25   -0.00520   49.28570    0.03320    -999.25    -999.25    -999.25    -999.25    -999.25    -999.25   49.28570   25.48310   25.48310    -999.25    -999.25    -999.25    5.31190    5.31190   66.88640    -999.25    -999.25    -999.25  -86.85330   -6.43400   66.88640 5281.62290 4399.61670
