~Version ---------------------------------------------------
VERS. 2.0 : CWLS log ASCII Standard -VERSION 2.0
WRAP. YES : MULTIPLE LINES PER DEPTH STEP
~Well ------------------------------------------------------
STRT.FT                        2500.0 : START DEPTH
STOP.FT                       18000.0 : STOP DEPTH
STEP.FT                      50.00000 : STEP LENGTH
NULL.                         -999.25 : NULL VALUE
COMP. UNION PACIFIC RESOURCES COMPANY : COMPANY
WELL.       UPR T-BAR-X KING COBRA #1 : WELL
FLD .                         WILDCAT : FIELD
LOC .                                 : LOCATION
CNTY.                            LEON : COUNTY
STAT.                           TEXAS : STATE
CTRY.        UNITED STATES OF AMERICA : COUNTRY
SRVC.                    Schlumberger : SERVICE COMPANY
DATE.                     05-Nov-1997 : LOGDATE
API .                  42289312660000 : API NUMBER
UWI .                  42289312660000 : UNIQUE WELL ID
SLAT.WGS84              31.2008912115 : SURFACE LATITUDE
SLON.WGS84             -96.2874133979 : SURFACE LONGITUDE
~Curve Information -----------------------------------------
DEPT    .FT    : DEPTH FEET
AT10ED  .OHMM  : 10 INCH RESISTIVITY TWO FOOT RESOLUTION FROM AIT LOG
AT20ED  .OHMM  : 20 INCH RESISTIVITY TWO FOOT RESOLUTION FROM AIT LOG
AT30ED  .OHMM  : 30 INCH RESISTIVITY TWO FOOT RESOLUTION FROM AIT LOG
AT60ED  .OHMM  : 60 INCH RESISTIVITY TWO FOOT RESOLUTION FROM AIT LOG
AT90ED  .OHMM  : 90 INCH RESISTIVITY TWO FOOT RESOLUTION FROM AIT LOG
CALDED  .IN    : CALIPER FROM DENSITY LOG [DEP ADJ TO GRRED]
CALRED  .IN    : CALIPER FROM RESISTIVITY LOG
CALWS   .IN    : CALIPER [2484 CALICAL 15888 CALRED]
CGRDED  .GAPI  : GAMMA RAY FROM DENSITY LOG [DEP ADJ TO GRRED]
CONDWS  .MMHO  : CONDUCTIVITY [1000/DRESWS]
DCALED  .IN    : DIFFERENTIAL CALIPER FROM DENSITY LOG
DCORWS  .G/C3  : DENSITY CORRECTION [2484 DRHOED 9946 DRHED 15888.5 DRHOED]
DENWS   .G/C3  : BULK DENSITY [M=2.71 F=1.0] [CALCULATED FROM DPOWS]
DPHILSED.V/V   : DENSITY POROSITY [M=2.71 F=1.0] FROM DENSITY LOG [DEP ADJ TO GRRED]
DPOLSED .V/V   : DENSITY POROSITY HIGH RESOLUTION [M=2.71 F=1.0] FROM DENSITY LOG
DPOWS   .V/V   : DENSITY POROSITY [M=2.71 F=1.0] [2484 DPHILSED 9942 DPOLSED 15888 DPHILSED]
DRESWS  .OHMM  : DEEP RESISTIVITY [A2484 AT90ED 9948.5 IDPHED 15892 LLDED]
DRHED   .G/C3  : DENSITY CORRECTION
DRHOED  .G/C3  : DENSITY CORRECTION FROM DENSITY LOG [DEP ADJ TO GRRED]
DTCOED  .US/F  : DELTA TIME COMPRESSIONAL FROM SONIC LOG [DEP ADJ TO GRRED]
DTED    .US/F  : DELTA TIME FROM SONIC LOG
DTLED   .US/F  : DELTA TIME LONG SPACING FROM SONIC LOG
DTLFED  .US/F  : DELTA TIME LONG SPACING FAR DETECTOR FROM SONIC LOG
DTLNED  .US/F  : DELTA TIME LONG SPACING NEAR DETECTOR FROM SONIC LOG
DTSMED  .US/F  : DELTA TIME SHEAR WAVE FROM SONIC LOG [DEP ADJ TO GRRED]
DTSWS   .US/F  : DELTA TIME SHEAR [DTSMED]
DTWS    .US/F  : DELTA TIME [2484 DTLNED 10155.5 DTLFED 10297.5 DTLNED 10506.5 DTLFED 10628.5 DTLNED 10694 DTLFED 10859 DTLNED 11620 DTLFED 13285.5 DTLNED 14723 DTLFED 15057 DTLNED 15798 DTLFED 15889.5 DTED 15912.5 DTCOED]
GRRED   .GAPI  : GAMMA RAY FROM RESISTIVITY LOG
GRSED   .GAPI  : GAMMA RAY FROM SONIC LOG [DEP ADJ TO GRRED]
GRWS    .GAPI  : GAMMA RAY [2484 GRRED 9881.5 GRREDNRM 9946 GRRED 15728.5 GRSEDNRM 15878 CGRDED 16070 GRRED]
IDPHED  .OHMM  : INDUCTION DEEP PHASE RESISTIVITY
IMPHED  .OHMM  : INDUCTION MEDIUM PHASE RESISTIVITY
LLDED   .OHMM  : LATEROLOG DEEP RESISTIVITY
LLSED   .OHMM  : LATEROLOG SHALLOW RESISTIVITY
MRESWS  .OHMM  : MEDIUM RESISTIVITY [2484 AT30ED 9949.5 IMPHED]
NPHILSED.V/V   : NEUTRON POROSITY LIMESTONE FROM DENSITY LOG [DEP ADJ TO GRRED]
NPOWS   .V/V   : NEUTRON POROSITY LIMESTONE [2484 NPHILSED 15780.5 NPHILNRM 15883.5 NPHILSED]
PEFED   .B/E   : PHOTOELECTRIC FACTOR FROM DENSITY LOG
PEFLED  .B/E   : PHOTOELECTRIC FACTOR FROM DENSITY LOG
PEFWS   .B/E   : PHOTOELECTRIC FACTOR [2484 PEFED 9952.5 PEFLED]
RESED   .OHMM  : SYNTHETIC RESISTIVITY
SFLUED  .OHMM  : SPHERICALLY FOCUSED LOG RESISTIVITY
SPHILSED.V/V   : SONIC POROSITY FROM SONIC LOG [DEP ADJ TO GRRED]
SPOWS   .V/V   : SONIC POROSITY [CAL FR DTWS; M= 47.6, F=189]
SPRED   .MV    : SPONTANEOUS POTENTIAL FROM RESISTIVITY LOG [SHIFTS ARE REMOVED]
SPWS    .MV    : SPONTANEOUS POTENTIAL [BASELINE 0 MV] [SPRED]
SRESWS  .OHMM  : SHALLOW RESISTIVITY [2484 AT10ED 9945.5 SFLUED 15891.5 LLSED]
TENDED  .LBF   : TENSION FROM DENSITY LOG [DEP ADJ TO GRRED]
TENRED  .LBF   : TENSION FROM RESISTIVITY LOG
~Params ----------------------------------------------------
PD  .                     GL : PERMANENT DATUM
EPD .FT                  348 : ELEVATION PERMANENT DATUM
LMF .                     KB : LOG MEASURED FROM
DAPD.FT                   28 : FEET ABOVE PERMANENT DATUM
DMF .                     KB : DRILLING MEASURED FROM
EKB .FT                  376 : KELLY BUSHING
EDF .FT                  374 : DRILLING FLOOR
EGL .FT                  348 : GROUND LEVEL
DATE.               11/05/97 : RUN DATE
RUN .                      3 : RUN NUMBER
DD  .FT                18038 : DEPTH DRILLER
DL  .FT                18024 : DEPTH LOGGER
BLI .FT                 1800 : BOTTOM LOG INTERVAL
TLI .FT                15888 : TOP LOG INTERVAL
CS  .IN                7.625 : CASING SIZE
CBD .FT                15888 : CASING BOTTOM DRILLER
CBL .FT                15888 : CASING BOTTOM LOGGER
BS  .IN                    6 : BIT SIZE
BSD .FT                18038 : BIT SIZE AT DEPTH
DFT .                POLYMER : DRILLING FLUID TYPE
DFD .                   18.2 : DRILLING FLUID DENSITY
DFV .                     40 : DRILLING FLUID VISCOSITY
DFPH.                      9 : DRILLING FLUID PH
DFL .                    5.6 : DRILLING FLUID LOSS
MSS .       CIRCULATION TANK : MUD SAMPLE SOURCE
RMS .OHMM               1.14 : RESISTIVITY MUD SAMPLE
MST .DEGF                 90 : MUD SAMPLE TEMPERATURE
RMF .OHMM              0.969 : RESISTIVITY MUD FILTRATE SAMPLE
MFST.DEGF                 90 : MUD FILTRATE SAMPLE TEMPERATURE
RMC .OHMM              1.311 : RESISTIVITY MUD CAKE
MCST.DEGF                 90 : MUD CAKE SAMPLE TEMPERATURE
MFSS.             CALCULATED : MUD FILTRATE SAMPLE SOURCE
MCSS.             CALCULATED : MUD CAKE SAMPLE SOURCE
RMB .OHMM              0.278 : RESISTIVITY MUD AT BHT
TCS .HRS                2200 : TIME CIRCULATED STOPPED
TLAB.HRS                 445 : TIME LOGGER AT BOTTOM
LUN .                   8400 : LOGGING UNIT NUMBER
LUL .                   6450 : LOGGING UNIT LOCATION
ENGI.                SKRBICH : RECORDING ENGINEER
WITN.          BLANKE WEAVER : WITNESSED BY
CLNT.                A2DTECH : CLIENT CODE
ORIG.         1" 2" 5" PRINT : ORIGIN OF DATA
UWI .         42289312660000 : UNIQUE WELL ID
DICO. A2D Technologies, Inc. : DIGITIZING COMPANY
~Other -----------------------------------------------------
~ASCII -----------------------------------------------------
# ...
 13750.00000    -999.25    -999.25    -999.25    -999.25    -999.25    -999.25    -999.25   11.68990    -999.25  131.75400    3.18990    0.15460    2.63170    -999.25    0.04580    0.04580    7.58990    0.15460    -999.25    -999.25    -999.25    -999.25   63.73840   63.27110    -999.25    -999.25   63.27110   49.08570    -999.25   49.08570    7.58990    8.67870    -999.25    -999.25    8.67870    0.01270    0.01270    -999.25   10.01270   10.01270   10.01270   12.10540    -999.25    0.11080   97.06360   -4.32280   12.10540    -999.25 5759.82710
 13800.00000    -999.25    -999.25    -999.25    -999.25    -999.25    -999.25    -999.25   13.42470    -999.25  350.02980    4.92470   -0.06710    2.32010    -999.25    0.22800    0.22800    2.85690   -0.06710    -999.25    -999.25    -999.25    -999.25   77.04500   77.79700    -999.25    -999.25   77.79700   79.91480    -999.25   79.91480    2.85690    3.50060    -999.25    -999.25    3.50060    0.21970    0.21970    -999.25   10.00750   10.00750   10.00750    2.64980    -999.25    0.21360  100.29370   -3.37850    2.64980    -999.25 5654.11520
 13850.00000    -999.25    -999.25    -999.25    -999.25    -999.25    -999.25    -999.25   12.16660    -999.25  328.38570    3.66660   -0.07310    2.19340    -999.25    0.30210    0.30210    3.04520   -0.07310    -999.25    -999.25    -999.25    -999.25   59.93620   91.12750    -999.25    -999.25   91.12750   78.94100    -999.25   78.94100    3.04520    4.14230    -999.25    -999.25    4.14230    0.13400    0.13400    -999.25   10.00030   10.00030   10.00030    8.33180    -999.25    0.30780  100.19260   -5.33900    8.33180    -999.25 5617.45120
 13900.00000    -999.25    -999.25    -999.25    -999.25    -999.25    -999.25    -999.25   12.84940    -999.25  251.81300    4.34940    0.15770    2.65560    -999.25    0.03180    0.03180    3.97120    0.15770    -999.25    -999.25    -999.25    -999.25   78.33250   76.78030    -999.25    -999.25   76.78030   79.37310    -999.25   79.37310    3.97120    3.66380    -999.25    -999.25    3.66380    0.14860    0.14860    -999.25    9.96690    9.96690    9.96690    4.19150    -999.25    0.20640  101.63230   -5.75880    4.19150    -999.25 5578.60550
 13950.00000    -999.25    -999.25    -999.25    -999.25    -999.25    -999.25    -999.25   10.55740    -999.25    3.65360    2.05740    0.00460    2.55610    -999.25    0.09000    0.09000  273.70360    0.00460    -999.25    -999.25    -999.25    -999.25   54.08920   64.96940    -999.25    -999.25   64.96940   19.50570    -999.25   19.50570  273.70360 1769.09630    -999.25    -999.25 1769.09630   -0.00140   -0.00140    -999.25    4.04090    4.04090    4.04090  264.02520    -999.25    0.12280   98.22200  -11.02850  264.02520    -999.25 5515.65530
 14000.00000    -999.25    -999.25    -999.25    -999.25    -999.25    -999.25    -999.25   12.91700    -999.25  161.17850    4.41700    0.14340    2.56020    -999.25    0.08760    0.08760    6.20430    0.14340    -999.25    -999.25    -999.25    -999.25   68.78040   68.70020    -999.25    -999.25   68.70020   68.01300    -999.25   68.01300    6.20430    5.31460    -999.25    -999.25    5.31460    0.11060    0.11060    -999.25    9.99790    9.99790    9.99790    4.96850    -999.25    0.14920  100.83050   -9.46370    4.96850    -999.25 5506.33110
 14050.00000    -999.25    -999.25    -999.25    -999.25    -999.25    -999.25    -999.25   12.45090    -999.25  169.82830    3.95090    0.19620    2.71340    -999.25   -0.00200   -0.00200    5.88830    0.19620    -999.25    -999.25    -999.25    -999.25   80.39500   69.44790    -999.25    -999.25   69.44790   81.64980    -999.25   81.64980    5.88830    5.85120    -999.25    -999.25    5.85120    0.17400    0.17400    -999.25    9.98790    9.98790    9.98790    7.07310    -999.25    0.15450  105.98500   -4.35590    7.07310    -999.25 5523.52050
 14100.00000    -999.25    -999.25    -999.25    -999.25    -999.25    -999.25    -999.25   11.57840    -999.25  245.81500    3.07840    0.18090    2.66330    -999.25    0.02730    0.02730    4.06810    0.18090    -999.25    -999.25    -999.25    -999.25   72.96400   77.02810    -999.25    -999.25   77.02810   78.60720    -999.25   78.60720    4.06810    3.82150    -999.25    -999.25    3.82150    0.12450    0.12450    -999.25   10.02760   10.02760   10.02760    4.58140    -999.25    0.20810  102.53160   -7.85600    4.58140    -999.25 5441.45700
 14150.00000    -999.25    -999.25    -999.25    -999.25    -999.25    -999.25    -999.25   11.94620    -999.25  283.42260    3.44620    0.13650    2.68690    -999.25    0.01350    0.01350    3.52830    0.13650    -999.25    -999.25    -999.25    -999.25   78.20100   74.23990    -999.25    -999.25   74.23990   83.45710    -999.25   83.45710    3.52830    3.65630    -999.25    -999.25    3.65630    0.16870    0.16870    -999.25   10.00590   10.00590   10.00590    3.92640    -999.25    0.18840  102.92760   -7.50670    3.92640    -999.25 5453.79150
 14200.00000    -999.25    -999.25    -999.25    -999.25    -999.25    -999.25    -999.25   11.97800    -999.25  141.60300    3.47800    0.14840    2.68490    -999.25    0.01470    0.01470    7.06200    0.14840    -999.25    -999.25    -999.25    -999.25   69.41350   71.19560    -999.25    -999.25   71.19560   86.91880    -999.25   86.91880    7.06200    5.78120    -999.25    -999.25    5.78120    0.15820    0.15820    -999.25    9.99010    9.99010    9.99010    7.52670    -999.25    0.16690  105.74350   -4.73750    7.52670    -999.25 5396.18750
 14250.00000    -999.25    -999.25    -999.25    -999.25    -999.25    -999.25    -999.25   11.98190    -999.25  222.12840    3.48190    0.15910    2.67150    -999.25    0.02250    0.02250    4.50190    0.15910    -999.25    -999.25    -999.25    -999.25   72.74210   71.89570    -999.25    -999.25   71.89570   83.78820    -999.25   83.78820    4.50190    4.94830    -999.25    -999.25    4.94830    0.15230    0.15230    -999.25   10.00740   10.00740   10.00740    5.51590    -999.25    0.17180  106.09480   -4.43280    5.51590    -999.25 5441.85840
 14300.00000    -999.25    -999.25    -999.25    -999.25    -999.25    -999.25    -999.25   11.12930    -999.25  155.34950    2.62930    0.15110    2.63650    -999.25    0.04300    0.04300    6.43710    0.15110    -999.25    -999.25    -999.25    -999.25   63.66700   63.48030    -999.25    -999.25   63.48030   86.45400    -999.25   86.45400    6.43710   10.67690    -999.25    -999.25   10.67690    0.15650    0.15650    -999.25   10.00970   10.00970   10.00970    8.96740    -999.25    0.11230  102.69330   -7.88100    8.96740    -999.25 5491.49560
 14350.00000    -999.25    -999.25    -999.25    -999.25    -999.25    -999.25    -999.25   12.38630    -999.25  243.55790    3.88630    0.11360    2.69910    -999.25    0.00640    0.00640    4.10580    0.11360    -999.25    -999.25    -999.25    -999.25   87.83630   76.31030    -999.25    -999.25   76.31030   94.16930    -999.25   94.16930    4.10580    3.78410    -999.25    -999.25    3.78410    0.17840    0.17840    -999.25    9.99170    9.99170    9.99170    4.60340    -999.25    0.20300  103.62140   -6.77210    4.60340    -999.25 5351.01220
 14400.00000    -999.25    -999.25    -999.25    -999.25    -999.25    -999.25    -999.25   10.53180    -999.25    9.88150    2.03180    0.01610    2.55920    -999.25    0.08820    0.08820  101.19970    0.01610    -999.25    -999.25    -999.25    -999.25   58.50220   59.12030    -999.25    -999.25   59.12030   18.04650    -999.25   18.04650  101.19970  106.13300    -999.25    -999.25  106.13300   -0.00210   -0.00210    -999.25    3.71170    3.71170    3.71170   87.18230    -999.25    0.08150   91.06980  -18.55810   87.18230    -999.25 5503.57230
 14450.00000    -999.25    -999.25    -999.25    -999.25    -999.25    -999.25    -999.25   11.05700    -999.25  174.29500    2.55700    0.12250    2.56810    -999.25    0.08300    0.08300    5.73740    0.12250    -999.25    -999.25    -999.25    -999.25   69.92270   68.29040    -999.25    -999.25   68.29040   63.67070    -999.25   63.67070    5.73740    4.94880    -999.25    -999.25    4.94880    0.07510    0.07510    -999.25   10.05680   10.05680   10.05680    6.75030    -999.25    0.14630   97.46480  -11.39740    6.75030    -999.25 5464.51030
