~Version ---------------------------------------------------
VERS. 2.0 : CWLS log ASCII Standard -VERSION 2.0
WRAP. YES : MULTIPLE LINES PER DEPTH STEP
~Well ------------------------------------------------------
STRT.FT                  300.0 : START DEPTH
STOP.FT                15250.0 : STOP DEPTH
STEP.FT               50.00000 : STEP LENGTH
NULL.                  -999.25 : NULL VALUE
COMP.  CONTINENTAL OIL COMPANY : COMPANY
WELL.    HALSELL FOUNDATION #1 : WELL
FLD .                  WILDCAT : FIELD
LOC .                          : LOCATION
CNTY.                 MAVERICK : COUNTY
STAT.                    TEXAS : STATE
CTRY. UNITED STATES OF AMERICA : COUNTRY
SRVC.             Schlumberger : SERVICE COMPANY
DATE.              02-Apr-1972 : LOGDATE
API .           42323300720000 : API NUMBER
UWI .           42323300720000 : UNIQUE WELL ID
SLAT.WGS84       28.6077848095 : SURFACE LATITUDE
SLON.WGS84     -100.3259081005 : SURFACE LONGITUDE
~Curve Information -----------------------------------------
DEPT    .FT    : DEPTH FEET
ALL8ED  .MV    : AMPLIFIED LATARLOG 8 FROM RES. LOG
ASNED   .OHMM  : 16 INCH AMPLIFIED SHORT NORMAL RESISTIVITY FROM IEL
CALDED  .IN    : CALIPER FROM DENSITY LOG, DEPTH ADJUSTED WITH [ILDED]
CALSED  .IN    : CALIPER FROM SONIC LOG, DEPTH ADJUSTED WITH [ILDED]
CALWS   .IN    : CALIPER [CALSED]
CILDED  .MMHO  : CONDUCTIVITY FROM RESISTIVITY LOG
CONDWS  .MMHO  : CONDUCTIVITY [1000/DRESWS]
DENWS   .G/C3  : BULK DENSITY [M=2.71 F=1.0] [CALCULATED FROM DPOWS]
DPHILSED.V/V   : DENSITY POROSITY [M=2.71 F=1.0] FROM DENSITY LOG, DEPTH ADJUSTED WITH [ILDED]
DPOWS   .V/V   : DENSITY POROSITY [DPHILSED]
DRESWS  .OHMM  : DEEP RESISTIVITY [ILDED] IF DRESWS<1;1000/CONDWS
DTED    .US/F  : DELTA TIME FROM SONIC LOG, DEPTH ADJUSTED WITH [ILDED]
DTWS    .US/F  : DELTA TIME [DTED]
GRDED   .GAPI  : GAMMA RAY FROM DENSITY LOG, DEPTH ADJUSTED WITH [ILDED]
GRRED   .GAPI  : GAMMA RAY FROM RESISTIVITY LOG
GRSED   .GAPI  : GAMMA RAY FROM SONIC LOG, DEPTH ADJUSTED WITH [ILDED]
GRWS    .GAPI  : GAMMA RAY [GRSED]
ILDED   .OHMM  : INDUCTION LOG DEEP RESISTIVITY
NPHILSED.V/V   : NEUTRON POROSITY LIMESTONE FROM DENSITY LOG, DEPTH ADJUSTED WITH [ILDED]
NPOWS   .V/V   : NEUTRON POROSITY SANDSTONE [NPHILSED]
SPRED   .MV    : SPONTANEOUS POTENTIAL FROM RESISTIVITY LOG
SPWS    .MV    : SPONTANEOUS POTENTIAL [BASELINE 0 MV] [SPRED]
SRESWS  .OHMM  : SHALLOW RESISTIVITY [ASNED], SPLICED WITH [ALL8ED] AT 8750'
~Params ----------------------------------------------------
PD  .                     GL : PERMANENT DATUM
EPD .F                 749.4 : ELEVATION PERMANENT DATUM
LMF .                     KB : LOG MEASURED FROM
DAPD.F                  25.2 : FEET ABOVE PERMANENT DATUM
DMF .                     KB : DRILLING MEASURED FROM
EKB .F                 775.4 : KELLING BUSHING
EDF .F                 774.6 : DRILLING FLOOR
EGL .F                 749.4 : GROUND LEVEL
DATE.               04/02/72 : RUN DATE
RUN .                      8 : RUN NUMBER
DD  .F                 15250 : DEPTH DRILLER
DL  .F                 15273 : DEPTH LOGGER
BLI .F                 15266 : BOTTOM LOG INTERVAL
TLI .F                 14800 : TOP LOG INTERVAL
CS  .IN                9.625 : CASING SIZE
CBD .F                  8736 : CASING BOTTOM DRILLER
CBL .F                  8748 : CASING BOTTOM LOGGER
BS  .IN                  8.5 : BIT SIZE
BSD .F                 15250 : BIT SIZE AT DEPTH
DFT .             LIGNO SULF : DRILLING FLUID TYPE
DFD .                   14.5 : DRILLING FLUID DENSITY
DFV .                     49 : DRILLING FLUID VISCOSITY
DFPH.                     12 : DRILLING FLUID PH
DFL .                    1.6 : DRILLING FLUID LOSS
MSS .               CIRC PIT : MUD SAMPLE SOURCE
RMS .OHMM               0.55 : RESISTIVITY MUD SAMPLE
MST .F                    75 : MUD SAMPLE TEMPERATURE
RMF .OHMM               0.17 : RESISTIVITY MUD FILTRATE SAMPLE
MFST.F                    75 : MUD FILTRATE SAMPLE TEMPERATURE
RMC .OHMM                1.1 : RESISTIVITY MUD CAKE
MCST.F                    75 : MUD CAKE SAMPLE TEMPERATURE
MFSS.                      M : MUD FILTRATE SAMPLE SOURCE
MCSS.                      C : MUD CAKE SAMPLE SOURCE
RMB .OHMM                0.1 : RESISTIVITY MUD AT BHT
TCS .HRS                 4.5 : TIME CURCULATED STOPPED
LUN .                   7029 : LOGGING UNIT NUMBER
LUL .                   VICT : LOGGING UNIT LOCATION
ENGI.               BRADFORD : RECORDING ENGINEER
CLNT.                A2DTECH : CLIENT CODE
ORIG.            2" 5" PRINT : ORIGIN OF DATA
UWI .         42323300720000 : UNIQUE WELL ID
DICO. A2D Technologies, Inc. : DIGITIZING COMPANY
~Other -----------------------------------------------------
~ASCII -----------------------------------------------------
# ...
 1850.00000    -999.25    3.49410    -999.25    -999.25    -999.25  349.15610  336.39450    -999.25    -999.25    -999.25    2.97270    -999.25    -999.25    -999.25    -999.25    -999.25    -999.25    2.97270    -999.25    -999.25  -22.71300   -6.54240    3.49410
 1900.00000    -999.25    3.76840    -999.25    -999.25    -999.25  341.20740  329.50020    -999.25    -999.25    -999.25    3.03490    -999.25    -999.25    -999.25    -999.25   18.40460   24.40460    3.03490    -999.25    -999.25  -21.55290   -5.68720    3.76840
 1950.00000    -999.25    1.93490    -999.25    -999.25    -999.25  424.83720  505.97050    -999.25    -999.25    -999.25    1.97640   99.83880   99.83880    -999.25    -999.25   33.04970   33.04970    1.97640    -999.25    -999.25  -20.54270   -4.98190    1.93490
 2000.00000    -999.25    1.91510    -999.25    -999.25    -999.25  468.83760  463.77890    -999.25    -999.25    -999.25    2.15620   99.42090   99.42090    -999.25    -999.25   34.17790   34.17790    2.15620    -999.25    -999.25  -19.40440   -4.14850    1.91510
 2050.00000    -999.25    1.60450    -999.25    -999.25    -999.25  610.28960  624.60960    -999.25    -999.25    -999.25    1.60100  109.30690  109.30690    -999.25    -999.25   34.22740   34.22740    1.60100    -999.25    -999.25  -19.25320   -4.30220    1.60450
 2100.00000    -999.25    1.62400    -999.25    -999.25    -999.25  593.77170  660.54560    -999.25    -999.25    -999.25    1.51390  106.86220  106.86220    -999.25    -999.25   36.69170   36.69170    1.51390    -999.25    -999.25  -19.49660   -4.85050    1.62400
 2150.00000    -999.25    1.88960    -999.25    -999.25    -999.25  457.59580  456.91310    -999.25    -999.25    -999.25    2.18860  102.60940  102.60940    -999.25    -999.25   30.70570   30.70570    2.18860    -999.25    -999.25  -19.20950   -4.86830    1.88960
 2200.00000    -999.25    1.97140    -999.25    -999.25    -999.25  461.71740  468.64750    -999.25    -999.25    -999.25    2.13380  101.39900  101.39900    -999.25    -999.25   34.37620   34.37620    2.13380    -999.25    -999.25  -16.86400   -2.82780    1.97140
 2250.00000    -999.25    2.64700    -999.25    -999.25    -999.25  343.18270  327.78290    -999.25    -999.25    -999.25    3.05080   99.35700   99.35700    -999.25    -999.25   31.06650   31.06650    3.05080    -999.25    -999.25  -16.55000   -2.81870    2.64700
 2300.00000    -999.25    3.14720    -999.25    -999.25    -999.25  296.18510  292.29510    -999.25    -999.25    -999.25    3.42120   88.26840   88.26840    -999.25    -999.25   27.88830   27.88830    3.42120    -999.25    -999.25  -15.43350   -2.00710    3.14720
 2350.00000    -999.25    4.46000    -999.25    -999.25    -999.25  241.51790  222.70230    -999.25    -999.25    -999.25    4.49030   81.24010   81.24010    -999.25    -999.25   24.43900   24.43900    4.49030    -999.25    -999.25  -16.72180   -3.31740    4.46000
 2400.00000    -999.25    6.10330    -999.25    -999.25    -999.25  104.85490  105.94680    -999.25    -999.25    -999.25    9.43870   70.15520   70.15520    -999.25    -999.25   17.64730   17.64730    9.43870    -999.25    -999.25  -21.41590   -7.86740    6.10330
 2450.00000    -999.25    4.79440    -999.25    -999.25    -999.25  174.43460  172.75040    -999.25    -999.25    -999.25    5.78870   74.06810   74.06810    -999.25    -999.25   28.01530   28.01530    5.78870    -999.25    -999.25  -16.99230   -3.29980    4.79440
 2500.00000    -999.25    3.20470    -999.25    -999.25    -999.25  280.91270  294.92430    -999.25    -999.25    -999.25    3.39070   85.29190   85.29190    -999.25    -999.25   26.09880   26.09880    3.39070    -999.25    -999.25  -16.34080   -2.50420    3.20470
 2550.00000    -999.25    4.96720    -999.25    -999.25    -999.25  156.87470  150.69090    -999.25    -999.25    -999.25    6.63610   72.07070   72.07070    -999.25    -999.25   16.89340   16.89340    6.63610    -999.25    -999.25  -18.93690   -4.95620    4.96720
 2600.00000    -999.25    5.64800    -999.25    -999.25    -999.25  131.97720  134.07700    -999.25    -999.25    -999.25    7.45840   72.75630   72.75630    -999.25    -999.25   15.37060   15.37060    7.45840    -999.25    -999.25  -18.39340   -4.26860    5.64800
 2650.00000    -999.25    6.38790    -999.25    -999.25    -999.25  123.51860  129.63950    -999.25    -999.25    -999.25    7.71370   67.60360   67.60360    -999.25    -999.25   15.51900   15.51900    7.71370    -999.25    -999.25  -21.11370   -6.84480    6.38790
 2700.00000    -999.25    7.64910    -999.25    -999.25    -999.25   86.15850   99.50740    -999.25    -999.25    -999.25   10.04950   62.37780   62.37780    -999.25    -999.25   11.31010   11.31010   10.04950    -999.25    -999.25  -20.34000   -5.92700    7.64910
 2750.00000    -999.25    6.49870    -999.25    -999.25    -999.25   89.63610   94.31830    -999.25    -999.25    -999.25   10.60240   64.09550   64.09550    -999.25    -999.25   17.27320   17.27320   10.60240    -999.25    -999.25  -19.32830   -4.77130    6.49870
 2800.00000    -999.25    6.33020    -999.25    -999.25    -999.25  178.60420  179.92410    -999.25    -999.25    -999.25    5.55790   91.27720   91.27720    -999.25    -999.25   17.69110   17.69110    5.55790    -999.25    -999.25  -17.71080   -3.00970    6.33020
 2850.00000    -999.25    7.88330    -999.25    -999.25    -999.25  140.71010  146.34430    -999.25    -999.25    -999.25    6.83320   81.62090   81.62090    -999.25    -999.25   13.95370   13.95370    6.83320    -999.25    -999.25  -20.19420   -5.34900    7.88330
 2900.00000    -999.25    7.05290    -999.25    -999.25    -999.25  238.09580  196.60660    -999.25    -999.25    -999.25    5.08630  105.28580  105.28580    -999.25    -999.25   19.15310   19.15310    5.08630    -999.25    -999.25  -17.23870   -2.24940    7.05290
 2950.00000    -999.25   11.93780    -999.25    -999.25    -999.25   58.72940   63.82880    -999.25    -999.25    -999.25   15.66690   55.37070   55.37070    -999.25    -999.25   10.02700   10.02700   15.66690    -999.25    -999.25  -21.37110   -6.23770   11.93780
 3000.00000    -999.25   11.42160    -999.25    -999.25    -999.25   67.03150   69.90220    -999.25    -999.25    -999.25   14.30570   59.57500   59.57500    -999.25    -999.25   12.43450   12.43450   14.30570    -999.25    -999.25  -19.34240   -4.06490   11.42160
 3050.00000    -999.25    6.77290    -999.25    -999.25    -999.25  219.32960  229.79000    -999.25    -999.25    -999.25    4.35180   58.39300   58.39300    -999.25    -999.25   19.77370   19.77370    4.35180    -999.25    -999.25  -16.57650   -1.15500    6.77290
 3100.00000    -999.25   10.84510    -999.25    -999.25    -999.25   80.79430   83.93130    -999.25    -999.25    -999.25   11.91450   58.41330   58.41330    -999.25    -999.25   12.06170   12.06170   11.91450    -999.25    -999.25  -16.03040   -0.46480   10.84510
 3150.00000    -999.25   11.65960    -999.25    -999.25    -999.25   67.26660   68.97120    -999.25    -999.25    -999.25   14.49880   58.45340   58.45340    -999.25    -999.25    9.12520    9.12520   14.49880    -999.25    -999.25  -21.57380   -5.86410   11.65960
 3200.00000    -999.25    8.48360    -999.25    -999.25    -999.25  101.67140  101.68900    -999.25    -999.25    -999.25    9.83390   62.38300   62.38300    -999.25    -999.25    9.17370    9.17370    9.83390    -999.25    -999.25  -25.77880   -9.92500    8.48360
 3250.00000    -999.25    9.43850    -999.25    -999.25    -999.25   79.07860   82.86650    -999.25    -999.25    -999.25   12.06760   60.99770   60.99770    -999.25    -999.25    9.45490    9.45490   12.06760    -999.25    -999.25  -21.35610   -5.35820    9.43850
 3300.00000    -999.25    8.49850    -999.25    -999.25    -999.25   99.03030  104.49320    -999.25    -999.25    -999.25    9.57000   63.87500   63.87500    -999.25    -999.25    9.86710    9.86710    9.57000    -999.25    -999.25  -23.40570   -7.26380    8.49850
 3350.00000    -999.25    7.65520    -999.25    -999.25    -999.25  114.97370  114.05370    -999.25    -999.25    -999.25    8.76780   59.83740   59.83740    -999.25    -999.25   11.64170   11.64170    8.76780    -999.25    -999.25  -27.18700  -10.90100    7.65520
