~Version ---------------------------------------------------
VERS. 2.0 : CWLS log ASCII Standard -VERSION 2.0
WRAP.  NO : ONE LINE PER DEPTH STEP
~Well ------------------------------------------------------
STRT.F                   300.0 : START DEPTH
STOP.F                  8000.0 : STOP DEPTH
STEP.F                50.00000 : STEP LENGTH
NULL.                  -999.25 : NULL VALUE
COMP. AMOCO PRODUCTION COMPANY : COMPANY
WELL.      DON DILLON ET AL #2 : WELL
FLD .               STONE CITY : FIELD
LOC .                          : LOCATION
CNTY.                 BURLESON : COUNTY
STAT.                    TEXAS : STATE
CTRY. UNITED STATES OF AMERICA : COUNTRY
SRVC.             Schlumberger : SERVICE COMPANY
DATE.              24-Aug-1981 : LOGDATE
API .           42051317780000 : API NUMBER
UWI .           42051317780000 : UNIQUE WELL ID
SLAT.WGS84       30.6071406045 : SURFACE LATITUDE
SLON.WGS84      -96.5577066683 : SURFACE LONGITUDE
~Curve Information -----------------------------------------
DEPT.F                 : 
SPR .MV   07 010 01 00 : SPONTANEOUS POTENTIAL FROM RES. LOG
CILD.MMHO 07 110 46 00 : CONDUCTIVITY INDUCTION LOG DEEP
ILD .OHMM 07 120 46 00 : INDUCTION LOG DEEP
ASFL.OHMM 07 221 06 00 : AMPLIFIED SHALLOW FOCUSED LOG RESISTIVITY
GRD .GAPI 45 310 01 00 : GAMMA RAY FROM DENSITY LOG
CALD.IN   45 280 60 00 : CALIPER FROM DENSITY LOG
NPHI.DEC  42 890 01 00 : NEUTRON POROSITY LIMESTONE
DPHI.DEC  45 890 10 00 : DENSITY POROSITY LIMESTONE
RHOB.G/C3 45 350 01 00 : BULK DENSITY
DRHO.G/C3 45 356 01 00 : DENSITY CORRECTION
~Params ----------------------------------------------------
PD  .                      GL : PERMANENT DATUM
EPD .F                  274.7 : ELEVATION PERMANENT DATUM
LMF .                      KB : LOG MEASURED FROM
DAPD.F                   17.9 : FEET ABOVE PERMANENT DATUM
DMF .                      KB : DRILLING MEASURED FROM
EKB .F                  292.6 : KELLING BUSHING
EDF .F                  291.6 : DRILLING FLOOR
EGL .F                  274.7 : GROUND LEVEL
DATE.             24-AUG-1981 : RUN DATE
RUN .                       1 : RUN NUMBER
DD  .F                   8057 : DEPTH DRILLER
DL  .F                   8046 : DEPTH LOGGER
BLI .F                   8040 : BOTTOM LOG INTERVAL
TLI .F                   1203 : TOP LOG INTERVAL
CS  .IN                 8.625 : CASING SIZE
CBD .F                   1203 : CASING BOTTOM DRILLER
CBL .F                   1203 : CASING BOTTOM LOGGER
BS  .IN                 7.875 : BIT SIZE
BSD .F                   8057 : BIT SIZE AT DEPTH
DFT .                     LNS : DRILLING FLUID TYPE
DFD .                       9 : DRILLING FLUID DENSITY
DFV .                      42 : DRILLING FLUID VISCOSITY
DFPH.                       9 : DRILLING FLUID PH
DFL .                       7 : DRILLING FLUID LOSS
MSS .                    TANK : MUD SAMPLE SOURCE
RMS .OHMM                1.81 : RESISTIVITY MUD SAMPLE
MST .F                    115 : MUD SAMPLE TEMPERATURE
RMF .OHMM                0.91 : RESISTIVITY MUD FILTRATE SAMPLE
MFST.F                    115 : MUD FILTRATE SAMPLE TEMPERATURE
RMC .OHMM               1.815 : RESISTIVITY MUD CAKE
MCST.F                    115 : MUD CAKE SAMPLE TEMPERATURE
MFSS.                       M : MUD FILTRATE SAMPLE SOURCE
MCSS.                       C : MUD CAKE SAMPLE SOURCE
RMB .OHMM               0.802 : RESISTIVITY MUD AT BHT
TCS .HRS                 1530 : TIME CURCULATED STOPPED
TLAB.HRS                 2030 : TIME LOGGER AT BOTTOM
LUN .                    8696 : LOGGING UNIT NUMBER
LUL .                 BRENHAM : LOGGING UNIT LOCATION
ENGI.           WYATT, CHURCH : RECORDING ENGINEER
WITN.                J. ALTIC : WITNESSED BY
CLNT.                 A2DTECH : CLIENT CODE
ORIG.            1", 5" PRINT : ORIGIN OF DATA
UWI .          42051317780000 : UNIQUE WELL ID
DICO.  A2D Technologies, Inc. : DIGITIZING COMPANY
R1  . POROSITY WITH LIMESTONE : REMARKS 1
~Other -----------------------------------------------------
~ASCII -----------------------------------------------------
  300.00000    -999.25    -999.25    -999.25    -999.25   36.69610    -999.25    0.50510    -999.25    -999.25    -999.25
  350.00000    -999.25    -999.25    -999.25    -999.25   33.87340    -999.25    0.58140    -999.25    -999.25    -999.25
  400.00000    -999.25    -999.25    -999.25    -999.25   39.37350    -999.25    0.49070    -999.25    -999.25    -999.25
  450.00000    -999.25    -999.25    -999.25    -999.25   40.86820    -999.25    0.53410    -999.25    -999.25    -999.25
  500.00000    -999.25    -999.25    -999.25    -999.25   42.83560    -999.25    0.55530    -999.25    -999.25    -999.25
  550.00000    -999.25    -999.25    -999.25    -999.25   44.16150    -999.25    0.60970    -999.25    -999.25    -999.25
  600.00000    -999.25    -999.25    -999.25    -999.25   49.05710    -999.25    0.50750    -999.25    -999.25    -999.25
  650.00000    -999.25    -999.25    -999.25    -999.25   51.06180    -999.25    0.49050    -999.25    -999.25    -999.25
  700.00000    -999.25    -999.25    -999.25    -999.25   43.47610    -999.25    0.46810    -999.25    -999.25    -999.25
  750.00000    -999.25    -999.25    -999.25    -999.25   45.86500    -999.25    0.47430    -999.25    -999.25    -999.25
  800.00000    -999.25    -999.25    -999.25    -999.25   42.31840    -999.25    0.51270    -999.25    -999.25    -999.25
  850.00000    -999.25    -999.25    -999.25    -999.25   47.28630    -999.25    0.45620    -999.25    -999.25    -999.25
  900.00000    -999.25    -999.25    -999.25    -999.25   41.76720    -999.25    0.48750    -999.25    -999.25    -999.25
  950.00000    -999.25    -999.25    -999.25    -999.25   29.93240    -999.25    0.39900    -999.25    -999.25    -999.25
 1000.00000    -999.25    -999.25    -999.25    -999.25   45.86700    -999.25    0.50290    -999.25    -999.25    -999.25
 1050.00000    -999.25    -999.25    -999.25    -999.25   47.51490    -999.25    0.48150    -999.25    -999.25    -999.25
 1100.00000    -999.25    -999.25    -999.25    -999.25   36.63540    -999.25    0.46680    -999.25    -999.25    -999.25
 1150.00000    -999.25    -999.25    -999.25    -999.25   36.81920    -999.25    0.48720    -999.25    -999.25    -999.25
 1200.00000    -999.25    -999.25    -999.25    -999.25   26.51720    -999.25    0.44120    -999.25    -999.25    -999.25
 1250.00000    7.06160   19.68500   32.53390   23.68240   35.74100   11.01510    0.38970    0.36260    2.09640    0.05880
 1300.00000    4.64030  214.43640    5.21050    4.00780   75.68680    9.76040    0.41490    0.31100    2.19900    0.10640
 1350.00000    3.84390   51.18110   15.97740   13.05880   46.66360   10.33000    0.35010    0.42140    2.00040    0.05290
 1400.00000    2.41950   51.18110   16.09710   13.34530   67.68820    9.20070    0.40130    0.25450    2.28120    0.10660
 1450.00000    0.29750  207.87400    4.50770    5.06860   55.14810    8.91530    0.34190    0.39380    2.03080    0.03590
 1500.00000   -3.81170  129.92130    6.41620    7.27130   70.80060    8.47820    0.35450    0.26070    2.26460    0.04890
 1550.00000   -0.24140  122.04720    7.71710    8.17930   65.73570    8.48450    0.35140    0.32130    2.16130    0.06040
 1600.00000    2.39410  180.89170    6.20800    3.50830   81.54530    9.03760    0.35710    0.44790    2.08270    0.08800
 1650.00000   -2.46970   98.42520    8.41870    8.34690   55.81020    9.74830    0.33620    0.35050    2.11010    0.00890
 1700.00000   -4.60440  164.69790    5.37850    4.66670   72.60930   10.09900    0.35220    0.27670    2.24820    0.03550
 1750.00000   -4.01930  208.66140    4.44980    3.99060   71.29410   10.76290    0.30960    0.32190    2.16570    0.04070
 1800.00000   -3.52750  183.94580    5.11580    5.17200   62.78010    9.61710    0.34890    0.33450    2.15220    0.03740
 1850.00000   -2.82060  148.53260    5.67470    6.31370   64.29040    8.50000    0.23460    0.16050    2.44260    0.08320
 1900.00000   -2.20660  132.81770    6.81270    6.73620   50.97500    8.48040    0.37110    0.38670    2.05110    0.03500
 1950.00000   -1.77470  110.23620    9.06440    8.19610   56.92700    9.32350    0.37410    0.36870    2.08300    0.02360
 2000.00000   -3.34670  220.95710    4.82010    4.51270   87.43120   11.32150    0.31120    0.26470    2.26720    0.06420
 2050.00000   -2.69530   66.92910   12.01470   10.23800   49.40580   11.90170    0.29600    0.40680    2.01210    0.02380
 2100.00000   -5.85760  140.84770    9.45950    6.23910   77.18280    8.66230    0.36300    0.30640    2.21220    0.02750
 2150.00000    0.53800  396.98730    2.87700    2.88160   87.49840    9.04060    0.35110    0.30560    2.20610    0.07500
 2200.00000    0.78170  303.04440    3.41530    3.26790   85.37470    9.80260    0.38370    0.33630    2.13610    0.08990
 2250.00000   -6.00420  244.09450    3.69680    3.52330   75.56230    9.71170    0.36510    0.29970    2.20480    0.10810
 2300.00000    1.67100   75.90900   13.01610   13.05670   44.01280    9.79050    0.52920    0.44950    1.50960   -0.03270
 2350.00000  -19.80070   97.44090    8.17740    8.01740   67.24710    9.29030    0.37260    0.31710    2.17060    0.07030
 2400.00000  -20.18320  201.46040    4.73300    4.49100   69.24700    9.84670    0.56260    0.63230    1.57670   -0.01800
 2450.00000  -16.34630   64.30450    9.90350   11.39770   56.80630    9.20630    0.30630    0.15570    2.39300    0.14540
 2500.00000   -0.41790    6.23660   35.96390   24.07340   51.09340    9.76400    0.30470    0.36220    2.09060    0.04340
 2550.00000   -0.61570    0.00040   40.96500   26.46350   35.85090    9.48410    0.27330    0.33030    2.13500    0.04560
 2600.00000   -4.70120   11.05250   26.84730   20.41200   34.90240   12.79790    0.41550    0.65570    1.65030   -0.00550
 2650.00000   -6.00210   26.86430   29.83280   22.11890   60.31060   10.90530    0.31120    0.28720    2.25610    0.09200
 2700.00000   -2.97410   10.49870   35.12080   24.50910   45.39620   10.19540    0.32330    0.36090    2.09580    0.02890
 2750.00000   -7.20100   33.46460   24.77670   19.39180   59.66320   11.44960    0.37410    0.35250    2.03300    0.08480
 2800.00000    0.11640    3.93120   44.55770   28.83880   44.89550   10.75550    0.36090    0.40600    2.02950    0.07800
 2850.00000   -5.07820   25.59050   25.79820   20.11760   66.30920    8.62060    0.33240    0.33490    2.13980    0.01700
 2900.00000    0.51420   11.81100   35.26000   25.48480   56.40250    9.95240    0.33020    0.33050    2.14960    0.01860
 2950.00000   -5.05860   36.26190   18.36100   15.80390   81.61700    8.94570    0.30000    0.27470    2.25100    0.06470
 3000.00000   -1.43830   19.68500   26.99530   23.88350   54.39340    8.41920    0.31200    0.32730    2.16800    0.04100
 3050.00000    0.99550   35.43310   19.68730   18.18570   67.06590    8.68740    0.32070    0.31920    2.19530    0.01910
 3100.00000    2.09770   29.41110   24.58380   21.45640   53.05830    8.60560    0.30800    0.30540    2.19800    0.02760
 3150.00000    3.31120   35.43310   20.79970   16.99180   62.01970    8.63140    0.33090    0.35240    2.10510    0.01010
 3200.00000   -0.87670  233.38150    4.66720    5.33660  116.24960    9.33180    0.36710    0.45030    2.15610    0.06530
 3250.00000   -9.19640   98.42520    8.39480    9.41180   84.45560    8.65690    0.32000    0.17730    2.38330    0.05630
 3300.00000  -34.20560  216.44890    4.26200    7.30850   57.90520    8.30050    0.29370    0.32850    2.15000    0.04360
 3350.00000  -10.91420  174.01570    5.42340    8.62740   91.43660    8.45930    0.29460    0.28090    2.23250    0.01950
 3400.00000   -1.23590  373.01660    2.85780    3.76590   95.80510    8.76230    0.38430    0.29240    2.21820    0.06120
 3450.00000  -26.58170  181.10940    4.90190    7.67780   58.34750    8.17920    0.30370    0.35820    2.10350    0.02510
 3500.00000  -24.27260  176.73010    5.29570    8.57500   65.72650    8.26470    0.30090    0.33190    2.14480    0.00740
 3550.00000   -3.82770  325.45930    2.95830    3.11640   73.20660    8.26670    0.29900    0.21320    2.34980    0.04830
