~Version ---------------------------------------------------
VERS. 2.0 : CWLS log ASCII Standard -VERSION 2.0
WRAP.  NO : ONE LINE PER DEPTH STEP
~Well ------------------------------------------------------
STRT.FT                            300.0 : START DEPTH
STOP.FT                          22000.0 : STOP DEPTH
STEP.FT                         50.00000 : STEP LENGTH
NULL.                            -999.25 : NULL VALUE
COMP. PAN AMERICAN PETROLEUM CORPORATION : COMPANY
WELL.                  A. M. FOERSTER #1 : WELL
FLD .                            WILDCAT : FIELD
LOC .                                    : LOCATION
CNTY.                           LA SALLE : COUNTY
STAT.                              TEXAS : STATE
CTRY.           UNITED STATES OF AMERICA : COUNTRY
SRVC.                       Schlumberger : SERVICE COMPANY
DATE.                        20-Aug-1964 : LOGDATE
API .                     42283002040000 : API NUMBER
UWI .                     42283002040000 : UNIQUE WELL ID
SLAT.WGS84                 28.3371650608 : SURFACE LATITUDE
SLON.WGS84                -98.9649233845 : SURFACE LONGITUDE
~Curve Information -----------------------------------------
DEPT  .FT    : DEPTH
CONDWS.MMHO  : CONDUCTIVITY [CILDED] FROM IEL
ILDED .OHMM  : INDUCTION LOG DEEP RESISTIVITY FROM IEL
ASNED .OHMM  : SHORT NORMAL RESISTIVITY 16 INCH FROM IEL
CILDED.MMHO  : CONDUCTIVITY FROM IEL
DRESWS.OHMM  : DEEP RESISTIVITY [ILDED] FROM IEL [IF ILDED < 1 THEN 1000/CILDED]
DTWS  .US/F  : DELTA TIME FROM SONIC LOG
NEUTWS.CU    : NEUTRON FROM GAMMA RAY NEUTRON LOG
GRNED .GAPI  : GAMMA RAY FROM NEUTRON LOG
NEUTED.NAPI  : NEUTRON  FROM GAMMA RAY NEUTRON LOG
SPED  .MV    : SPONTANEOUS POTENTIAL [MECHANICAL SHIFTS REMOVED]
SPWS  .MV    : SPONTANEOUS POTENTIAL [BASELINE 0 MV]
CALSED.IN    : CALIPER FROM SONIC LOG
DTED  .US/F  : DELTA TIME FROM SONIC LOG
SRESWS.OHMM  : SHALLOW RESISTIVITY [ASNED] FROM IEL
GRWS  .GAPI  : GAMMA RAY [GRNED] FROM GAMMA RAY NEUTRON LOG
CALWS .IN    : CALIPER [CALSED] FROM SONIC LOG
SPSED .MV    : SPONTANEOUS POTENTIAL FROM SONIC LOG [MECHANICAL SHIFTS REMOVED]
~Params ----------------------------------------------------
EKB .F                 473.5 : KELLY BUSHING
EGL .F                   445 : ELEVATION GROUND LEVEL
EDF .F                   471 : ELEVATION DERRICK FLOOR
EPD .F                   445 : ELEVATION PERMANENT DATUM
TD  .F               21995.0 : TOTAL DEPTH
DATE.            20-AUG-1964 : DATE LOGGED
CLNT.                A2DTECH : CLIENT CODE
SL  .   1320' FSL & 660' FWL : SURFACE LOCATION
PD  .                     GL : PERMANENT DATUM
LMF .                     KB : LOG MEASURED FROM
DMF .                     KB : DRILLING MEASURED FROM
DAPD.F                  28.5 : FEET ABOVE PERMANENT DATUM
DD  .F                 21995 : DEPTH DRILLER
DL  .F                 21992 : DEPTH LOGGER
BLI .F                 21991 : BOTTOM LOG INTERVAL
TLI .F                 20005 : TOP LOG INTERVAL
CS1 .IN                9.625 : CASING SIZE
CBD1.        9.625" @ 15993' : CASING DRILLER 1
CBL1.F                 15993 : CASING LOGGER 1
BS1 .IN                  8.5 : BIT SIZE
BSD1.F                 21995 : DEPTH DRILLED WITH BIT1
DFT .              XP-20-O.E : TYPE FLUID IN HOLE
DFD .                   18.4 : DENSITY
DFV .                     54 : VISCOSITY
DFPH.                    8.9 : PH
DFL .                      4 : FLUID LOSS
MSS .                MUD/PIT : SOURCE OF SAMPLE
RMS .OHMM               0.15 : RM
RMF .OHMM              0.089 : RMF
RMC .OHMM               0.32 : RMC
MFSS.                   MEAS : SOURCE RMF.
MCSS.                   MEAS : SOURCE RMC.
RMB .OHMM              0.046 : RM. AT BHT
BHT .F                   404 : BHT.
TCS .HRS                  10 : TIME CIRC. STOPPED
LUN .                   4526 : LOGGING UNIT NUMBER
LUL .                    KEN : LOGGING UNIT LOCATION
ENGI.                  HARSH : RECORDED BY
WITN.          FREEMAN/WALSH : WITNESSED BY
ORIG.          1" & 5" PRINT : ORIGIN OF DATA
UWI .         42283002040000 : UNIQUE WELL ID
DICO. A2D TECHNOLOGIES, INC. : DIGITIZING COMPANY
~Other -----------------------------------------------------
~ASCII -----------------------------------------------------
# ...
 6450.00000  647.76100    1.58800    1.77500  647.76100    1.58800   93.07200    -999.25    -999.25    -999.25  -37.73900  -10.68760   14.13800   93.07200    1.77500    -999.25   14.13800  -21.67100
 6500.00000  390.54700    2.61300    2.94000  390.54700    2.61300   87.99100    -999.25    -999.25    -999.25  -35.01200   -8.30360   13.57000   87.99100    2.94000    -999.25   13.57000  -24.64600
 6550.00000  413.46700    2.52700    2.86400  413.46700    2.52700   84.97500    -999.25    -999.25    -999.25  -33.55100   -7.18560   13.44800   84.97500    2.86400    -999.25   13.44800  -24.86100
 6600.00000  435.69400    2.24500    2.59800  435.69400    2.24500   96.98100    -999.25    -999.25    -999.25  -31.36900   -5.34660   14.32800   96.98100    2.59800    -999.25   14.32800  -22.41200
 6650.00000  311.02900    3.07300    3.60600  311.02900    3.07300  103.00700    -999.25    -999.25    -999.25  -30.89300   -4.94260   14.49300  103.00700    3.60600    -999.25   14.49300  -23.11100
 6700.00000  539.15000    1.88300    2.40100  539.15000    1.88300   85.79100    -999.25    -999.25    -999.25  -27.96100   -1.80040   14.62300   85.79100    2.40100    -999.25   14.62300  -21.36800
 6750.00000  603.36100    1.73100    2.04200  603.36100    1.73100   92.27200    -999.25    -999.25    -999.25  -30.78800   -4.41720   14.97900   92.27200    2.04200    -999.25   14.97900  -21.84500
 6800.00000  507.22100    2.01000    2.24000  507.22100    2.01000   99.65200    -999.25    -999.25    -999.25  -30.58900   -4.00800   14.97700   99.65200    2.24000    -999.25   14.97700  -22.83200
 6850.00000  604.34000    1.71200    1.98600  604.34000    1.71200   93.10000    -999.25    -999.25    -999.25  -29.02500   -2.23380   14.98300   93.10000    1.98600    -999.25   14.98300  -23.06400
 6900.00000  380.15900    2.63800    3.11100  380.15900    2.63800   94.17400    -999.25    -999.25    -999.25  -32.75800   -5.75660   14.99200   94.17400    3.11100    -999.25   14.99200  -21.95400
 6950.00000   88.35700   11.18300    6.27600   88.35700   11.18300   79.80800    -999.25    -999.25    -999.25  -34.91100   -7.69950   13.33700   79.80800    6.27600    -999.25   13.33700  -22.88800
 7000.00000  502.15400    2.03000    2.27400  502.15400    2.03000   81.39000    -999.25    -999.25    -999.25  -32.15600   -4.73430   13.98900   81.39000    2.27400    -999.25   13.98900  -24.56000
 7050.00000  642.23500    1.58600    2.07100  642.23500    1.58600   85.77700    -999.25    -999.25    -999.25  -33.11900   -5.48710   15.00600   85.77700    2.07100    -999.25   15.00600  -25.01400
 7100.00000  328.61800    3.03100    3.26000  328.61800    3.03100   89.11500    -999.25    -999.25    -999.25  -35.04500   -7.20290   15.28800   89.11500    3.26000    -999.25   15.28800  -23.22000
 7150.00000  532.11100    1.94800    2.38200  532.11100    1.94800   89.10200    -999.25    -999.25    -999.25  -32.99600   -4.94370   14.72100   89.10200    2.38200    -999.25   14.72100  -25.33900
 7200.00000  537.34200    1.86900    2.29500  537.34200    1.86900   88.78200    -999.25    -999.25    -999.25  -31.34700   -3.08450   14.37500   88.78200    2.29500    -999.25   14.37500  -26.53900
 7250.00000  501.58800    1.94400    2.40500  501.58800    1.94400   88.60200    -999.25    -999.25    -999.25  -31.51800   -3.04540   14.44500   88.60200    2.40500    -999.25   14.44500  -25.64500
 7300.00000  607.38100    1.73500    2.14100  607.38100    1.73500   88.89300    -999.25    -999.25    -999.25  -30.80000   -2.10950   14.46000   88.89300    2.14100    -999.25   14.46000  -25.74100
 7350.00000  431.63700    2.11400    2.45900  431.63700    2.11400   86.75200    -999.25    -999.25    -999.25  -36.49200   -7.43820   14.37300   86.75200    2.45900    -999.25   14.37300  -26.16800
 7400.00000  447.79700    2.08700    2.52100  447.79700    2.08700   90.89300    -999.25    -999.25    -999.25  -36.07200   -6.65490   13.45600   90.89300    2.52100    -999.25   13.45600  -26.78500
 7450.00000  519.88800    2.02000    2.43000  519.88800    2.02000   90.20300    -999.25    -999.25    -999.25  -30.97300   -1.19250   14.22300   90.20300    2.43000    -999.25   14.22300  -25.27400
 7500.00000  439.23500    2.32600    2.72300  439.23500    2.32600   90.21400    -999.25    -999.25    -999.25  -31.56700   -1.42320   14.48600   90.21400    2.72300    -999.25   14.48600  -25.65900
 7550.00000  478.62300    2.16900    2.50700  478.62300    2.16900   90.82100    -999.25    -999.25    -999.25  -30.52900   -0.02190   14.51900   90.82100    2.50700    -999.25   14.51900  -25.06000
 7600.00000  440.93600    2.25000    2.72000  440.93600    2.25000   87.57300    -999.25    -999.25    -999.25  -31.56700   -0.69660   14.34500   87.57300    2.72000    -999.25   14.34500  -25.33100
 7650.00000  402.90600    2.52900    2.88100  402.90600    2.52900   86.09100    -999.25    -999.25    -999.25  -32.04400   -0.81020   14.47900   86.09100    2.88100    -999.25   14.47900  -25.34000
 7700.00000  479.19800    2.17900    2.56400  479.19800    2.17900   92.29200    -999.25    -999.25    -999.25  -31.18300    0.41410   14.79300   92.29200    2.56400    -999.25   14.79300  -24.77900
 7750.00000  443.47000    2.31800    2.72200  443.47000    2.31800   95.77500    -999.25    -999.25    -999.25  -32.21200   -0.25160   14.90300   95.77500    2.72200    -999.25   14.90300  -24.10000
 7800.00000  377.13700    2.69400    3.00300  377.13700    2.69400   83.49800    -999.25    -999.25    -999.25  -33.02900   -1.01950   14.57800   83.49800    3.00300    -999.25   14.57800  -25.02800
 7850.00000  355.47000    2.89600    3.31300  355.47000    2.89600   85.65200    -999.25    -999.25    -999.25  -32.88200   -0.94570   14.71800   85.65200    3.31300    -999.25   14.71800  -28.83900
 7900.00000  370.94000    2.72000    3.26800  370.94000    2.72000   83.88400    -999.25    -999.25    -999.25  -33.62700   -1.76380   14.05100   83.88400    3.26800    -999.25   14.05100  -29.19200
 7950.00000  316.50600    3.12900    3.57500  316.50600    3.12900   82.86100    -999.25    -999.25    -999.25  -33.49500   -1.70500   14.08400   82.86100    3.57500    -999.25   14.08400  -27.48700
 8000.00000  373.94400    2.71400    3.28700  373.94400    2.71400   85.60400    -999.25    -999.25    -999.25  -33.28800   -1.57110   14.10600   85.60400    3.28700    -999.25   14.10600  -27.47700
 8050.00000  299.74700    3.33400    4.07000  299.74700    3.33400   80.97300    -999.25    -999.25    -999.25  -32.89800   -1.25420   13.70200   80.97300    4.07000    -999.25   13.70200  -26.55400
 8100.00000  269.80100    3.71800    4.36100  269.80100    3.71800   82.15700    -999.25    -999.25    -999.25  -33.10500   -1.53440   13.37900   82.15700    4.36100    -999.25   13.37900  -28.05200
 8150.00000  281.17500    3.55700    4.37500  281.17500    3.55700   80.47000    -999.25    -999.25    -999.25  -32.67300   -1.17550   13.17100   80.47000    4.37500    -999.25   13.17100  -25.92000
 8200.00000  317.77600    3.11500    3.72500  317.77600    3.11500   79.40000    -999.25    -999.25    -999.25  -31.94100   -0.51670   13.12300   79.40000    3.72500    -999.25   13.12300  -27.78300
 8250.00000  359.12800    2.79200    3.22800  359.12800    2.79200   80.52700    -999.25    -999.25    -999.25  -36.24000   -4.88880   13.25400   80.52700    3.22800    -999.25   13.25400  -30.21300
 8300.00000  320.29900    3.12200    3.29900  320.29900    3.12200   77.22100    -999.25    -999.25    -999.25  -36.48900   -5.21100   13.14600   77.22100    3.29900    -999.25   13.14600  -30.65500
 8350.00000  458.72600    2.17500    2.62300  458.72600    2.17500   87.22700    -999.25    -999.25    -999.25  -31.71200   -0.50710   14.26300   87.22700    2.62300    -999.25   14.26300  -26.05400
 8400.00000  489.38100    2.05600    2.47000  489.38100    2.05600   98.75700    -999.25    -999.25    -999.25  -31.21600   -0.08430   14.56000   98.75700    2.47000    -999.25   14.56000  -25.35300
 8450.00000  411.11400    2.46600    2.72900  411.11400    2.46600   80.16900    -999.25    -999.25    -999.25  -31.65200   -0.59340   14.83500   80.16900    2.72900    -999.25   14.83500  -25.59500
