~Version ---------------------------------------------------
VERS. 2.0 : CWLS log ASCII Standard -VERSION 2.0
WRAP.  NO : ONE LINE PER DEPTH STEP
~Well ------------------------------------------------------
STRT.FT                   3250.0 : START DEPTH
STOP.FT                   7500.0 : STOP DEPTH
STEP.FT                 50.00000 : STEP LENGTH
NULL.                    -999.25 : NULL VALUE
COMP. CHAMPLIN EXPLORATION, INC. : COMPANY
WELL.        URNER-ELIAS UNIT #1 : WELL
FLD .                   GIDDINGS : FIELD
LOC .                            : LOCATION
CNTY.                    FAYETTE : COUNTY
STAT.                      TEXAS : STATE
CTRY.   UNITED STATES OF AMERICA : COUNTRY
SRVC.               Schlumberger : SERVICE COMPANY
DATE.                08-Jan-1981 : LOGDATE
API .             42149307960000 : API NUMBER
UWI .             42149307960000 : UNIQUE WELL ID
SLAT.WGS84         29.9677724595 : SURFACE LATITUDE
SLON.WGS84        -97.1114740856 : SURFACE LONGITUDE
~Curve Information -----------------------------------------
DEPT  .FT    : DEPTH FEET
DRHOED.G/C3  : DENSITY CORRECTION FROM DENSITY LOG
RHOBED.G/C3  : BULK DENSITY FROM DENSITY LOG
SPWS  .MV    : SPONTANEOUS POTENTIAL [BASELINE 0 MV] [SPRED]
GRWS  .GAPI  : GAMMA RAY [GRRED]
GRRED .GAPI  : GAMMA RAY FROM RESISTIVITY LOG
SPRED .MV    : SPONTANEOUS POTENTIAL FROM RESISTIVITY LOG
SFLUED.OHMM  : SPHERICALLY FOCUSED LOG RESISTIVITY
ILDED .OHMM  : INDUCTION LOG DEEP RESISTIVITY
ILMED .OHMM  : INDUCTION LOG MEDIUM RESISTIVITY
DCALED.IN    : DIFFERENTIAL CALIPER FROM DENSITY LOG
NPHIED.V/V   : NEUTRON POROSITY LIMESTONE FROM DENSITY LOG [DEPTH ADJ TO RES LOG]
DPHIED.V/V   : DENSITY POROSITY [M=2.71 F=1.0] FROM DENSITY LOG
CALRED.IN    : CALIPER FROM RESISTIVITY LOG
CALWS .IN    : CALIPER [CALRED]
DCORWS.G/C3  : DENSITY CORRECTION [DRHOED]
DRESWS.OHMM  : DEEP RESISTIVITY [ILDED]
MRESWS.OHMM  : MEDIUM RESISTIVITY [ILMED]
SRESWS.OHMM  : SHALLOW RESISTIVITY [SFLUED]
CONDWS.MMHO  : CONDUCTIVITY [1000/DRESWS]
NPOWS .V/V   : NEUTRON POROSITY [NPHIED]
DENWS .G/C3  : BULK DENSITY [M=2.71 F=1] [CALCULATED FROM DPHIED]
DPOWS .V/V   : DENSITY POROSITY [M=2.71 F=1] [CALCULATED FROM DENWS]
~Params ----------------------------------------------------
PD  .                     GL : PERMANENT DATUM
EPD .FT                  302 : ELEVATION PERMANENT DATUM
LMF .                    RKB : LOG MEASURED FROM
DAPD.FT                   15 : FEET ABOVE PERMANENT DATUM
DMF .                    RKB : DRILLING MEASURED FROM
EKB .FT                  317 : KELLY BUSHING
EDF .FT                  316 : DRILLING FLOOR
EGL .FT                  302 : GROUND LEVEL
DATE.               01/08/81 : RUN DATE
RUN .                      1 : RUN NUMBER
DD  .FT                 7528 : DEPTH DRILLER
DL  .FT                 7532 : DEPTH LOGGER
BLI .FT                 7526 : BOTTOM LOG INTERVAL
TLI .FT                 3242 : TOP LOG INTERVAL
CS  .IN                8.625 : CASING SIZE
CBD .FT                 3250 : CASING BOTTOM DRILLER
CBL .FT                 3242 : CASING BOTTOM LOGGER
BS  .IN                7.875 : BIT SIZE
BSD .FT                 7528 : BIT SIZE AT DEPTH
DFT .         LIGNOSULFONATE : DRILLING FLUID TYPE
DFD .                    9.2 : DRILLING FLUID DENSITY
DFV .                     29 : DRILLING FLUID VISCOSITY
DFPH.                     10 : DRILLING FLUID PH
DFL .                    6.5 : DRILLING FLUID LOSS
MSS .               CIRC PIT : MUD SAMPLE SOURCE
RMS .OHMM               2.12 : RESISTIVITY MUD SAMPLE
MST .DEGF                 65 : MUD SAMPLE TEMPERATURE
RMF .OHMM               2.26 : RESISTIVITY MUD FILTRATE SAMPLE
MFST.DEGF                 65 : MUD FILTRATE SAMPLE TEMPERATURE
RMC .OHMM               1.45 : RESISTIVITY MUD CAKE
MCST.DEGF                 65 : MUD CAKE SAMPLE TEMPERATURE
MFSS.                   MEAS : MUD FILTRATE SAMPLE SOURCE
MCSS.                   CALC : MUD CAKE SAMPLE SOURCE
RMB .OHMM               0.78 : RESISTIVITY MUD AT BHT
TCS .HRS                 600 : TIME CIRCULATED STOPPED
TLAB.HRS                1230 : TIME LOGGER AT BOTTOM
LUN .                   8102 : LOGGING UNIT NUMBER
LUL .               CARTHAGE : LOGGING UNIT LOCATION
ENGI.                 MCSHAN : RECORDING ENGINEER
WITN.                BECKHAM : WITNESSED BY
CLNT.                A2DTECH : CLIENT CODE
ORIG.            2" 5" PRINT : ORIGIN OF DATA
UWI .         42149307960000 : UNIQUE WELL ID
DICO. A2D Technologies, Inc. : DIGITIZING COMPANY
~Other -----------------------------------------------------
ALL LOGS RUN IN COMBO
~ASCII -----------------------------------------------------
# ...
 4850.00000    -999.25    -999.25    0.29130   96.16240   96.16240  -18.24230    1.68930    1.39970    1.44270    1.41970    -999.25    -999.25    9.29470    9.29470    -999.25    1.39970    1.44270    1.68930  714.43880    -999.25    -999.25    -999.25
 4900.00000    -999.25    -999.25   -2.81950   88.31250   88.31250  -19.40700    1.85270    1.54280    1.59200    2.01700    -999.25    -999.25    9.89200    9.89200    -999.25    1.54280    1.59200    1.85270  648.17220    -999.25    -999.25    -999.25
 4950.00000    -999.25    -999.25    0.33970   81.76070   81.76070  -14.08790    1.98240    1.46590    1.57640    0.67410    -999.25    -999.25    8.54910    8.54910    -999.25    1.46590    1.57640    1.98240  682.17480    -999.25    -999.25    -999.25
 5000.00000    -999.25    -999.25   -0.14870   68.04410   68.04410  -14.10680    2.53100    2.26170    2.33970    0.40430    -999.25    -999.25    8.27930    8.27930    -999.25    2.26170    2.33970    2.53100  442.14530    -999.25    -999.25    -999.25
 5050.00000    -999.25    -999.25   -0.84640   86.47390   86.47390  -14.41010    1.54840    1.59980    1.66480    0.61660    -999.25    -999.25    8.49160    8.49160    -999.25    1.59980    1.66480    1.54840  625.07810    -999.25    -999.25    -999.25
 5100.00000    -999.25    -999.25   -9.48440   72.05860   72.05860  -23.42740    1.98970    1.67760    1.74050    0.43660    0.32760    0.13800    8.31160    8.31160    -999.25    1.67760    1.74050    1.98970  596.08970    0.32760    2.47400    0.13800
 5150.00000    -999.25    -999.25  -10.62930   70.90500   70.90500  -25.27470    2.11920    1.87820    1.96360    0.39300    0.31110    0.14340    8.26800    8.26800    -999.25    1.87820    1.96360    2.11920  532.42460    0.31110    2.46480    0.14340
 5200.00000    -999.25    -999.25   -0.97870   89.30500   89.30500  -16.32650    1.35830    1.14700    1.22770    1.70570    -999.25    -999.25    9.58070    9.58070    -999.25    1.14700    1.22770    1.35830  871.83960    -999.25    -999.25    -999.25
 5250.00000    -999.25    -999.25   -2.66290   76.58900   76.58900  -18.71310    1.44370    1.27060    1.35450    1.83580    -999.25    -999.25    9.71080    9.71080    -999.25    1.27060    1.35450    1.44370  787.02980    -999.25    -999.25    -999.25
 5300.00000    -999.25    -999.25   -1.16710   76.65890   76.65890  -20.18930    1.79260    1.53750    1.61480    1.55710    -999.25    -999.25    9.43210    9.43210    -999.25    1.53750    1.61480    1.79260  650.40650    -999.25    -999.25    -999.25
 5350.00000    -999.25    -999.25   -1.54330   74.37450   74.37450  -19.54300    1.74940    1.52460    1.58850    1.36990    -999.25    -999.25    9.24490    9.24490    -999.25    1.52460    1.58850    1.74940  655.90970    -999.25    -999.25    -999.25
 5400.00000    -999.25    -999.25   -2.54930   85.90110   85.90110  -28.16880    1.62900    1.21280    1.30290    1.19860    -999.25    -999.25    9.07360    9.07360    -999.25    1.21280    1.30290    1.62900  824.53830    -999.25    -999.25    -999.25
 5450.00000    -999.25    -999.25   -2.66290   85.68950   85.68950  -29.10060    1.44790    1.16230    1.22200    1.59940    -999.25    -999.25    9.47440    9.47440    -999.25    1.16230    1.22200    1.44790  860.36310    -999.25    -999.25    -999.25
 5500.00000    -999.25    -999.25   -0.87290   86.32990   86.32990  -27.66840    1.85420    1.54000    1.60490    1.48390    -999.25    -999.25    9.35890    9.35890    -999.25    1.54000    1.60490    1.85420  649.35060    -999.25    -999.25    -999.25
 5550.00000    -999.25    -999.25   -4.53100   97.53560   97.53560  -31.68420    1.48780    1.19470    1.26290    1.85840    -999.25    -999.25    9.73340    9.73340    -999.25    1.19470    1.26290    1.48780  837.03020    -999.25    -999.25    -999.25
 5600.00000    -999.25    -999.25   -1.36900   77.90440   77.90440  -28.87990    1.73500    1.37050    1.46310    1.54820    -999.25    -999.25    9.42320    9.42320    -999.25    1.37050    1.46310    1.73500  729.66070    -999.25    -999.25    -999.25
 5650.00000    -999.25    -999.25    0.16680   89.05360   89.05360  -27.65180    2.02720    1.73220    1.81870    0.99710    -999.25    -999.25    8.87210    8.87210    -999.25    1.73220    1.81870    2.02720  577.30050    -999.25    -999.25    -999.25
 5700.00000    -999.25    -999.25   -2.31570   74.66820   74.66820  -30.61090    1.36500    1.26090    1.32940    1.98420    -999.25    -999.25    9.85920    9.85920    -999.25    1.26090    1.32940    1.36500  793.08430    -999.25    -999.25    -999.25
 5750.00000    -999.25    -999.25   -1.35360   94.01460   94.01460  -30.84050    1.16660    0.98820    1.04470    2.11010    -999.25    -999.25    9.98510    9.98510    -999.25    0.98820    1.04470    1.16660 1011.94090    -999.25    -999.25    -999.25
 5800.00000    -999.25    -999.25   -0.83770   83.17710   83.17710  -31.51620    1.97470    1.66750    1.81120    1.99470    -999.25    -999.25    9.86970    9.86970    -999.25    1.66750    1.81120    1.97470  599.70010    -999.25    -999.25    -999.25
 5850.00000    -999.25    -999.25   -0.85150  100.59910  100.59910  -29.32080    1.11490    0.95710    1.01510    3.80760    -999.25    -999.25   11.68260   11.68260    -999.25    0.95710    1.01510    1.11490 1044.82290    -999.25    -999.25    -999.25
 5900.00000    -999.25    -999.25   -0.32160   98.38010   98.38010  -27.51070    1.37810    1.14190    1.23330    2.44220    -999.25    -999.25   10.31720   10.31720    -999.25    1.14190    1.23330    1.37810  875.73350    -999.25    -999.25    -999.25
 5950.00000    -999.25    -999.25   -6.18200   81.67760   81.67760  -33.69230    1.52770    1.32390    1.41110    4.21460    -999.25    -999.25   12.08960   12.08960    -999.25    1.32390    1.41110    1.52770  755.34410    -999.25    -999.25    -999.25
 6000.00000    -999.25    -999.25   -7.79870   90.75520   90.75520  -35.63010    1.37870    1.17710    1.24120    4.09230    -999.25    -999.25   11.96730   11.96730    -999.25    1.17710    1.24120    1.37870  849.54550    -999.25    -999.25    -999.25
 6050.00000    -999.25    -999.25   -3.89040   95.12840   95.12840  -32.04300    1.92360    1.42410    1.53510    1.82260    -999.25    -999.25    9.69760    9.69760    -999.25    1.42410    1.53510    1.92360  702.19790    -999.25    -999.25    -999.25
 6100.00000    -999.25    -999.25   -3.41060   95.20470   95.20470  -31.88430    2.12410    1.75020    1.87000    1.85120    -999.25    -999.25    9.72620    9.72620    -999.25    1.75020    1.87000    2.12410  571.36330    -999.25    -999.25    -999.25
 6150.00000    -999.25    -999.25   -6.00790  100.11390  100.11390  -35.83140    1.54730    1.28590    1.36050    3.97710    -999.25    -999.25   11.85210   11.85210    -999.25    1.28590    1.36050    1.54730  777.66550    -999.25    -999.25    -999.25
 6200.00000    -999.25    -999.25   -1.89320   90.36080   90.36080  -34.30380    1.60460    1.32510    1.41370    4.26960    -999.25    -999.25   12.14460   12.14460    -999.25    1.32510    1.41370    1.60460  754.66000    -999.25    -999.25    -999.25
 6250.00000    -999.25    -999.25   -1.19350   91.07940   91.07940  -34.54310    1.50800    1.25690    1.33610    5.82450    -999.25    -999.25   13.69950   13.69950    -999.25    1.25690    1.33610    1.50800  795.60830    -999.25    -999.25    -999.25
 6300.00000    -999.25    -999.25   -2.89360   82.17690   82.17690  -37.18230    1.51910    1.23960    1.33450    5.96530    -999.25    -999.25   13.84030   13.84030    -999.25    1.23960    1.33450    1.51910  806.71190    -999.25    -999.25    -999.25
 6350.00000    -999.25    -999.25   -5.50980   94.02290   94.02290  -42.18370    1.68430    1.35720    1.47370    2.72930    -999.25    -999.25   10.60430   10.60430    -999.25    1.35720    1.47370    1.68430  736.81110    -999.25    -999.25    -999.25
 6400.00000    -999.25    -999.25   -0.78820   75.32220   75.32220  -38.96460    3.05820    2.46000    2.60520    2.45270    -999.25    -999.25   10.32770   10.32770    -999.25    2.46000    2.60520    3.05820  406.50410    -999.25    -999.25    -999.25
