~Version ---------------------------------------------------
VERS. 2.0 : CWLS log ASCII Standard -VERSION 2.0
WRAP. YES : MULTIPLE LINES PER DEPTH STEP
~Well ------------------------------------------------------
STRT.FT                        2500.0 : START DEPTH
STOP.FT                       11350.0 : STOP DEPTH
STEP.FT                      50.00000 : STEP LENGTH
NULL.                         -999.25 : NULL VALUE
COMP. UNION PACIFIC RESOURCES COMPANY : COMPANY
WELL.             BOZKA-BOZKA UNIT #1 : WELL
FLD .                     PEACH CREEK : FIELD
LOC .                                 : LOCATION
CNTY.                        GONZALES : COUNTY
STAT.                           TEXAS : STATE
CTRY.        UNITED STATES OF AMERICA : COUNTRY
SRVC.                    Schlumberger : SERVICE COMPANY
DATE.                     08-Oct-1991 : LOGDATE
API .                  42177319460000 : API NUMBER
UWI .                  42177319460000 : UNIQUE WELL ID
SLAT.WGS84              29.4649895079 : SURFACE LATITUDE
SLON.WGS84             -97.2961371962 : SURFACE LONGITUDE
~Curve Information -----------------------------------------
DEPT    .FT    : DEPTH FEET
C1ED    .IN    : CALIPER 1 FROM CALIPER LOG
C2ED    .IN    : CALIPER 2 FROM CALIPER LOG
CALRED  .IN    : CALIPER FROM RESISTIVITY LOG
CALWS   .IN    : CALIPER [CALRED]
CONDWS  .MMHO  : CONDUCTIVITY [1000/DRESWS]
DCORWS  .G/C3  : DENSITY CORRECTION [DRHOED]
DENWS   .G/C3  : BULK DENSITY [M=2.65 F=1.0] [CALCULATED FROM DPOWS]
DPHISSED.V/V   : DENSITY POROSITY SANDSTONE [M=2.65 F=1.0] FROM DENSITY LOG, DEPTH ADJUSTED WITH [GRRED]
DPOWS   .V/V   : DENSITY POROSITY [DPHISSED]
DRESWS  .OHMM  : DEEP RESISTIVITY [ILDED]
DRHOED  .G/C3  : DENSITY CORRECTION FROM DENSITY LOG, DEPTH ADJUSTED WITH [GRRED]
GRDED   .GAPI  : GAMMA RAY FROM DENSITY LOG, DEPTH ADJUSTED WITH [GRRED]
GRRED   .GAPI  : GAMMA RAY FROM RESISTIVITY LOG
GRWS    .GAPI  : GAMMA RAY [GRRED]
ILDED   .OHMM  : INDUCTION LOG DEEP RESISTIVITY
ILMED   .OHMM  : INDUCTION LOG MEDIUM RESISTIVITY
MRESWS  .OHMM  : MEDIUM RESISTIVITY [ILMED]
NPHISSED.V/V   : NEUTRON POROSITY SANDSTONE FROM DENSITY LOG, DEPTH ADJUSTED WITH [GRRED]
NPOWS   .V/V   : NEUTRON POROSITY SANDSTONE [NPHISSED]
PEFED   .B/E   : PHOTOELECTRIC FACTOR FROM DENSITY LOG, DEPTH ADJUSTED WITH [GRRED]
PEFWS   .B/E   : PHOTOELECTRIC FACTOR [PEFED]
SFLUED  .OHMM  : SPHERICALLY FOCUSED LOG RESISTIVITY
SPRED   .MV    : SPONTANEOUS POTENTIAL FROM RESISTIVITY LOG
SPWS    .MV    : SPONTANEOUS POTENTIAL [BASELINE 0 MV] [SPRED]
SRESWS  .OHMM  : SHALLOW RESISTIVITY [SFLUED]
TENDED  .LBF   : TENSION FROM DENSITY LOG, DEPTH ADJUSTED WITH [GRRED]
TENRED  .LBF   : TENSION FROM RESISTIVITY LOG
~Params ----------------------------------------------------
PD  .                     GL : PERMANENT DATUM
EPD .FT                  312 : ELEVATION PERMANENT DATUM
LMF .                    RKB : LOG MEASURED FROM
DAPD.FT                   24 : FEET ABOVE PERMANENT DATUM
DMF .                    RKB : DRILLING MEASURED FROM
EKB .FT                  336 : KELLY BUSHING
EDF .FT                  335 : DRILLING FLOOR
EGL .FT                  312 : GROUND LEVEL
DATE.               10/09/91 : RUN DATE
RUN .                      1 : RUN NUMBER
DD  .FT                11400 : DEPTH DRILLER
DL  .FT                11376 : DEPTH LOGGER
BLI .FT                11370 : BOTTOM LOG INTERVAL
TLI .FT                 2518 : TOP LOG INTERVAL
CS  .IN                10.75 : CASING SIZE
CBD .FT                 2520 : CASING BOTTOM DRILLER
CBL .FT                 2518 : CASING BOTTOM LOGGER
BS  .IN                9.875 : BIT SIZE
BSD .FT                11400 : BIT SIZE AT DEPTH
DFT .          NEW DRILL GEL : DRILLING FLUID TYPE
DFD .                    9.6 : DRILLING FLUID DENSITY
MSS .              CIRC TANK : MUD SAMPLE SOURCE
MST .DEGF                 75 : MUD SAMPLE TEMPERATURE
RMF .OHMM               2.01 : RESISTIVITY MUD FILTRATE SAMPLE
MFST.DEGF                 75 : MUD FILTRATE SAMPLE TEMPERATURE
RMC .OHMM               4.02 : RESISTIVITY MUD CAKE
MCST.DEGF                 75 : MUD CAKE SAMPLE TEMPERATURE
MFSS.                   MEAS : MUD FILTRATE SAMPLE SOURCE
MCSS.                   CALC : MUD CAKE SAMPLE SOURCE
TCS .HRS                2200 : TIME CIRCULATED STOPPED
TLAB.HRS                2020 : TIME LOGGER AT BOTTOM
LUL .               ALICE TX : LOGGING UNIT LOCATION
ENGI.             ROTAN CAMP : RECORDING ENGINEER
WITN.                   SVOR : WITNESSED BY
CLNT.                A2DTECH : CLIENT CODE
ORIG.         1" 2" 5" PRINT : ORIGIN OF DATA
UWI .         42177319460000 : UNIQUE WELL ID
DICO. A2D Technologies, Inc. : DIGITIZING COMPANY
~Other -----------------------------------------------------
~ASCII -----------------------------------------------------
# ...
 10300.00000    9.74780    9.63510   14.42820   14.42820   38.57030   -0.00130    2.65350   -0.00210   -0.00210   25.92670   -0.00130   25.18380   27.08290   27.08290   25.92670   30.41910   30.41910    0.02550    0.02550    5.45090    5.45090   24.15540  -21.37610   -5.82110   24.15540 3783.13040 1693.49660
 10350.00000    9.16220    9.49150   13.79860   13.79860   37.04950   -0.00610    2.64080    0.00560    0.00560   26.99090   -0.00610   29.40670   28.90750   28.90750   26.99090   22.02230   22.02230    0.04850    0.04850    4.49970    4.49970   65.37760  -21.61640   -6.98020   65.37760 3890.45040 1732.04150
 10400.00000    9.17880    9.21160   13.43820   13.43820   34.09770   -0.01270    2.64540    0.00280    0.00280   29.32750   -0.01270   23.06170   22.01760   22.01760   29.32750   25.08090   25.08090    0.04190    0.04190    5.41210    5.41210   51.74930  -28.11810  -14.40080   51.74930 3894.48360 1682.84340
 10450.00000    9.24240    9.07090   14.27990   14.27990   34.32040    0.00080    2.63400    0.00970    0.00970   29.13720    0.00080   22.92750   25.92500   25.92500   29.13720   25.26790   25.26790    0.04460    0.04460    5.24680    5.24680   38.55840  -19.26120   -6.46270   38.55840 3993.91040 1718.69750
 10500.00000    9.17310    9.26980   14.01990   14.01990   46.81560    0.06880    2.62590    0.01460    0.01460   21.36040    0.06880   29.03400   23.27200   23.27200   21.36040   19.50560   19.50560    0.05180    0.05180    4.88930    4.88930   19.38210  -24.74530  -12.86570   19.38210 4016.45630 1736.60880
 10550.00000    9.20390    9.86400   14.48100   14.48100   45.57050    0.02970    2.56670    0.05050    0.05050   21.94400    0.02970   17.70180   19.15610   19.15610   21.94400   21.10270   21.10270    0.06380    0.06380    5.47690    5.47690   22.81750  -35.26010  -24.29940   22.81750 4044.44040 1785.12430
 10600.00000    9.26550   10.31690    9.01990    9.01990   57.40430   -0.01220    2.62990    0.01220    0.01220   17.42030   -0.01220   36.32360   37.24890   37.24890   17.42030   17.00610   17.00610    0.09670    0.09670    4.87010    4.87010   24.08560  -10.61940   -0.87250   24.08560 4016.13110 1701.28480
 10650.00000    9.94630   10.37210   13.27290   13.27290   37.50610   -0.00670    2.59080    0.03590    0.03590   26.66230   -0.00670   40.44570   41.27380   41.27380   26.66230   24.72190   24.72190    0.07430    0.07430    5.42030    5.42030   35.74400  -10.68740   -3.41200   35.74400 4079.15310 1773.06810
 10700.00000    9.69680    9.61040    9.84750    9.84750   34.79750    0.00650    2.49110    0.09630    0.09630   28.73770    0.00650   80.34190   78.07500   78.07500   28.73770   27.43730   27.43730    0.20280    0.20280    4.57490    4.57490   45.28230   -4.22590    0.57810   45.28230 4013.49270 1786.33400
 10750.00000   10.37400   10.32690   12.12190   12.12190   14.69020    0.00470    2.40680    0.14740    0.14740   68.07280    0.00470   98.68160   85.54380   85.54380   68.07280   53.48880   53.48880    0.22990    0.22990    4.51700    4.51700  116.34470   -4.17790   -1.84530  116.34470 3917.96240 1781.70250
 10800.00000   11.14860   12.50390   21.90420   21.90420  322.67430    0.03150    2.26740    0.23190    0.23190    3.09910    0.03150   87.39730   91.13390   91.13390    3.09910    2.86970    2.86970    0.44080    0.44080    3.63180    3.63180    4.29610  -17.84220  -18.59140    4.29610 4244.25240 1788.25320
 10850.00000    9.67470    9.99370   13.54050   13.54050   81.40410    0.11700    2.60890    0.02490    0.02490   12.28440    0.11700   36.56180   40.04250   40.04250   12.28440   10.70660   10.70660    0.06520    0.06520    4.25360    4.25360   19.72280   -1.69630   -5.98770   19.72280 4082.56230 1794.71470
 10900.00000    9.57260   10.23250    9.45310    9.45310   12.38880   -0.01480    2.66250   -0.00760   -0.00760   80.71810   -0.01480   19.73370   21.51530   21.51530   80.71810   68.16750   68.16750    0.03170    0.03170    5.25370    5.25370   92.81080   -7.41820  -15.25180   92.81080 4301.24610 1753.96790
 10950.00000   10.32840   10.31510   14.04710   14.04710   36.54140   -0.00110    2.64290    0.00430    0.00430   27.36620   -0.00110   50.35010   45.65050   45.65050   27.36620   25.19980   25.19980    0.07210    0.07210    4.82890    4.82890   51.68160    3.54150   -7.83420   51.68160 4306.00630 1807.02610
 11000.00000   10.28700   10.16960   16.95710   16.95710  172.37520    0.01940    2.67360   -0.01430   -0.01430    5.80130    0.01940   59.37820   63.28990   63.28990    5.80130    9.16430    9.16430    0.10280    0.10280    4.21170    4.21170    9.53230    3.92000  -10.99790    9.53230 4303.78370 1793.11730
 11050.00000   10.18060   10.36400   17.74040   17.74040    6.35050   -0.00190    2.67480   -0.01500   -0.01500  157.46780   -0.00190   19.91840   20.44590   20.44590  157.46780   88.16940   88.16940    0.01380    0.01380    5.23260    5.23260  221.10960  -28.13860  -46.40970  221.10960 4421.07960 1870.30150
 11100.00000    9.92090    9.96870   17.85560   17.85560    9.64700   -0.00690    2.68330   -0.02020   -0.02020  103.65970   -0.00690   23.26210   22.83580   22.83580  103.65970   66.31670   66.31670    0.01970    0.01970    5.31810    5.31810  149.32150   -4.08790  -25.58610  149.32150 4363.51760 1855.81080
 11150.00000   10.20660    9.96520   17.70070   17.70070   51.16820   -0.00770    2.65260   -0.00160   -0.00160   19.54340   -0.00770   16.36960   13.74380   13.74380   19.54340   18.47040   18.47040    0.01630    0.01630    5.31640    5.31640   65.40080 -103.44610 -128.17150   65.40080 4409.37350 1850.30930
 11200.00000    9.99730    9.97480   17.90880   17.90880   42.29400    0.00790    2.60400    0.02790    0.02790   23.64400    0.00790   29.27960   28.87920   28.87920   23.64400   20.75250   20.75250    0.01430    0.01430    5.58170    5.58170   40.17180 -102.20980 -130.16240   40.17180 4477.96780 1856.28470
 11250.00000    9.45750    9.62030   17.43220   17.43220    4.91030    0.01530    2.67520   -0.01530   -0.01530  203.65180    0.01530   22.56270   24.99660   24.99660  203.65180   74.60990   74.60990    0.01660    0.01660    5.21330    5.21330  255.55940   -1.03830  -32.21800  255.55940 4531.75100 1927.11160
 11300.00000    9.43760    9.41310   17.45100   17.45100   70.16460   -0.00220    2.63300    0.01030    0.01030   14.25220   -0.00220   29.45120   28.07800   28.07800   14.25220   13.36120   13.36120    0.02870    0.02870    4.95630    4.95630   23.55520  -77.82660 -112.23350   23.55520 4535.23730 1863.14640
 11350.00000    9.07240    8.06650   17.17560   17.17560  452.18180   -0.01210    2.55430    0.05800    0.05800    2.21150   -0.01210    -999.25    -999.25    -999.25    2.21150    2.55570    2.55570    -999.25    -999.25    5.25540    5.25540   20.59000 -144.16770 -180.70450   20.59000 4566.38130 1884.53380
