~Version ---------------------------------------------------
VERS.      2.0 : CWLS log ASCII Standard -VERSION 2.0
WRAP.      YES : Multiple lines per depth step
CREA. 01/04/13 : LAS Creation Date
~Well ------------------------------------------------------
STRT.FT                 2000.0 : START DEPTH
STOP.FT                 9700.0 : STOP DEPTH
STEP.FT               50.00000 : STEP LENGTH
NULL.                  -999.25 : NULL VALUE
COMP.   TXO PRODUCTION COMPANY : COMPANY
WELL.              TXO HULL #1 : WELL
FLD .                  BRANTON : FIELD
LOC .                          : LOCATION
CNTY.                     LEON : COUNTY
STAT.                    TEXAS : STATE
CTRY. UNITED STATES OF AMERICA : COUNTRY
SRVC.             Schlumberger : SERVICE COMPANY
DATE.              17-Jul-1985 : LOGDATE
API .           42289306650000 : API NUMBER
UWI .           42289306650000 : UNIQUE WELL ID
SLAT.WGS84       31.3703569787 : SURFACE LATITUDE
SLON.WGS84      -96.2242249712 : SURFACE LONGITUDE
~Curve Information -----------------------------------------
DEPT    .FT    : DEPTH FEET
CALDED  .IN    : CALIPER FROM CNLD LOG [ADJ.TO GRRED]
CALRED  .IN    : CALIPER FROM DIL-SFL-SONIC LOG
CALWS   .IN    : CALIPER [CALRED SPL.TO CALDED @ 9704']
CONDWS  .MMHO  : CONDUCTIVITY [1000/DRESWS]
DCORWS  .G/C3  : DENSITY CORRECTION [DRHOED]
DENWS   .G/C3  : FORMATION BULK DENSITY [CALCULATED FROM DPOWS, M=2.71, F=1.0]
DPHILSED.V/V   : DENSITY POROSITY LIMESTONE [M=2.71, F=1.0] FROM CNLD LOG [ADJ.TO GRRED]
DPOWS   .V/V   : DENSITY POROSITY LIMESTONE [DPHILSED]
DRESWS  .OHMM  : DEEP RESISTIVITY [ILMED]
DRHOED  .G/C3  : DENSITY CORRECTION FROM CNLD LOG [ADJ.TO GRRED]
DTED    .US/F  : DELTA-T FROM DIL-SFL-SONIC LOG
DTWS    .US/F  : COMPRESSIONAL SONIC [DTED]
GRDED   .GAPI  : GAMMA RAY FROM CNLD LOG [ADJ.TO GRRED]
GRRED   .GAPI  : GAMMA RAY FROM DIL-SFL-SONIC LOG
GRWS    .GAPI  : GAMMA RAY [GRRED]
ILDED   .OHMM  : DEEP INDUCTION FROM DIL-SFL-SONIC LOG
ILMED   .OHMM  : MEDIUM INDUCTION FROM DIL-SFL-SONIC LOG
MRESWS  .OHMM  : MEDIUM RESISTIVITY [ILMED]
NPHILSED.V/V   : NEUTRON POROSITY LIMESTONE FROM CNLD LOG [ADJ.TO GRRED]
NPOWS   .V/V   : NEUTRON POROSITY LIMESTONE [NPHILSED]
SFLUED  .OHMM  : SHALLOW FOCUSED FROM DIL-SFL-SONIC LOG
SPRED   .MV    : SPONTANEOUS POTENTIAL FROM DIL-SFL-SONIC LOG
SPWS    .MV    : SPONTANEOUS POTENTIAL [BASELINE 0 MV, SPRED]
SRESWS  .OHMM  : SHALLOW RESISTIVITY [SFLUED]
TENDED  .LBF   : TENSION FROM CNLD LOG [ADJ.TO GRRED]
TENRED  .LBF   : TENSION FROM DIL-SFL-SONIC LOG
~Params ----------------------------------------------------
PD  .                     GL : PERMANENT DATUM
EPD .FT                  503 : ELEVATION PERMANENT DATUM
LMF .                    RKB : LOG MEASURED FROM
DAPD.FT                 13.5 : FEET ABOVE PERMANENT DATUM
DMF .                    RKB : DRILLING MEASURED FROM
EKB .FT                516.5 : KELLY BUSHING
EDF .FT                515.5 : DRILLING FLOOR
EGL .FT                  503 : GROUND LEVEL
DATE.               07/17/85 : RUN DATE
RUN .                      2 : RUN NUMBER
DD  .FT                 9750 : DEPTH DRILLER
DL  .FT                 9736 : DEPTH LOGGER
BLI .FT                 9730 : BOTTOM LOG INTERVAL
TLI .FT                 8100 : TOP LOG INTERVAL
CS  .IN                8.625 : CASING SIZE
CBD .FT                 2000 : CASING BOTTOM DRILLER
CBL .FT                 2000 : CASING BOTTOM LOGGER
BS  .IN                7.875 : BIT SIZE
BSD .FT                 9750 : BIT SIZE AT DEPTH
DFT .         LIGNOSULFONATE : DRILLING FLUID TYPE
DFD .                    9.9 : DRILLING FLUID DENSITY
DFV .                     45 : DRILLING FLUID VISCOSITY
DFPH.                    9.5 : DRILLING FLUID PH
DFL .                   11.4 : DRILLING FLUID LOSS
MSS .               CIR TANK : MUD SAMPLE SOURCE
RMS .OHMM               2.23 : RESISTIVITY MUD SAMPLE
MST .DEGF                 75 : MUD SAMPLE TEMPERATURE
RMF .OHMM               1.99 : RESISTIVITY MUD FILTRATE SAMPLE
MFST.DEGF                 75 : MUD FILTRATE SAMPLE TEMPERATURE
RMC .OHMM               3.34 : RESISTIVITY MUD CAKE
MCST.DEGF                 75 : MUD CAKE SAMPLE TEMPERATURE
MFSS.                   MEAS : MUD FILTRATE SAMPLE SOURCE
MCSS.                   CALC : MUD CAKE SAMPLE SOURCE
RMB .OHMM               1.11 : RESISTIVITY MUD AT BHT
TCS .HRS                 100 : TIME CIRCULATED STOPPED
TLAB.HRS                1000 : TIME LOGGER AT BOTTOM
LUN .                   8276 : LOGGING UNIT NUMBER
LUL .                   3808 : LOGGING UNIT LOCATION
ENGI.              LANGHAMER : RECORDING ENGINEER
WITN.              GILLESPIE : WITNESSED BY
CLNT.                A2DTECH : CLIENT CODE
ORIG.            2" 5" PRINT : ORIGIN OF DATA
UWI .         42289306650000 : UNIQUE WELL ID
DICO. A2D Technologies, Inc. : DIGITIZING COMPANY
~Other -----------------------------------------------------
~ASCII -----------------------------------------------------
# ...
 4700.00000    -999.25    9.22440    9.22440  306.01630    -999.25    -999.25    -999.25    -999.25    3.26780    -999.25   83.28490   83.28490    -999.25   37.40660   37.40660    3.26780    3.36530    3.36530    -999.25    -999.25    4.03530  -17.13390   -5.72950    4.03530    -999.25    -999.25
 4750.00000    -999.25    9.52000    9.52000  258.37120    -999.25    -999.25    -999.25    -999.25    3.87040    -999.25   78.22020   78.22020    -999.25   29.01470   29.01470    3.87040    3.97020    3.97020    -999.25    -999.25    4.22820  -17.85800   -6.75100    4.22820    -999.25    -999.25
 4800.00000    -999.25    9.72810    9.72810  253.11970    -999.25    -999.25    -999.25    -999.25    3.95070    -999.25   78.26980   78.26980    -999.25   40.86470   40.86470    3.95070    4.05340    4.05340    -999.25    -999.25    4.16840  -16.01580   -5.20620    4.16840    -999.25    -999.25
 4850.00000    -999.25    9.53270    9.53270  318.35980    -999.25    -999.25    -999.25    -999.25    3.14110    -999.25   80.66270   80.66270    -999.25   48.87870   48.87870    3.14110    3.51510    3.51510    -999.25    -999.25    4.23860  -15.12260   -4.61050    4.23860    -999.25    -999.25
 4900.00000    -999.25    9.64700    9.64700  254.47240    -999.25    -999.25    -999.25    -999.25    3.92970    -999.25   75.77840   75.77840    -999.25   26.13330   26.13330    3.92970    4.03510    4.03510    -999.25    -999.25    5.22710  -40.79120  -30.56510    5.22710    -999.25    -999.25
 4950.00000    -999.25    9.40150    9.40150  262.62570    -999.25    -999.25    -999.25    -999.25    3.80770    -999.25   75.54800   75.54800    -999.25   20.25710   20.25710    3.80770    3.99650    3.99650    -999.25    -999.25    3.91490  -37.71040  -27.76630    3.91490    -999.25    -999.25
 5000.00000    -999.25   11.41170   11.41170  504.56630    -999.25    -999.25    -999.25    -999.25    1.98190    -999.25   91.81600   91.81600    -999.25   80.29700   80.29700    1.98190    2.06390    2.06390    -999.25    -999.25    2.28840  -14.06020   -4.39800    2.28840    -999.25    -999.25
 5050.00000    -999.25   10.75940   10.75940  816.39320    -999.25    -999.25    -999.25    -999.25    1.22490    -999.25  115.43500  115.43500    -999.25   98.81470   98.81470    1.22490    1.26640    1.26640    -999.25    -999.25    1.34300  -14.00390   -4.62370    1.34300    -999.25    -999.25
 5100.00000    -999.25   10.83170   10.83170  682.31440    -999.25    -999.25    -999.25    -999.25    1.46560    -999.25  103.33960  103.33960    -999.25  102.29090  102.29090    1.46560    1.43510    1.43510    -999.25    -999.25    1.75930  -11.98480   -2.88660    1.75930    -999.25    -999.25
 5150.00000    -999.25    9.90600    9.90600 1018.53740    -999.25    -999.25    -999.25    -999.25    0.98180    -999.25  119.82610  119.82610    -999.25  103.02790  103.02790    0.98180    0.92230    0.92230    -999.25    -999.25    1.13810  -10.40000   -1.58380    1.13810    -999.25    -999.25
 5200.00000    -999.25   12.11710   12.11710  784.55990    -999.25    -999.25    -999.25    -999.25    1.27460    -999.25  102.05120  102.05120    -999.25   97.70700   97.70700    1.27460    1.31140    1.31140    -999.25    -999.25    1.67300  -22.01960  -13.48540    1.67300    -999.25    -999.25
 5250.00000    -999.25   13.89020   13.89020  721.39660    -999.25    -999.25    -999.25    -999.25    1.38620    -999.25  105.37040  105.37040    -999.25  102.77700  102.77700    1.38620    1.42400    1.42400    -999.25    -999.25    1.73560  -21.57670  -10.79420    1.73560    -999.25    -999.25
 5300.00000    -999.25   10.87970   10.87970  444.44440    -999.25    -999.25    -999.25    -999.25    2.25000    -999.25   96.31300   96.31300    -999.25  110.66870  110.66870    2.25000    2.37180    2.37180    -999.25    -999.25    3.05410  -22.73230   -9.54000    3.05410    -999.25    -999.25
 5350.00000    -999.25   11.81480   11.81480  400.73740    -999.25    -999.25    -999.25    -999.25    2.49540    -999.25  100.74760  100.74760    -999.25   99.65830   99.65830    2.49540    2.58330    2.58330    -999.25    -999.25    3.20460  -21.06080   -5.45870    3.20460    -999.25    -999.25
 5400.00000    -999.25   11.44820   11.44820  265.63950    -999.25    -999.25    -999.25    -999.25    3.76450    -999.25   77.02450   77.02450    -999.25   73.24120   73.24120    3.76450    3.83800    3.83800    -999.25    -999.25    6.99270  -24.75820   -6.74630    6.99270    -999.25    -999.25
 5450.00000    -999.25   13.95040   13.95040  450.51130    -999.25    -999.25    -999.25    -999.25    2.21970    -999.25   91.07720   91.07720    -999.25   66.42840   66.42840    2.21970    2.27690    2.27690    -999.25    -999.25    2.32530  -22.15590   -1.73430    2.32530    -999.25    -999.25
 5500.00000    -999.25   13.43860   13.43860  458.96820    -999.25    -999.25    -999.25    -999.25    2.17880    -999.25   92.34840   92.34840    -999.25   78.03290   78.03290    2.17880    2.23570    2.23570    -999.25    -999.25    2.12380  -27.62200   -5.72700    2.12380    -999.25    -999.25
 5550.00000    -999.25   13.26490   13.26490  409.65140    -999.25    -999.25    -999.25    -999.25    2.44110    -999.25   88.43940   88.43940    -999.25   79.13600   79.13600    2.44110    2.55370    2.55370    -999.25    -999.25    3.38100  -29.06070   -7.28700    3.38100    -999.25    -999.25
 5600.00000    -999.25   13.47110   13.47110  654.15060    -999.25    -999.25    -999.25    -999.25    1.52870    -999.25  101.98200  101.98200    -999.25   67.79910   67.79910    1.52870    1.50330    1.50330    -999.25    -999.25    2.12270  -27.16110   -5.50860    2.12270    -999.25    -999.25
 5650.00000    -999.25   15.08260   15.08260  639.54980    -999.25    -999.25    -999.25    -999.25    1.56360    -999.25   98.81650   98.81650    -999.25   73.85060   73.85060    1.56360    1.51200    1.51200    -999.25    -999.25    1.98930  -27.45250   -5.92120    1.98930    -999.25    -999.25
 5700.00000    -999.25   15.01180   15.01180 1023.54150    -999.25    -999.25    -999.25    -999.25    0.97700    -999.25  118.75690  118.75690    -999.25   85.23150   85.23150    0.97700    1.00970    1.00970    -999.25    -999.25    1.19210  -25.81080   -4.40070    1.19210    -999.25    -999.25
 5750.00000    -999.25   11.94790   11.94790  430.25560    -999.25    -999.25    -999.25    -999.25    2.32420    -999.25   86.11360   86.11360    -999.25   70.70930   70.70930    2.32420    2.56530    2.56530    -999.25    -999.25    3.17190  -25.76660   -4.47770    3.17190    -999.25    -999.25
 5800.00000    -999.25   10.70120   10.70120   88.10110    -999.25    -999.25    -999.25    -999.25   11.35060    -999.25   59.31590   59.31590    -999.25   20.60540   20.60540   11.35060   12.51840   12.51840    -999.25    -999.25   11.94020  -35.16590  -13.99820   11.94020    -999.25    -999.25
 5850.00000    -999.25   12.00340   12.00340  151.42570    -999.25    -999.25    -999.25    -999.25    6.60390    -999.25   65.97160   65.97160    -999.25   37.70160   37.70160    6.60390    6.96510    6.96510    -999.25    -999.25    6.97280  -28.05790   -7.01140    6.97280    -999.25    -999.25
 5900.00000    -999.25   11.85200   11.85200  173.44250    -999.25    -999.25    -999.25    -999.25    5.76560    -999.25   65.77470   65.77470    -999.25   28.31410   28.31410    5.76560    6.11550    6.11550    -999.25    -999.25    5.86800  -25.71000   -3.83260    5.86800    -999.25    -999.25
 5950.00000    -999.25   11.13020   11.13020  115.49610    -999.25    -999.25    -999.25    -999.25    8.65830    -999.25   63.25130   63.25130    -999.25   31.34570   31.34570    8.65830    9.15670    9.15670    -999.25    -999.25    9.42760  -38.39700  -14.57090    9.42760    -999.25    -999.25
 6000.00000    -999.25   10.60890   10.60890  111.79300    -999.25    -999.25    -999.25    -999.25    8.94510    -999.25   59.92930   59.92930    -999.25   19.42980   19.42980    8.94510    9.12830    9.12830    -999.25    -999.25   10.11610  -41.72540  -15.95060   10.11610    -999.25    -999.25
