~Version ---------------------------------------------------
VERS. 2.0 : CWLS log ASCII Standard -VERSION 2.0
WRAP. YES : MULTIPLE LINES PER DEPTH STEP
~Well ------------------------------------------------------
STRT.FT                 2500.0 : START DEPTH
STOP.FT                 7750.0 : STOP DEPTH
STEP.FT               50.00000 : STEP LENGTH
NULL.                  -999.25 : NULL VALUE
COMP.   CITIES SERVICE COMPANY : COMPANY
WELL.              GALIPP A #1 : WELL
FLD .                  WILDCAT : FIELD
LOC .                          : LOCATION
CNTY.                      LEE : COUNTY
STAT.                    TEXAS : STATE
CTRY. UNITED STATES OF AMERICA : COUNTRY
SRVC.             Schlumberger : SERVICE COMPANY
DATE.              05-May-1981 : LOGDATE
API .           42287309240000 : API NUMBER
UWI .           42287309240000 : UNIQUE WELL ID
SLAT.WGS84       30.2175747671 : SURFACE LATITUDE
SLON.WGS84      -96.9733709603 : SURFACE LONGITUDE
~Curve Information -----------------------------------------
DEPT    .FT    : DEPTH FEET
CALDED  .IN    : CALIPER FROM DENSITY LOG
CALRED  .IN    : CALIPER FROM RESISTIVITY LOG [DEPTH ADJ. TO GRR.]
CALWS   .IN    : CALIPER [CALDED]
CILDED  .MMHO  : CONDUCTIVITY FROM RESISTIVITY LOG
CONDWS  .MMHO  : CONDUCTIVITY [1000/DRESWS]
DCORWS  .G/C3  : DENSITY CORRECTION [DRHOED]
DENWS   .G/C3  : BULK DENSITY [M=2.65 F=1.0] [RHOBED]
DPHILSED.V/V   : DENSITY POROSITY [M=2.71 F=1.0] FROM DENSITY [DEPTH ADJ. TO GRR.]
DPHISSED.V/V   : DENSITY POROSITY [M=2.65 F=1.0] FROM DENSITY [DEPTH ADJ. TO GRR.]
DPOWS   .V/V   : DENSITY POROSITY [M=2.65 F=1.0] [DPHISSED]
DRESWS  .OHMM  : DEEP RESISTIVITY [ILDED]
DRHOED  .G/C3  : DENSITY CORRECTION FROM DENSITY LOG[DEPTH ADJ. TO GRR.]
DTED    .US/F  : DELTA TIME FROM SONIC LOG
DTWS    .US/F  : DELTA TIME [DTED]
GRDED   .GAPI  : GAMMA RAY FROM DENSITY LOG[DEPTH ADJ. TO GRR.]
GRNED   .GAPI  : GAMMA RAY FROM NEUTRON LOG [DEPTH ADJ. TO GRR.]
GRRED   .GAPI  : GAMMA RAY FROM RESISTIVITY LOG
GRWS    .GAPI  : GAMMA RAY [GRRED,SPLICED GRNED RESCALE AT 3554 AND GRDED+30 AT 7689']
ILDED   .OHMM  : INDUCTION LOG DEEP RESISTIVITY
ILMED   .OHMM  : INDUCTION LOG MEDIUM RESISTIVITY
MRESWS  .OHMM  : MEDIUM RESISTIVITY [ILMED]
NEUTED  .NAPI  : NEUTRON FROM NEUTRON LOG[DEPTH ADJ. TO GRR.]
NEUTWS  .NAPI  : NEUTRON [NEUTED]
NPHILSED.V/V   : NEUTRON POROSITY LIMESTONE FROM DENSITY LOG [DEPTH ADJ. TO GRR.]
NPHISSED.V/V   : NEUTRON POROSITY SANDSTONE FROM DENSITY LOG [DEPTH ADJ. TO GRR.]
NPOWS   .V/V   : NEUTRON POROSITY SANDSTONE [NPHISSED]
RHOBED  .G/C3  : BULK DENSITY FROM DENSITY LOG [DEPTH ADJ. TO GRR.]
SFLUED  .OHMM  : SPHERICALLY FOCUSED LOG RESISTIVITY
SPRED   .MV    : SPONTANEOUS POTENTIAL FROM RESISTIVITY LOG
SPWS    .MV    : SPONTANEOUS POTENTIAL [BASELINE 0 MV] [SPRED]
SRESWS  .OHMM  : SHALLOW RESISTIVITY [SFLUED]
TENDED  .LBF   : TENSION FROM DENSITY LOG [DEPTH ADJ. TO GRR.]
TENRED  .LBF   : TENSION FROM RESISTIVITY LOG
~Params ----------------------------------------------------
PD  .                      GL : PERMANENT DATUM
EPD .FT                   452 : ELEVATION PERMANENT DATUM
LMF .                      KB : LOG MEASURED FROM
DAPD.FT                    15 : FEET ABOVE PERMANENT DATUM
DMF .                      KB : DRILLING MEASURED FROM
EKB .FT                   467 : KELLY BUSHING
EDF .FT                   466 : DRILLING FLOOR
EGL .FT                   452 : GROUND LEVEL
DATE.                05/05/81 : RUN DATE
RUN .                       1 : RUN NUMBER
DD  .FT                  7755 : DEPTH DRILLER
DL  .FT                  7737 : DEPTH LOGGER
BLI .FT                  7730 : BOTTOM LOG INTERVAL
TLI .FT                  3566 : TOP LOG INTERVAL
CS  .IN                 9.625 : CASING SIZE
CBD .FT                  3545 : CASING BOTTOM DRILLER
CBL .FT                  3566 : CASING BOTTOM LOGGER
BS  .IN                   7.5 : BIT SIZE
BSD .FT                  7755 : BIT SIZE AT DEPTH
DFT .                BENX KCL : DRILLING FLUID TYPE
DFD .                     9.8 : DRILLING FLUID DENSITY
DFV .                      45 : DRILLING FLUID VISCOSITY
DFPH.                      11 : DRILLING FLUID PH
DFL .                      12 : DRILLING FLUID LOSS
MSS .                FLOWLINE : MUD SAMPLE SOURCE
RMS .OHMM                0.51 : RESISTIVITY MUD SAMPLE
MST .DEGF                  75 : MUD SAMPLE TEMPERATURE
RMF .OHMM                0.86 : RESISTIVITY MUD FILTRATE SAMPLE
MFST.DEGF                  75 : MUD FILTRATE SAMPLE TEMPERATURE
RMC .OHMM                0.76 : RESISTIVITY MUD CAKE
MCST.DEGF                  75 : MUD CAKE SAMPLE TEMPERATURE
MFSS.                       M : MUD FILTRATE SAMPLE SOURCE
MCSS.                       C : MUD CAKE SAMPLE SOURCE
RMB .OHMM                 0.2 : RESISTIVITY MUD AT BHT
TCS .HRS                 1700 : TIME CIRCULATED STOPPED
TLAB.HRS                  100 : TIME LOGGER AT BOTTOM
LUN .                    8173 : LOGGING UNIT NUMBER
LUL .                VICTORIA : LOGGING UNIT LOCATION
ENGI.                   ADAMS : RECORDING ENGINEER
WITN. WILLIAMS YOUNG MCCARTHY : WITNESSED BY
CLNT.                 A2DTECH : CLIENT CODE
ORIG.          1" 2" 5" PRINT : ORIGIN OF DATA
UWI .          42287309240000 : UNIQUE WELL ID
DICO.  A2D Technologies, Inc. : DIGITIZING COMPANY
~Other -----------------------------------------------------
~ASCII -----------------------------------------------------
# ...
 5800.00000    -999.25    9.57600    9.57600  668.08670  669.47850    -999.25    -999.25    -999.25    -999.25    -999.25    1.49370    -999.25   92.78060   92.78060    -999.25    -999.25   88.47810   88.47810    1.49370    1.51470    1.51470    -999.25    -999.25    -999.25    -999.25    -999.25    -999.25    1.55940   -2.07590    0.47910    1.55940    -999.25 2759.51830
 5850.00000    -999.25   12.91330   12.91330  738.35380  739.80910    -999.25    -999.25    -999.25    -999.25    -999.25    1.35170    -999.25   98.10750   98.10750    -999.25    -999.25   94.05750   94.05750    1.35170    1.36960    1.36960    -999.25    -999.25    -999.25    -999.25    -999.25    -999.25    1.44030   -1.58500    1.08720    1.44030    -999.25 2766.78810
 5900.00000    -999.25   12.93680   12.93680  799.40200  808.08080    -999.25    -999.25    -999.25    -999.25    -999.25    1.23750    -999.25  103.10820  103.10820    -999.25    -999.25   82.49430   82.49430    1.23750    1.25660    1.25660    -999.25    -999.25    -999.25    -999.25    -999.25    -999.25    1.27870   -4.27870   -1.48920    1.27870    -999.25 2766.55250
 5950.00000    -999.25   12.82600   12.82600  864.75600  872.29590    -999.25    -999.25    -999.25    -999.25    -999.25    1.14640    -999.25  104.32990  104.32990    -999.25    -999.25   91.77990   91.77990    1.14640    1.16210    1.16210    -999.25    -999.25    -999.25    -999.25    -999.25    -999.25    1.21490   -2.31820    0.58850    1.21490    -999.25 2763.03250
 6000.00000    -999.25   12.48010   12.48010  871.42290  873.66770    -999.25    -999.25    -999.25    -999.25    -999.25    1.14460    -999.25  102.22220  102.22220    -999.25    -999.25  112.34360  112.34360    1.14460    1.17260    1.17260    -999.25    -999.25    -999.25    -999.25    -999.25    -999.25    1.28760   -2.05820    0.96570    1.28760    -999.25 2836.16820
 6050.00000    -999.25    9.11100    9.11100  595.31690  594.60100    -999.25    -999.25    -999.25    -999.25    -999.25    1.68180    -999.25   90.73790   90.73790    -999.25    -999.25   99.72800   99.72800    1.68180    1.80760    1.80760    -999.25    -999.25    -999.25    -999.25    -999.25    -999.25    1.84620   -3.23280   -0.09170    1.84620    -999.25 2814.92870
 6100.00000    -999.25   10.75180   10.75180  633.75750  635.84920    -999.25    -999.25    -999.25    -999.25    -999.25    1.57270    -999.25   94.70890   94.70890    -999.25    -999.25  107.29340  107.29340    1.57270    1.64630    1.64630    -999.25    -999.25    -999.25    -999.25    -999.25    -999.25    1.72300   -2.82530    0.43300    1.72300    -999.25 2840.31010
 6150.00000    -999.25    9.04490    9.04490  494.57620  491.25560    -999.25    -999.25    -999.25    -999.25    -999.25    2.03560    -999.25   87.86530   87.86530    -999.25    -999.25   97.23070   97.23070    2.03560    2.11960    2.11960    -999.25    -999.25    -999.25    -999.25    -999.25    -999.25    2.36370   -4.08140   -0.70590    2.36370    -999.25 2856.70950
 6200.00000    -999.25   11.80030   11.80030  702.87060  703.92790    -999.25    -999.25    -999.25    -999.25    -999.25    1.42060    -999.25   95.83860   95.83860    -999.25    -999.25  107.80820  107.80820    1.42060    1.46910    1.46910    -999.25    -999.25    -999.25    -999.25    -999.25    -999.25    1.63960   -2.53090    0.96180    1.63960    -999.25 2876.13960
 6250.00000    -999.25   12.91060   12.91060  928.93400  927.12780    -999.25    -999.25    -999.25    -999.25    -999.25    1.07860    -999.25  105.01870  105.01870    -999.25    -999.25   92.08060   92.08060    1.07860    1.11870    1.11870    -999.25    -999.25    -999.25    -999.25    -999.25    -999.25    1.23180   -1.50160    2.10830    1.23180    -999.25 2880.10550
 6300.00000    -999.25   12.92140   12.92140  730.65400  734.69990    -999.25    -999.25    -999.25    -999.25    -999.25    1.36110    -999.25   99.09560   99.09560    -999.25    -999.25   73.73390   73.73390    1.36110    1.39510    1.39510    -999.25    -999.25    -999.25    -999.25    -999.25    -999.25    1.52580   -3.14910    0.57800    1.52580    -999.25 2894.29610
 6350.00000    -999.25   13.07710   13.07710  770.52830  772.67810    -999.25    -999.25    -999.25    -999.25    -999.25    1.29420    -999.25   99.51440   99.51440    -999.25    -999.25   84.69830   84.69830    1.29420    1.31040    1.31040    -999.25    -999.25    -999.25    -999.25    -999.25    -999.25    1.44920   -2.78200    1.06240    1.44920    -999.25 2901.46920
 6400.00000    -999.25    9.60920    9.60920  363.82970  363.10820    -999.25    -999.25    -999.25    -999.25    -999.25    2.75400    -999.25   81.92190   81.92190    -999.25    -999.25   80.62760   80.62760    2.75400    2.90960    2.90960    -999.25    -999.25    -999.25    -999.25    -999.25    -999.25    3.30170   -3.88860    0.07300    3.30170    -999.25 2917.02290
 6450.00000    -999.25    9.39150    9.39150  475.28260  468.20860    -999.25    -999.25    -999.25    -999.25    -999.25    2.13580    -999.25   88.51710   88.51710    -999.25    -999.25   81.00050   81.00050    2.13580    2.22180    2.22180    -999.25    -999.25    -999.25    -999.25    -999.25    -999.25    2.48780   -3.90260    0.17620    2.48780    -999.25 2951.67920
 6500.00000    -999.25    9.18610    9.18610  210.54470  211.11740    -999.25    -999.25    -999.25    -999.25    -999.25    4.73670    -999.25   70.19630   70.19630    -999.25    -999.25   43.06970   43.06970    4.73670    5.24070    5.24070    -999.25    -999.25    -999.25    -999.25    -999.25    -999.25    6.05810   -7.73700   -4.31010    6.05810    -999.25 2978.15940
 6550.00000    -999.25    9.77300    9.77300  344.09840  341.48340    -999.25    -999.25    -999.25    -999.25    -999.25    2.92840    -999.25   79.94030   79.94030    -999.25    -999.25   72.22280   72.22280    2.92840    3.22360    3.22360    -999.25    -999.25    -999.25    -999.25    -999.25    -999.25    3.64760   -2.92310   -0.23350    3.64760    -999.25 3003.66580
 6600.00000    -999.25   10.34550   10.34550  326.55790  324.53830    -999.25    -999.25    -999.25    -999.25    -999.25    3.08130    -999.25   80.08500   80.08500    -999.25    -999.25   63.74800   63.74800    3.08130    3.24470    3.24470    -999.25    -999.25    -999.25    -999.25    -999.25    -999.25    3.90240   -2.62540   -0.67300    3.90240    -999.25 3041.81350
 6650.00000    -999.25   10.44610   10.44610  391.88150  389.68120    -999.25    -999.25    -999.25    -999.25    -999.25    2.56620    -999.25   86.45350   86.45350    -999.25    -999.25   89.90140   89.90140    2.56620    2.62730    2.62730    -999.25    -999.25    -999.25    -999.25    -999.25    -999.25    2.91060   -1.83940   -0.32940    2.91060    -999.25 3039.80640
 6700.00000    -999.25   10.08590   10.08590  313.96760  314.30730    -999.25    -999.25    -999.25    -999.25    -999.25    3.18160    -999.25   82.54440   82.54440    -999.25    -999.25   75.31560   75.31560    3.18160    3.29710    3.29710    -999.25    -999.25    -999.25    -999.25    -999.25    -999.25    3.57330   -2.51730   -1.19850    3.57330    -999.25 3042.60010
 6750.00000    -999.25   10.68500   10.68500  384.17450  373.23180    -999.25    -999.25    -999.25    -999.25    -999.25    2.67930    -999.25   84.80030   84.80030    -999.25    -999.25   78.65820   78.65820    2.67930    2.75560    2.75560    -999.25    -999.25    -999.25    -999.25    -999.25    -999.25    3.05590   -2.56160   -1.43390    3.05590    -999.25 3039.48070
 6800.00000    -999.25   10.69830   10.69830  364.61790  365.57720    -999.25    -999.25    -999.25    -999.25    -999.25    2.73540    -999.25   85.29510   85.29510    -999.25    -999.25   77.98470   77.98470    2.73540    2.85360    2.85360    -999.25    -999.25    -999.25    -999.25    -999.25    -999.25    3.31510   -1.82530   -0.88880    3.31510    -999.25 3063.21630
 6850.00000    -999.25   10.63050   10.63050  420.88240  415.31690    -999.25    -999.25    -999.25    -999.25    -999.25    2.40780    -999.25   87.53530   87.53530    -999.25    -999.25   77.00460   77.00460    2.40780    2.46210    2.46210    -999.25    -999.25    -999.25    -999.25    -999.25    -999.25    2.60130   -1.59700   -0.56410    2.60130    -999.25 3084.02910
