~Version ---------------------------------------------------
VERS.      2.0 : CWLS log ASCII Standard -VERSION 2.0
WRAP.      YES : Multiple lines per depth step
CREA. 09/17/18 : LAS Creation Date
~Well ------------------------------------------------------
STRT.FT                 1100.0 : START DEPTH
STOP.FT                 9550.0 : STOP DEPTH
STEP.FT               50.00000 : STEP LENGTH
NULL.                  -999.25 : NULL VALUE
COMP.     BURK ROYALTY COMPANY : COMPANY
WELL.             KING UNIT #1 : WELL
FLD .               JACQUELINE : FIELD
LOC .                          : LOCATION
CNTY.                 ATASCOSA : COUNTY
STAT.                    TEXAS : STATE
CTRY. UNITED STATES OF AMERICA : COUNTRY
SRVC.             Schlumberger : SERVICE COMPANY
DATE.              17-Aug-1994 : LOGDATE
API .           42013340230000 : API NUMBER
UWI .           42013340230000 : UNIQUE WELL ID
SLAT.WGS84         28.87747446 : SURFACE LATITUDE
SLON.WGS84      -98.2411771051 : SURFACE LONGITUDE
~Curve Information -----------------------------------------
DEPT    .FT    : DEPTH FEET
CALWS   .IN    : CALIPER [DCALRED+BIT]
CONDWS  .MMHO  : DEEP CONDUCTIVITY [1000/DRESWS]
DCALRED .IN    : DIFFERENTIAL CALIPER FROM PISFL-LDT-CNL LOG
DCORWS  .G/C3  : DENSITY CORRECTION [DRHOED]
DENWS   .G/C3  : BULK DENSITY [CALC. FROM DPOLSWS]
DPOLSWS .V/V   : DENSITY POROSITY (LS) [M=2.71 F=1.00] [PHNDLSED]
DRESWS  .OHMM  : DEEP RESISTIVITY [IDERED]
DRHOED  .G/C3  : DENSITY CORRECTION  FROM PISFL-LDT-CNL LOG
GRRED   .GAPI  : GAMMA RAY  FROM PISFL-LDT-CNL LOG
GRWS    .GAPI  : GAMMA RAY [GRRED]
IDERED  .OHMM  : INDUCTION DEEP ENHANCED RESOLUTION PHASE RESISTIVITY
IMERED  .OHMM  : INDUCTION MEDIUM ENHANCED RESOLUTION PHASE RESISTIVITY
MRESWS  .OHMM  : MEDIUM RESISTIVITY [IMERED]
NPHILSED.V/V   : NEUTRON POROSITY LIMESTONE  FROM PISFL-LDT-CNL LOG
NPOLSWS .V/V   : NEUTRON POROSITY LIMESTONE [NPHILSED]
PEFED   .B/E   : PHOTOELECTRIC FACTOR  FROM PISFL-LDT-CNL LOG
PEFWS   .B/E   : PHOTOELECTRIC FACTOR [PEFED]
DPHILSED.V/V   : DENSITY POROSITY (LS)  FROM PISFL-LDT-CNL LOG
SFLUED  .OHMM  : SPHERICALLY FOCUSED LOG RESISTIVITY
SPRED   .MV    : SPONTANEOUS POTENTIAL  FROM PISFL-LDT-CNL LOG
SPWS    .MV    : SPONTANEOUS POTENTIAL [BASELINE 0 MV] [SPRED]
SRESWS  .OHMM  : SHALLOW RESISTIVITY [SFLUED]
TENRED  .LBF   : TENSION  FROM PISFL-LDT-CNL LOG
~Params ----------------------------------------------------
PD  .                     GL : PERMANENT DATUM
EPD .FT                  279 : ELEVATION PERMANENT DATUM
LMF .                     KB : LOG MEASURED FROM
DAPD.FT                 14.4 : FEET ABOVE PERMANENT DATUM
DMF .                     KB : DRILLING MEASURED FROM
EKB .FT                293.4 : KELLY BUSHING
EDF .FT                292.4 : DRILLING FLOOR
EGL .FT                  279 : GROUND LEVEL
DATE.               08/17/94 : RUN DATE
RUN .                      1 : RUN NUMBER
DD  .FT                 9532 : DEPTH DRILLER
DL  .FT                 9524 : DEPTH LOGGER
BLI .FT                 9515 : BOTTOM LOG INTERVAL
TLI .FT                 1095 : TOP LOG INTERVAL
CS  .IN                8.625 : CASING SIZE
CBD .FT                 1095 : CASING BOTTOM DRILLER
CBL .FT                 1100 : CASING BOTTOM LOGGER
BS  .IN                7.875 : BIT SIZE
BSD .FT                 9532 : BIT SIZE AT DEPTH
DFT .         LIGNOSULFONATE : DRILLING FLUID TYPE
DFD .                   10.3 : DRILLING FLUID DENSITY
DFV .                     41 : DRILLING FLUID VISCOSITY
DFPH.                    8.5 : DRILLING FLUID PH
DFL .                    7.6 : DRILLING FLUID LOSS
MSS .               FLOWLINE : MUD SAMPLE SOURCE
RMS .OHMM              3.123 : RESISTIVITY MUD SAMPLE
MST .FT                   75 : MUD SAMPLE TEMPERATURE
RMF .OHMM              2.469 : RESISTIVITY MUD FILTRATE SAMPLE
MFST.FT                   75 : MUD FILTRATE SAMPLE TEMPERATURE
RMC .OHMM               1.98 : RESISTIVITY MUD CAKE
MCST.FT                   75 : MUD CAKE SAMPLE TEMPERATURE
MFSS.               MEASURED : MUD FILTRATE SAMPLE SOURCE
MCSS.               MEASURED : MUD CAKE SAMPLE SOURCE
RMB .OHMM              1.266 : RESISTIVITY MUD AT BHT
TCS .HRS                  30 : TIME CURCULATED STOPPED
TLAB.HRS                 830 : TIME LOGGER AT BOTTOM
LUN .                   2017 : LOGGING UNIT NUMBER
LUL .               VICTORIA : LOGGING UNIT LOCATION
ENGI.         DAVID BUMBAUGH : RECORDING ENGINEER
WITN.            JACK AUSTIN : WITNESSED BY
CLNT.                A2DTECH : CLIENT CODE
ORIG.           5" 10" PRINT : ORIGIN OF DATA
UWI .         42013340230000 : UNIQUE WELL ID
DICO. A2D Technologies, Inc. : DIGITIZING COMPANY
~Other -----------------------------------------------------
PISFL-LDT-CNL LOGGED I COMBO.
GAPS ON NEUTRON/DENSITY DUE TO INTERVALS NOT RECORDED ON LOG IMAGE.
~ASCII -----------------------------------------------------
# ...
 7300.00000   10.29290  535.56130    0.41790    -999.25    -999.25    -999.25    1.86720    -999.25   85.77840   85.77840    1.86720    1.86830    1.86830    -999.25    -999.25    -999.25    -999.25    -999.25    2.18570   -3.71260   -4.39700    2.18570 3174.77780
 7350.00000   10.50150  644.78690    0.62650    -999.25    -999.25    -999.25    1.55090    -999.25   95.47510   95.47510    1.55090    1.59950    1.59950    -999.25    -999.25    -999.25    -999.25    -999.25    1.71550   -4.01200   -4.69640    1.71550 3156.27220
 7400.00000   10.08400  538.44500    0.20900    -999.25    -999.25    -999.25    1.85720    -999.25   95.88320   95.88320    1.85720    1.86680    1.86680    -999.25    -999.25    -999.25    -999.25    -999.25    2.23320   -1.02190   -1.70630    2.23320 3198.18650
 7450.00000   10.38250  334.73920    0.50750    -999.25    -999.25    -999.25    2.98740    -999.25   76.21170   76.21170    2.98740    3.07420    3.07420    -999.25    -999.25    -999.25    -999.25    -999.25    3.80090   -0.11980   -0.80420    3.80090 3198.39310
 7500.00000   10.74200  394.30620    0.86700    -999.25    -999.25    -999.25    2.53610    -999.25   78.26010   78.26010    2.53610    2.54580    2.54580    -999.25    -999.25    -999.25    -999.25    -999.25    2.90210   -0.24020   -0.92460    2.90210 3303.68090
 7550.00000   11.33990  530.13840    1.46490    -999.25    -999.25    -999.25    1.88630    -999.25   86.66840   86.66840    1.88630    1.82900    1.82900    -999.25    -999.25    -999.25    -999.25    -999.25    2.21790   -2.04150   -2.72590    2.21790 3197.02080
 7600.00000   11.96770  465.13790    2.09270    -999.25    -999.25    -999.25    2.14990    -999.25   95.80210   95.80210    2.14990    2.26350    2.26350    -999.25    -999.25    -999.25    -999.25    -999.25    2.34370   -0.83350   -1.51790    2.34370 3451.89090
 7650.00000   11.43150  361.54600    1.55650    -999.25    -999.25    -999.25    2.76590    -999.25   85.90690   85.90690    2.76590    2.76270    2.76270    -999.25    -999.25    -999.25    -999.25    -999.25    3.10910   -0.24020   -0.95120    3.10910 3257.08280
 7700.00000   11.19010  471.56470    1.31510    -999.25    -999.25    -999.25    2.12060    -999.25   93.11360   93.11360    2.12060    2.14230    2.14230    -999.25    -999.25    -999.25    -999.25    -999.25    2.36560   -4.44440   -5.45150    2.36560 3261.10010
 7750.00000   10.93600  560.22410    1.06100    -999.25    -999.25    -999.25    1.78500    -999.25  102.77360  102.77360    1.78500    1.75500    1.75500    -999.25    -999.25    -999.25    -999.25    -999.25    2.02750   -2.94290   -4.24600    2.02750 3313.05130
 7800.00000   10.86140  355.97320    0.98640    -999.25    -999.25    -999.25    2.80920    -999.25   86.80660   86.80660    2.80920    2.87890    2.87890    -999.25    -999.25    -999.25    -999.25    -999.25    3.14060   -3.06950   -4.66860    3.14060 3342.07980
 7850.00000   11.87800  474.85640    2.00300    -999.25    -999.25    -999.25    2.10590    -999.25   97.82660   97.82660    2.10590    2.11320    2.11320    -999.25    -999.25    -999.25    -999.25    -999.25    2.20270   -1.44200   -3.33710    2.20270 3304.18920
 7900.00000   11.48920  476.46270    1.61420    -999.25    -999.25    -999.25    2.09880    -999.25   94.67770   94.67770    2.09880    2.08620    2.08620    -999.25    -999.25    -999.25    -999.25    -999.25    2.34360   -2.22680   -4.41800    2.34360 3346.22120
 7950.00000   11.75850  468.34020    1.88350    -999.25    -999.25    -999.25    2.13520    -999.25  100.07420  100.07420    2.13520    2.14230    2.14230    -999.25    -999.25    -999.25    -999.25    -999.25    2.36560   -2.49430   -4.98150    2.36560 3353.43210
 8000.00000   13.16340  541.18410    3.28840    -999.25    -999.25    -999.25    1.84780    -999.25   95.57680   95.57680    1.84780    1.82910    1.82910    -999.25    -999.25    -999.25    -999.25    -999.25    2.07490   -3.54280   -6.32600    2.07490 3602.23490
 8050.00000   10.98110  302.27000    1.10610    -999.25    -999.25    -999.25    3.30830    -999.25   87.23830   87.23830    3.30830    3.36530    3.36530    -999.25    -999.25    -999.25    -999.25    -999.25    3.40070   -3.84280   -6.92200    3.40070 3390.84690
 8100.00000   10.59240  329.91320    0.71740    -999.25    -999.25    -999.25    3.03110    -999.25   89.05550   89.05550    3.03110    3.02100    3.02100    -999.25    -999.25    -999.25    -999.25    -999.25    3.31090   -2.64260   -6.01790    3.31090 3405.69460
 8150.00000   13.70140  582.81850    3.82640    -999.25    -999.25    -999.25    1.71580    -999.25  103.22360  103.22360    1.71580    1.71930    1.71930    -999.25    -999.25    -999.25    -999.25    -999.25    1.87750   -2.11220   -5.78350    1.87750 3421.63750
 8200.00000   12.71540  519.29170    2.84040    -999.25    -999.25    -999.25    1.92570    -999.25  105.02250  105.02250    1.92570    1.85440    1.85440    -999.25    -999.25    -999.25    -999.25    -999.25    2.14290   -0.51560   -4.48290    2.14290 3393.35770
 8250.00000   11.42940  440.21830    1.55440    -999.25    -999.25    -999.25    2.27160    -999.25  102.54680  102.54680    2.27160    2.21990    2.21990    -999.25    -999.25    -999.25    -999.25    -999.25    2.47650   -0.54510   -4.80840    2.47650 3389.84180
 8300.00000   12.22920  470.52180    2.35420    -999.25    -999.25    -999.25    2.12530    -999.25   98.95050   98.95050    2.12530    2.12390    2.12390    -999.25    -999.25    -999.25    -999.25    -999.25    2.38190   -0.27640   -4.83580    2.38190 3494.88090
 8350.00000   11.63880  446.32890    1.76380    -999.25    -999.25    -999.25    2.24050    -999.25   96.70160   96.70160    2.24050    2.21250    2.21250    -999.25    -999.25    -999.25    -999.25    -999.25    2.67160    0.36040   -4.49500    2.67160 3489.61400
 8400.00000   14.15030  620.19350    4.27530    -999.25    -999.25    -999.25    1.61240    -999.25  107.27090  107.27090    1.61240    1.57680    1.57680    -999.25    -999.25    -999.25    -999.25    -999.25    1.79110   -2.35710   -7.50850    1.79110 3496.18920
 8450.00000   14.89790  722.59560    5.02290    -999.25    -999.25    -999.25    1.38390    -999.25  109.52110  109.52110    1.38390    1.39810    1.39810    -999.25    -999.25    -999.25    -999.25    -999.25    1.58200   -3.16750   -8.61490    1.58200 3506.71800
 8500.00000   12.23320  404.56350    2.35820    -999.25    -999.25    -999.25    2.47180    -999.25   98.95050   98.95050    2.47180    2.39130    2.39130    -999.25    -999.25    -999.25    -999.25    -999.25    2.61100    0.36040   -5.38310    2.61100 3526.65720
 8550.00000   13.24810  484.73100    3.37310    -999.25    -999.25    -999.25    2.06300    -999.25   94.53610   94.53610    2.06300    2.10600    2.10600    -999.25    -999.25    -999.25    -999.25    -999.25    2.58450   -1.37930   -7.41880    2.58450 3577.86160
 8600.00000   12.53170  336.56440    2.65670    0.04600    2.55920    0.08820    2.97120    0.04600   91.99020   91.99020    2.97120    3.00400    3.00400    0.16210    0.16210    -999.25    -999.25    0.08820    3.23670    0.41980   -5.91570    3.23670 3669.97340
 8650.00000   13.04230  386.24950    3.16730    0.09700    2.52460    0.10840    2.58900    0.09700  102.39520  102.39520    2.58900    2.53600    2.53600    0.17920    0.17920    -999.25    -999.25    0.10840    2.76260   -0.78160   -7.41310    2.76260 3603.95850
 8700.00000   12.07640  199.46540    2.20140    0.01000    2.67050    0.02310    5.01340    0.01000   60.04540   60.04540    5.01340    5.16380    5.16380    0.09570    0.09570    -999.25    -999.25    0.02310    6.55750    2.27540   -5.17850    6.55750 3573.75710
 8750.00000   12.50220  312.02220    2.62720    0.04900    2.57540    0.07870    3.20490    0.04900   77.21230   77.21230    3.20490    3.12650    3.12650    0.14500    0.14500    -999.25    -999.25    0.07870    3.29430    3.47310   -5.62640    3.29430 3708.82710
 8800.00000   12.35250  141.38070    2.47750   -0.00340    2.63000    0.04680    7.07310   -0.00340   50.26760   50.26760    7.07310    7.15430    7.15430    0.08280    0.08280    -999.25    -999.25    0.04680    8.06110    1.67740   -9.06770    8.06110 3670.58620
