~Version ---------------------------------------------------
VERS.      2.0 : CWLS log ASCII Standard -VERSION 2.0
WRAP.      YES : Multiple lines per depth step
CREA. 08/18/12 : LAS Creation Date
~Well ------------------------------------------------------
STRT.FT                 2900.0 : START DEPTH
STOP.FT                17850.0 : STOP DEPTH
STEP.FT               50.00000 : STEP LENGTH
NULL.                  -999.25 : NULL VALUE
COMP. AMOCO PRODUCTION COMPANY : COMPANY
WELL.   JIMMY HILL GAS UNIT #1 : WELL
FLD .                  WILDCAT : FIELD
LOC .                          : LOCATION
CNTY.                     LEON : COUNTY
STAT.                    TEXAS : STATE
CTRY. UNITED STATES OF AMERICA : COUNTRY
SRVC.             Schlumberger : SERVICE COMPANY
DATE.              04-Jun-1996 : LOGDATE
API .           42289312310000 : API NUMBER
UWI .           42289312310000 : UNIQUE WELL ID
SLAT.WGS84       31.2538599246 : SURFACE LATITUDE
SLON.WGS84      -96.2196025838 : SURFACE LONGITUDE
~Curve Information -----------------------------------------
DEPT    .FT                                                                                                : DEPTH FEET
AO10ED  .OHMM                                                                                              : ARRAY INDUCTION ONE FOOT RESISTIVITY A10 FROM AIT-PI-DITE-LDT-CNT LOG
AO20ED  .OHMM                                                                                              : ARRAY INDUCTION ONE FOOT RESISTIVITY A20 FROM AIT-PI-DITE-LDT-CNT LOG
AO30ED  .OHMM                                                                                              : ARRAY INDUCTION ONE FOOT RESISTIVITY A30 FROM AIT-PI-DITE-LDT-CNT LOG
AO60ED  .OHMM                                                                                              : ARRAY INDUCTION ONE FOOT RESISTIVITY A60 FROM AIT-PI-DITE-LDT-CNT LOG
AO90ED  .OHMM                                                                                              : ARRAY INDUCTION ONE FOOT RESISTIVITY A90 FROM AIT-PI-DITE-LDT-CNT LOG
CALSED  .IN                                                                                                : CALIPER FROM BCS-CALIPER-GR LOG [ADJ. TO GRRED]
CALWS   .IN                                                                                                : CALIPER [DCALED+BITS]
CONDWS  .MMHO                                                                                              : CONDUCTIVITY [1000/DRESWS]
DCALED  .IN                                                                                                : DIFFERENTIAL CALIPER FROM AIT-PI-DITE-LDT-CNT LOG
DCORWS  .G/C3                                                                                              : DENSITY CORRECTION [DRHED SPL. TO DRHOED @ 10860']
DENWS   .G/C3 :   FORMATION BULK DENSITY [RHOMED, DENWS CALCULATED FROM DPOWS FROM 7004'-10889'] [M:2.71,F : 1.0]
DPHILSED.V/V                                                      :   DENSITY POROSITY LIMESTONE [M:2.71,F : 1.0] FROM AIT-PI-DITE-LDT-CNT LOG
DPOLSED .V/V                                                                                               : DENSITY POROSITY LIMESTONE FROM HOSTILE LDL-CN-GR LOG
DPOWS   .V/V                                                                                               : DENSITY POROSITY [DPHILSED SPL. TO DPOLSED @ 10852']
DRESWS  .OHMM                                                                                              : DEEP RESISTIVITY [AO30ED SPL. TO IDPHED]
DRHED   .G/C3                                                                                              : BULK DENSITY CORRECTION FROM HOSTILE LDL-CN-GR LOG
DRHOED  .G/C3                                                                                              : BULK DENSITY CORRECTION FROM AIT-PI-DITE-LDT-CNT LOG
DTED    .US/F                                                                                              : DELTA T FROM BCS-CALIPER-GR LOG [ADJ. TO GRRED/NPHILSED]
DTLFED  .US/F                                                                                              : DELTA-T LONG SPACING FAR FROM AIT-PI-DITE-LDT-CNT-PI-LSS-GR LOG
DTLNED  .US/F                                                                                              : DELTA-T LONG SPACING NEAR FROM AIT-PI-DITE-LDT-CNT-PI-LSS-GR LOG
DTWS    .US/F                                                                                              : COMPRESSIONAL SONIC [DTED SPL. TO DTLNED @ 10865.5'-15946.5']
GRRED   .GAPI                                                                                              : GAMMA RAY FROM AIT-PI-DITE-LDT-CNT LOG
GRSED   .GAPI                                                                                              : GAMMA RAY FROM BCS-CALIPER-GR-PI-LSS LOG [ADJ. TO GRRED]
GRWS    .GAPI                                                                                              : GAMMA RAY [GRRED]
IDPHED  .OHMM                                                                                              : DEEP INDUCTION PHASOR FROM AIT-PI-DITE-LDT-CNT- PI-LSS-GR LOG
LCALED  .IN                                                                                                : LOWER CALIPER FROM HOSTILE LDL-CN-GR LOG
MRESWS  .OHMM                                                                                              : MEDIUM RESISTIVITY [AO30ED]
NPHILSED.V/V                                                                                               : NEUTRON POROSITY LIMESTONE FROM AIT-PI-DITE-LDT-CNT LOG
NPOWS   .V/V                                                                                               : NEUTRON POROSITY [NPHILSED]
PEFED   .B/E                                                                                               : PHOTOELECTRIC FACTOR FROM AIT-PI-DITE-LDT-CNT LOG
PEFLED  .B/E                                                                                               : HLDT PEF LONG SPACING FROM HOSTILE LDL-CN-GR LOG
PEFSED  .B/E                                                                                               : SHORT SPACED CORRECTED PHOTOELECTRIC FACTOR FROM HOSTILE LDL-CN-GR LOG
PEFWS   .B/E                                                                                               : PHOTOELECTRIC FACTOR [PEFED SPL. TO PEFSED @ 10847.5']
RHOMED  .G/C3                                                                                              : CORRECTED BULK DENSITY FROM HOSTILE LDL-CN-GR LOG
SPRED   .MV                                                                                                : SPONTANEOUS POTENTIAL  FROM AIT-PI-DITE-LDT-CNT LOG
SPWS    .MV                                                                                                : SPONTANEOUS POTENTIAL [BASELINE 0, MV SPRED]
SRESWS  .OHMM                                                                                              : SHALLOW RESISTIVITY [AO10ED]
TENDED  .LBF                                                                                               : DIFFERENTIAL TENSION FROM HOSTILE LDL-CN-GR LOG
TENRED  .LBF                                                                                               : TENSION FROM AIT-PI-DITE-LDT-CNT LOG
TENSED  .LBF                                                                                               : TOTAL TENSION FROM BCS-CALIPER-GR LOG [ADJ. TO GRRED]
~Params ----------------------------------------------------
PD  .                     GL : PERMANENT DATUM
EPD .FT                 3759 : ELEVATION PERMANENT DATUM
LMF .                     KB : LOG MEASURED FROM
DAPD.FT                 37.2 : FEET ABOVE PERMANENT DATUM
DMF .                     KB : DRILLING MEASURED FROM
EKB .FT                 4131 : KELLY BUSHING
EDF .FT                 4121 : DRILLING FLOOR
EGL .FT                 3759 : GROUND LEVEL
DATE.               06/04/96 : RUN DATE
RUN .                      4 : RUN NUMBER
DD  .FT                17800 : DEPTH DRILLER
DL  .FT                17800 : DEPTH LOGGER
BLI .FT                17797 : BOTTOM LOG INTERVAL
TLI .FT                15944 : TOP LOG INTERVAL
CS  .IN                    7 : CASING SIZE
CBD .FT                15950 : CASING BOTTOM DRILLER
CBL .FT                15944 : CASING BOTTOM LOGGER
BS  .IN                5.875 : BIT SIZE
BSD .FT                17800 : BIT SIZE AT DEPTH
DFT .              OIL BASED : DRILLING FLUID TYPE
DFD .                     18 : DRILLING FLUID DENSITY
DFV .                     88 : DRILLING FLUID VISCOSITY
RMC .OHMM      OIL BASED MUD : RESISTIVITY MUD CAKE
MCST.DEGF      OIL BASED MUD : MUD CAKE SAMPLE TEMPERATURE
TCS .HRS                2100 : TIME CIRCULATED STOPPED
TLAB.HRS                1500 : TIME LOGGER AT BOTTOM
LUN .                   2019 : LOGGING UNIT NUMBER
LUL .                  TYLER : LOGGING UNIT LOCATION
ENGI.                 FERRIS : RECORDING ENGINEER
WITN.              MCGINNUSS : WITNESSED BY
CLNT.                A2DTECH : CLIENT CODE
ORIG.               5' PRINT : ORIGIN OF DATA
UWI .         42289312310000 : UNIQUE WELL ID
DICO. A2D Technologies, Inc. : DIGITIZING COMPANY
~Other -----------------------------------------------------
~ASCII -----------------------------------------------------
# ...
 16400.00000    -999.25    -999.25    -999.25    -999.25    -999.25    -999.25    7.17190   75.86910    1.29690   -0.03010    2.61210    -999.25    0.05850    0.05850   13.18060   -0.03010    -999.25   94.98230  246.20000    -999.25   94.98230  109.19950  103.67560  109.19950   13.18060    7.04410    -999.25    0.18900    0.18900    -999.25   10.03360    6.30500    6.30500    2.61210    -999.25    -999.25    -999.25 4511.66500 4769.00830 2659.36940
 16450.00000    -999.25    -999.25    -999.25    -999.25    -999.25    -999.25    7.40830  197.39050    1.53330   -0.03300    2.58480    -999.25    0.07330    0.07330    5.06610   -0.03300    -999.25   96.94130  254.93020  156.46650   96.94130  112.54690  111.79510  112.54690    5.06610    7.35850    -999.25    0.20030    0.20030    -999.25    9.98470    6.65520    6.65520    2.58480    -999.25    -999.25    -999.25 4413.46580 4724.09380 4647.02440
 16500.00000    -999.25    -999.25    -999.25    -999.25    -999.25    -999.25    6.80880  252.91480    0.93380   -0.03380    2.54410    -999.25    0.09780    0.09780    3.95390   -0.03380    -999.25  128.71480   61.24460  161.45300  128.71480  121.21260  117.96860  121.21260    3.95390    6.65880    -999.25    0.18470    0.18470    -999.25    9.99880    6.39380    6.39380    2.54410    -999.25    -999.25    -999.25 4468.91460 4771.30370 4694.47020
 16550.00000    -999.25    -999.25    -999.25    -999.25    -999.25    -999.25    6.72190  267.96000    0.84690   -0.02750    2.54070    -999.25    0.10030    0.10030    3.73190   -0.02750    -999.25  105.02450   59.58770  182.80660  105.02450  113.14840  117.64150  113.14840    3.73190    6.60970    -999.25    0.19390    0.19390    -999.25    9.17850    6.06470    6.06470    2.54070    -999.25    -999.25    -999.25 4509.38960 4796.67580 4353.57810
 16600.00000    -999.25    -999.25    -999.25    -999.25    -999.25    -999.25    6.67620  173.84050    0.80120   -0.02500    2.55370    -999.25    0.09260    0.09260    5.75240   -0.02500    -999.25   95.31370    -999.25   63.90650   95.31370  109.71720  116.70820  109.71720    5.75240    6.53220    -999.25    0.17360    0.17360    -999.25    8.37600    5.93610    5.93610    2.55370    -999.25    -999.25    -999.25 4533.80130 4801.98440 4352.52710
 16650.00000    -999.25    -999.25    -999.25    -999.25    -999.25    -999.25    6.44100  282.95750    0.56600   -0.02940    2.49720    -999.25    0.12540    0.12540    3.53410   -0.02940    -999.25   95.67510    -999.25  114.50470   95.67510  102.30880  101.28230  102.30880    3.53410    6.36230    -999.25    0.14980    0.14980    -999.25    8.39600    5.06430    5.06430    2.49720    -999.25    -999.25    -999.25 4527.02390 4807.58940 4307.05030
 16700.00000    -999.25    -999.25    -999.25    -999.25    -999.25    -999.25    6.29350  247.37780    0.41850   -0.02910    2.52430    -999.25    0.10950    0.10950    4.04240   -0.02910    -999.25   90.10280   42.78280  105.38570   90.10280   92.57880   88.69650   92.57880    4.04240    6.21050    -999.25    0.13360    0.13360    -999.25    7.88650    5.31810    5.31810    2.52430    -999.25    -999.25    -999.25 4568.17290 4859.14450 4335.07130
 16750.00000    -999.25    -999.25    -999.25    -999.25    -999.25    -999.25    6.23860  128.94240    0.36360   -0.02900    2.55560    -999.25    0.09180    0.09180    7.75540   -0.02900    -999.25   85.82730  206.22330  235.40340   85.82730   96.75760   96.02090   96.75760    7.75540    6.17700    -999.25    0.11100    0.11100    -999.25    9.55190    5.74120    5.74120    2.55560    -999.25    -999.25    -999.25 4621.18260 4878.81880 4391.57910
 16800.00000    -999.25    -999.25    -999.25    -999.25    -999.25    -999.25    6.26030   63.15400    0.38530   -0.02300    2.59790    -999.25    0.06650    0.06650   15.83430   -0.02300    -999.25   73.20040    -999.25   43.00800   73.20040   77.61780   72.02910   77.61780   15.83430    6.18650    -999.25    0.06400    0.06400    -999.25   10.01930    6.33180    6.33180    2.59790    -999.25    -999.25    -999.25 4595.71440 4872.14750 4395.18580
 16850.00000    -999.25    -999.25    -999.25    -999.25    -999.25    -999.25    6.29390   41.65780    0.41890   -0.02380    2.68190    -999.25    0.01750    0.01750   24.00510   -0.02380    -999.25   59.00630    -999.25   56.10550   59.00630   45.73870   45.45290   45.73870   24.00510    6.18120    -999.25    0.02340    0.02340    -999.25    9.98930    6.45250    6.45250    2.68190    -999.25    -999.25    -999.25 4670.23780 4883.37890 4373.24020
 16900.00000    -999.25    -999.25    -999.25    -999.25    -999.25    -999.25    6.28570   48.46040    0.41070   -0.02030    2.70600    -999.25    0.00310    0.00310   20.63540   -0.02030    -999.25   60.41430    -999.25   23.81500   60.41430   43.23630   42.82420   43.23630   20.63540    6.18560    -999.25    0.02870    0.02870    -999.25    9.98930    6.71140    6.71140    2.70600    -999.25    -999.25    -999.25 4651.21680 4917.36770 4436.57230
 16950.00000    -999.25    -999.25    -999.25    -999.25    -999.25    -999.25    6.29090   13.83270    0.41590   -0.02570    2.70670    -999.25    0.00250    0.00250   72.29270   -0.02570    -999.25   54.98100   81.40460   56.31960   54.98100   24.43340   23.63730   24.43340   72.29270    6.19000    -999.25    0.01080    0.01080    -999.25   10.02220    7.35330    7.35330    2.70670    -999.25    -999.25    -999.25 4677.48390 4941.93210 4428.58790
 17000.00000    -999.25    -999.25    -999.25    -999.25    -999.25    -999.25    6.21940   23.84770    0.34440   -0.02440    2.70510    -999.25    0.00420    0.00420   41.93270   -0.02440    -999.25   53.46470   42.58480    5.85510   53.46470   23.50980   24.52250   23.50980   41.93270    6.09670    -999.25    0.00990    0.00990    -999.25    9.98900    6.96110    6.96110    2.70510    -999.25    -999.25    -999.25 4691.25540 4920.69580 2695.06030
 17050.00000    -999.25    -999.25    -999.25    -999.25    -999.25    -999.25    6.20600   50.78620    0.33100   -0.02850    2.66750    -999.25    0.02530    0.02530   19.69040   -0.02850    -999.25   57.22000   59.54250   77.79750   57.22000   48.83440   54.43350   48.83440   19.69040    6.09990    -999.25    0.02710    0.02710    -999.25   10.02130    6.68140    6.68140    2.66750    -999.25    -999.25    -999.25 4701.30030 4961.21730 2727.77590
 17100.00000    -999.25    -999.25    -999.25    -999.25    -999.25    -999.25    6.18060   24.73450    0.30560   -0.02510    2.69980    -999.25    0.00750    0.00750   40.42930   -0.02510    -999.25   53.31150   52.42640   84.40090   53.31150   27.36620   32.57950   27.36620   40.42930    6.08600    -999.25    0.01120    0.01120    -999.25    -999.25    7.22770    7.22770    2.69980    -999.25    -999.25    -999.25 4700.34520 4975.28080 2707.78010
 17150.00000    -999.25    -999.25    -999.25    -999.25    -999.25    -999.25    6.14430   21.30630    0.26930   -0.02760    2.70420    -999.25    0.00390    0.00390   46.93450   -0.02760    -999.25   70.75930   53.41330   53.20730   70.75930   25.20940   26.96290   25.20940   46.93450    6.08430    -999.25    0.00720    0.00720    -999.25    -999.25    8.36710    8.36710    2.70420    -999.25    -999.25    -999.25 4696.75590 5008.97750 2741.75670
 17200.00000    -999.25    -999.25    -999.25    -999.25    -999.25    -999.25    6.09210   15.44800    0.21710   -0.02190    2.70080    -999.25    0.00400    0.00400   64.73310   -0.02190    -999.25   52.36970   62.51310   52.58810   52.36970   25.04680   22.59530   25.04680   64.73310    5.99460    -999.25    0.00810    0.00810    -999.25    -999.25    7.07460    7.07460    2.70080    -999.25    -999.25    -999.25 4704.27930 4985.99120 2761.14140
 17250.00000    -999.25    -999.25    -999.25    -999.25    -999.25    -999.25    5.99290   18.07760    0.11790   -0.02270    2.69650    -999.25    0.00710    0.00710   55.31700   -0.02270    -999.25   53.94420   77.23770   72.06990   53.94420   20.43780   22.97180   20.43780   55.31700    5.87650    -999.25    0.00890    0.00890    -999.25    -999.25    7.56460    7.56460    2.69650    -999.25    -999.25    -999.25 4763.71000 4996.31200 2708.95580
