~Version ---------------------------------------------------
VERS. 2.0 : CWLS log ASCII Standard -VERSION 2.0
WRAP.  NO : ONE LINE PER DEPTH STEP
~Well ------------------------------------------------------
STRT.FT                 3150.0 : START DEPTH
STOP.FT                 7450.0 : STOP DEPTH
STEP.FT               50.00000 : STEP LENGTH
NULL.                  -999.25 : NULL VALUE
COMP. CHAMPLIN EXPLORATION INC : COMPANY
WELL.         FONDREN HELEN #1 : WELL
FLD .                 GIDDINGS : FIELD
LOC .                          : LOCATION
CNTY.                  FAYETTE : COUNTY
STAT.                    TEXAS : STATE
CTRY. UNITED STATES OF AMERICA : COUNTRY
SRVC.             Schlumberger : SERVICE COMPANY
DATE.              18-Dec-1980 : LOGDATE
API .           42149308070000 : API NUMBER
UWI .           42149308070000 : UNIQUE WELL ID
SLAT.WGS84       29.9634726024 : SURFACE LATITUDE
SLON.WGS84      -97.1154941932 : SURFACE LONGITUDE
~Curve Information -----------------------------------------
DEPT  .FT    : DEPTH FEET
SPWS  .MV    : SPONTANEOUS POTENTIAL [BASELINE 0 MV] [SPRED]
DRHOED.G/C3  : DENSITY CORRECTION FROM DENSITY LOG
DPHIED.V/V   : DENSITY POROSITY [M=2.71 F=1.0] FROM DENSITY LOG
GRWS  .GAPI  : GAMMA RAY [GRRED]
GRRED .GAPI  : GAMMA RAY FROM RESISTIVITY LOG
SPRED .MV    : SPONTANEOUS POTENTIAL FROM RESISTIVITY LOG
SFLUED.OHMM  : SPHERICALLY FOCUSED LOG RESISTIVITY
ILDED .OHMM  : INDUCTION LOG DEEP RESISTIVITY
ILMED .OHMM  : INDUCTION LOG MEDIUM RESISTIVITY
DCALED.IN    : DIFFERENTIAL CALIPER FROM DENSITY LOG
CALWS .IN    : CALIPER [CALRED]
CALRED.IN    : CALIPER FROM RESISTIVITY LOG
NPHIED.V/V   : NEUTRON POROSITY LIMESTONE FROM DENSITY LOG
DCORWS.G/C3  : DENSITY CORRECTION [DRHOED]
DRESWS.OHMM  : DEEP RESISTIVITY [ILDED]
MRESWS.OHMM  : MEDIUM RESISTIVITY [ILMED]
SRESWS.OHMM  : SHALLOW RESISTIVITY [SFLUED]
CONDWS.MMHO  : CONDUCTIVITY [1000/DRESWS]
NPOWS .V/V   : NEUTRON POROSITY [NPHIED_LS]
DENWS .G/C3  : BULK DENSITY [M=2.71 F=1.0] [CALCULATED FROM DPHIED]
DPOWS .V/V   : DENSITY POROSITY [M=2.71 F=1] [CALCULATED FROM DENWS]
~Params ----------------------------------------------------
PD  .                     GL : PERMANENT DATUM
EPD .FT                  297 : ELEVATION PERMANENT DATUM
LMF .                     KB : LOG MEASURED FROM
DMF .                     KB : DRILLING MEASURED FROM
EKB .FT                  311 : KELLY BUSHING
EDF .FT                  310 : DRILLING FLOOR
EGL .FT                  297 : GROUND LEVEL
DATE.               12/18/80 : RUN DATE
RUN .                      1 : RUN NUMBER
DD  .FT                 7500 : DEPTH DRILLER
DL  .FT                 7490 : DEPTH LOGGER
BLI .FT                 7484 : BOTTOM LOG INTERVAL
TLI .FT                 3180 : TOP LOG INTERVAL
CS  .IN                8.625 : CASING SIZE
CBD .FT                 3190 : CASING BOTTOM DRILLER
CBL .FT                 3180 : CASING BOTTOM LOGGER
BS  .IN                7.875 : BIT SIZE
BSD .FT                 7500 : BIT SIZE AT DEPTH
DFT .          LIGNOSUFONATE : DRILLING FLUID TYPE
DFD .                    9.1 : DRILLING FLUID DENSITY
DFV .                     57 : DRILLING FLUID VISCOSITY
DFPH.                      9 : DRILLING FLUID PH
DFL .                      5 : DRILLING FLUID LOSS
MSS .              CIRC TANK : MUD SAMPLE SOURCE
RMS .OHMM               2.08 : RESISTIVITY MUD SAMPLE
MST .DEGF                 98 : MUD SAMPLE TEMPERATURE
RMF .OHMM               2.46 : RESISTIVITY MUD FILTRATE SAMPLE
MFST.DEGF                 75 : MUD FILTRATE SAMPLE TEMPERATURE
RMC .OHMM               3.12 : RESISTIVITY MUD CAKE
MCST.DEGF                 98 : MUD CAKE SAMPLE TEMPERATURE
MFSS.                      M : MUD FILTRATE SAMPLE SOURCE
MCSS.                      C : MUD CAKE SAMPLE SOURCE
RMB .OHMM               1.19 : RESISTIVITY MUD AT BHT
TCS .HRS                 500 : TIME CIRCULATED STOPPED
TLAB.HRS                 850 : TIME LOGGER AT BOTTOM
LUN .                   8011 : LOGGING UNIT NUMBER
LUL .               VICTORIA : LOGGING UNIT LOCATION
ENGI.                   SHEA : RECORDING ENGINEER
WITN.                BEAKHAM : WITNESSED BY
CLNT.                A2DTECH : CLIENT CODE
ORIG.            2" 5" PRINT : ORIGIN OF DATA
UWI .         42149308070000 : UNIQUE WELL ID
DICO. A2D Technologies, Inc. : DIGITIZING COMPANY
~Other -----------------------------------------------------
ALL LOGS RUN IN COMBO.
~ASCII -----------------------------------------------------
# ...
 4800.00000   -2.91940    -999.25    -999.25  100.69290  100.69290   -7.02670    1.67600    1.47200    1.54180    0.98280    8.85780    8.85780    -999.25    -999.25    1.47200    1.54180    1.67600  679.34780    -999.25    -999.25    -999.25
 4850.00000   -0.70440    -999.25    -999.25   97.95390   97.95390   -1.92520    1.12480    1.01350    1.04280    0.75670    8.63170    8.63170    -999.25    -999.25    1.01350    1.04280    1.12480  986.67990    -999.25    -999.25    -999.25
 4900.00000   -1.69020    -999.25    -999.25   96.07550   96.07550   -1.26980    1.19020    1.07380    1.11950    1.04390    8.91890    8.91890    -999.25    -999.25    1.07380    1.11950    1.19020  931.27220    -999.25    -999.25    -999.25
 4950.00000   -3.06050    -999.25    -999.25   91.27180   91.27180   -3.27280    1.53190    1.54790    1.60120    0.56290    8.43790    8.43790    -999.25    -999.25    1.54790    1.60120    1.53190  646.03660    -999.25    -999.25    -999.25
 5000.00000   -1.77090    -999.25    -999.25   86.70510   86.70510   -2.61590    1.53490    1.63310    1.57890    0.22600    8.10100    8.10100    -999.25    -999.25    1.63310    1.57890    1.53490  612.33230    -999.25    -999.25    -999.25
 5050.00000  -21.81140    -999.25    -999.25   61.44170   61.44170  -23.42790    3.22340    2.38520    2.53990   -0.41410    7.46090    7.46090    -999.25    -999.25    2.38520    2.53990    3.22340  419.25200    -999.25    -999.25    -999.25
 5100.00000  -12.08330    -999.25    -999.25   78.83780   78.83780  -21.44320    4.73400    1.67970    2.05320   -0.48680    7.38820    7.38820    -999.25    -999.25    1.67970    2.05320    4.73400  595.34440    -999.25    -999.25    -999.25
 5150.00000   -2.49650    -999.25    -999.25   88.03510   88.03510   -8.24640    1.68950    1.55620    1.62910    0.44210    8.31710    8.31710    -999.25    -999.25    1.55620    1.62910    1.68950  642.59090    -999.25    -999.25    -999.25
 5200.00000  -15.53830    -999.25    -999.25   96.23640   96.23640  -19.66840    1.13680    1.05710    1.11430    0.85930    8.73430    8.73430    -999.25    -999.25    1.05710    1.11430    1.13680  945.98430    -999.25    -999.25    -999.25
 5250.00000   -3.19270    -999.25    -999.25   79.31860   79.31860  -39.09930    1.96860    1.67940    1.79090    0.86400    8.73900    8.73900    -999.25    -999.25    1.67940    1.79090    1.96860  595.45070    -999.25    -999.25    -999.25
 5300.00000   -3.00870    -999.25    -999.25   92.13680   92.13680  -37.71850    1.58630    1.46170    1.53170    1.55870    9.43370    9.43370    -999.25    -999.25    1.46170    1.53170    1.58630  684.13490    -999.25    -999.25    -999.25
 5350.00000   -5.94800    -999.25    -999.25   77.70750   77.70750  -39.46090    1.41640    1.25580    1.30490    2.13760   10.01260   10.01260    -999.25    -999.25    1.25580    1.30490    1.41640  796.30510    -999.25    -999.25    -999.25
 5400.00000   -0.89800    -999.25    -999.25   94.19920   94.19920  -33.75970    1.40570    1.21620    1.27220    1.85090    9.72590    9.72590    -999.25    -999.25    1.21620    1.27220    1.40570  822.23320    -999.25    -999.25    -999.25
 5450.00000   -1.75210    -999.25    -999.25  102.01930  102.01930  -36.44840    1.15360    0.93470    0.99720    0.95070    8.82570    8.82570    -999.25    -999.25    0.93470    0.99720    1.15360 1069.86190    -999.25    -999.25    -999.25
 5500.00000   -3.70190    -999.25    -999.25   91.09720   91.09720  -56.77050    1.34770    1.16860    1.22770    1.97150    9.84650    9.84650    -999.25    -999.25    1.16860    1.22770    1.34770  855.72490    -999.25    -999.25    -999.25
 5550.00000   -2.51790    -999.25    -999.25   96.89060   96.89060  -51.22620    1.33430    1.13730    1.19810    2.03450    9.90950    9.90950    -999.25    -999.25    1.13730    1.19810    1.33430  879.27550    -999.25    -999.25    -999.25
 5600.00000   -1.23760    -999.25    -999.25  103.77130  103.77130  -51.59510    1.09930    1.02350    1.16400    1.79020    9.66520    9.66520    -999.25    -999.25    1.02350    1.16400    1.09930  977.03960    -999.25    -999.25    -999.25
 5650.00000   -2.26470    -999.25    -999.25   90.24550   90.24550  -33.23030    1.32210    1.12120    1.19270    2.04620    9.92120    9.92120    -999.25    -999.25    1.12120    1.19270    1.32210  891.90160    -999.25    -999.25    -999.25
 5700.00000   -3.00160    -999.25    -999.25  113.64850  113.64850  -29.30920    1.02630    1.28530    1.15590    1.91380    9.78880    9.78880    -999.25    -999.25    1.28530    1.15590    1.02630  778.02840    -999.25    -999.25    -999.25
 5750.00000   -4.01430    -999.25    -999.25   87.73770   87.73770  -29.02560    1.83880    1.61240    1.63710    1.44760    9.32260    9.32260    -999.25    -999.25    1.61240    1.63710    1.83880  620.19350    -999.25    -999.25    -999.25
 5800.00000   -0.43610    -999.25    -999.25  114.45070  114.45070  -23.29130    0.96360    0.88110    0.96270    1.70100    9.57600    9.57600    -999.25    -999.25    0.88110    0.96270    0.96360 1134.94490    -999.25    -999.25    -999.25
 5850.00000   -0.37810    -999.25    -999.25   83.13300   83.13300  -28.73800    1.34130    1.22020    1.27200    1.51140    9.38640    9.38640    -999.25    -999.25    1.22020    1.27200    1.34130  819.53780    -999.25    -999.25    -999.25
 5900.00000    0.42950    -999.25    -999.25   90.02680   90.02680  -29.00840    1.21330    1.08480    1.16310    2.51730   10.39230   10.39230    -999.25    -999.25    1.08480    1.16310    1.21330  921.82890    -999.25    -999.25    -999.25
 5950.00000   -0.75960    -999.25    -999.25   96.29150   96.29150  -30.05940    1.39940    1.19470    1.27230    1.66390    9.53890    9.53890    -999.25    -999.25    1.19470    1.27230    1.39940  837.03020    -999.25    -999.25    -999.25
 6000.00000  -11.69800    -999.25    -999.25  104.92290  104.92290  -37.40720    1.56340    1.20140    1.30600    1.70380    9.57880    9.57880    -999.25    -999.25    1.20140    1.30600    1.56340  832.36220    -999.25    -999.25    -999.25
 6050.00000  -16.52980    -999.25    -999.25  102.02620  102.02620  -40.86800    1.98460    1.81670    1.92120    1.06520    8.94020    8.94020    -999.25    -999.25    1.81670    1.92120    1.98460  550.44860    -999.25    -999.25    -999.25
 6100.00000   -2.22340    -999.25    -999.25   98.54050   98.54050  -24.80880    1.43620    1.26130    1.35740    2.08360    9.95860    9.95860    -999.25    -999.25    1.26130    1.35740    1.43620  792.83280    -999.25    -999.25    -999.25
 6150.00000   -2.72490    -999.25    -999.25   94.57150   94.57150  -25.74160    1.48530    1.26230    1.34540    2.41180   10.28680   10.28680    -999.25    -999.25    1.26230    1.34540    1.48530  792.20470    -999.25    -999.25    -999.25
 6200.00000   -2.77680    -999.25    -999.25  100.12390  100.12390  -26.22480    1.35900    1.15970    1.25120    2.49630   10.37130   10.37130    -999.25    -999.25    1.15970    1.25120    1.35900  862.29190    -999.25    -999.25    -999.25
 6250.00000   -0.06320    -999.25    -999.25   99.23620   99.23620  -23.94250    1.38530    1.17430    1.25440    2.66550   10.54050   10.54050    -999.25    -999.25    1.17430    1.25440    1.38530  851.57120    -999.25    -999.25    -999.25
 6300.00000   -1.26260    -999.25    -999.25  101.94730  101.94730  -23.04560    1.25880    1.06540    1.14600    2.53030   10.40530   10.40530    -999.25    -999.25    1.06540    1.14600    1.25880  938.61460    -999.25    -999.25    -999.25
 6350.00000   -5.39030    -999.25    -999.25   85.82550   85.82550  -20.84870    2.05150    1.91120    2.02840    0.80780    8.68280    8.68280    -999.25    -999.25    1.91120    2.02840    2.05150  523.23140    -999.25    -999.25    -999.25
 6400.00000   -0.38430    -999.25    -999.25   69.71730   69.71730  -14.87620    4.21080    4.19410    4.26340    0.14460    8.01960    8.01960    -999.25    -999.25    4.19410    4.26340    4.21080  238.43020    -999.25    -999.25    -999.25
