~Version ---------------------------------------------------
VERS. 2.0 : CWLS log ASCII Standard -VERSION 2.0
WRAP. YES : MULTIPLE LINES PER DEPTH STEP
~Well ------------------------------------------------------
STRT.FT                                1300.0 : START DEPTH
STOP.FT                               10950.0 : STOP DEPTH
STEP.FT                              50.00000 : STEP LENGTH
NULL.                                 -999.25 : NULL VALUE
COMP. GULF EXPLORATION AND PRODUCTION COMPANY : COMPANY
WELL.                HENDERSON GAS UNIT II #2 : WELL
FLD .                                 FASHING : FIELD
LOC .                                         : LOCATION
CNTY.                                ATASCOSA : COUNTY
STAT.                                   TEXAS : STATE
CTRY.                UNITED STATES OF AMERICA : COUNTRY
SRVC.                                 Unknown : SERVICE COMPANY
DATE.                             06-Jun-1981 : LOGDATE
API .                          42013311740000 : API NUMBER
UWI .                          42013311740000 : UNIQUE WELL ID
SLAT.WGS84                      28.8192769779 : SURFACE LATITUDE
SLON.WGS84                      -98.151364978 : SURFACE LONGITUDE
~Curve Information -----------------------------------------
DEPT    .FT                         : DEPTH FEET
CALDED  .IN                         : CALIPER FROM DENSITY LOG [DEPTH SHIFTED TO RES.]
CALWS   .IN                         : CALIPER [CALDED]
CONDWS  .MMHO                       : CONDUCTIVITY [1000/DRESWS]
DCORWS  .G/C3                       : DENSITY CORRECTION [DRHOED]
DENWS   .G/C3                       : BULK DENSITY [M=2.71 F=1.0] [CALCULATED FROM DPOWS]
DPHILSED.V/V                        : DENSITY POROSITY LIMESTONE FROM DENSITY LOG [DEPTH SHIFTED TO RES.]
DPOWS   .V/V                        : DENSITY POROSITY [M=2.71 F=1.0] [DPHILSED]
DRESWS  .OHMM                       : DEEP RESISTIVITY [ILDED]
DRHOED  .G/C3                       : DENSITY CORRECTION FROM DENSITY LOG [DEPTH SHIFTED TO RES.]
DTED    .US/F                       : DELTA TIME FROM SONIC LOG
DTWS    .US/F                       : DELTA TIME [DTED]
GRDED   .GAPI                       : GAMMA RAY FROM DENSITY LOG [DEPTH SHIFTED TO RES.]
GRNED   .CPS                        : GAMMA RAY FROM NEUTRON LOG [DEPTH SHIFTED TO RES.]
GRRED   .GAPI                       : GAMMA RAY FROM RESISTIVITY LOG
GRWS    .GAPI :   GAMMA RAY [SPLICE : 1294 GRNED 2010 GRRED 9954 GRDED. CASED ABOVE 2020]
ILDED   .OHMM                       : INDUCTION LOG DEEP RESISTIVITY
ILMED   .OHMM                       : INDUCTION LOG MEDIUM RESISTIVITY
MRESWS  .OHMM                       : MEDIUM RESISTIVITY [ILMED]
NEUTED  .CPS                        : NEUTRON FROM CASED HOLE NEUTRON LOG [DEPTH SHIFTED TO RES.]
NEUTWS  .CPS                        : NEUTRON [NEUTED]
NPHILSED.V/V                        : NEUTRON POROSITY LIMESTONE [DEPTH SHIFTED TO RES.]
NPOWS   .V/V                        : NEUTRON POROSITY LIMESTONE [NPHILSED]
RHOBED  .G/C3                       : BULK DENSITY FROM DENSITY LOG [DEPTH SHIFTED TO RES.]
SFLUED  .OHMM                       : SPHERICALLY FOCUSED LOG RESISTIVITY
SPRED   .MV                         : SPONTANEOUS POTENTIAL FROM RESISTIVITY LOG
SPWS    .MV                         : SPONTANEOUS POTENTIAL [BASELINE 0 MV] [SPRED]
SRESWS  .OHMM                       : SHALLOW RESISTIVITY [SFLUED]
TENDED  .LBF                        : TENSION FROM DENSITY LOG
~Params ----------------------------------------------------
DATE.               06/06/81 : RUN DATE
RUN .                      1 : RUN NUMBER
CLNT.                A2DTECH : CLIENT CODE
ORIG.               5" PRINT : ORIGIN OF DATA
UWI .         42013311740000 : UNIQUE WELL ID
DICO. A2D Technologies, Inc. : DIGITIZING COMPANY
~Other -----------------------------------------------------
1. NEUTED AND NPHILSED WERE THE PRIMARY DEPTH SHIFTED CURVES FOR THEIR REPRESENTATIVE LOGS; THEY WERE BOTH DEPTH SHIFTED TO SFLUED AND DTED AS THE PRIMARY DEPTH CONTROL CURVES.
2. GRWS IS COMPRISED OF GRNED DOWN TO 2010.
~ASCII -----------------------------------------------------
# ...
 3800.00000   10.25820   10.25820  897.82720    -999.25    -999.25    -999.25    -999.25    1.11380    -999.25  130.23680  130.23680    -999.25   64.01900   87.16470   87.16470    1.11380    1.16500    1.16500  516.86330  516.86330    -999.25    -999.25    -999.25    1.45370   -6.95070   -7.67760    1.45370    -999.25
 3850.00000    9.59180    9.59180  857.33890    -999.25    -999.25    -999.25    -999.25    1.16640    -999.25  137.94270  137.94270    -999.25   69.27250   82.00000   82.00000    1.16640    1.20020    1.20020  490.71230  490.71230    -999.25    -999.25    -999.25    1.21750   -6.41590   -9.35340    1.21750    -999.25
 3900.00000   10.68310   10.68310  782.90140    -999.25    -999.25    -999.25    -999.25    1.27730    -999.25  135.71240  135.71240    -999.25   68.57940   83.68470   83.68470    1.27730    1.31660    1.31660  548.91450  548.91450    -999.25    -999.25    -999.25    1.47510   -6.61380  -11.76180    1.47510    -999.25
 3950.00000    9.68160    9.68160  720.35730    -999.25    -999.25    -999.25    -999.25    1.38820    -999.25  140.33350  140.33350    -999.25   73.83030   77.75980   77.75980    1.38820    1.42450    1.42450  466.31780  466.31780    -999.25    -999.25    -999.25    1.20640   -5.87910  -13.23760    1.20640    -999.25
 4000.00000    8.89560    8.89560  241.97840    -999.25    -999.25    -999.25    -999.25    4.13260    -999.25  104.64020  104.64020    -999.25   60.90030   72.52980   72.52980    4.13260    4.22340    4.22340  607.15880  607.15880    -999.25    -999.25    -999.25    4.60320  -13.80500  -23.37410    4.60320    -999.25
 4050.00000    8.10460    8.10460   59.25570    -999.25    -999.25    -999.25    -999.25   16.87600    -999.25  107.79220  107.79220    -999.25   24.85710   30.68100   30.68100   16.87600   12.75060   12.75060  670.13760  670.13760    -999.25    -999.25    -999.25   12.36130   10.33370   -1.37400   12.36130    -999.25
 4100.00000    8.25090    8.25090  101.94510    -999.25    -999.25    -999.25    -999.25    9.80920    -999.25   91.49640   91.49640    -999.25   32.25720   40.26930   40.26930    9.80920    9.09800    9.09800  702.57500  702.57500    -999.25    -999.25    -999.25    8.71130  -10.01090  -22.13050    8.71130    -999.25
 4150.00000    8.46310    8.46310   88.53400    -999.25    -999.25    -999.25    -999.25   11.29510    -999.25   97.00790   97.00790    -999.25   72.00940   75.46210   75.46210   11.29510   10.15110   10.15110  689.32250  689.32250    -999.25    -999.25    -999.25    9.11340   -4.80970  -17.34120    9.11340    -999.25
 4200.00000    8.15740    8.15740   80.19630    -999.25    -999.25    -999.25    -999.25   12.46940    -999.25  103.49550  103.49550    -999.25   55.51370   65.51170   65.51170   12.46940   10.83930   10.83930  735.15080  735.15080    -999.25    -999.25    -999.25   10.22630   -4.19260  -17.13600   10.22630    -999.25
 4250.00000    8.13740    8.13740   44.82980    -999.25    -999.25    -999.25    -999.25   22.30660    -999.25  102.05550  102.05550    -999.25   32.95430   40.08570   40.08570   22.30660   15.43360   15.43360  744.16990  744.16990    -999.25    -999.25    -999.25   14.31050   11.35090   -1.85190   14.31050    -999.25
 4300.00000    9.33660    9.33660  324.14910    -999.25    -999.25    -999.25    -999.25    3.08500    -999.25  102.07970  102.07970    -999.25   64.64950   78.80480   78.80480    3.08500    3.47990    3.47990  575.69510  575.69510    -999.25    -999.25    -999.25    6.33120    0.64740  -12.64260    6.33120    -999.25
 4350.00000    8.02050    8.02050   62.03780    -999.25    -999.25    -999.25    -999.25   16.11920    -999.25  103.32180  103.32180    -999.25   45.44030   60.13600   60.13600   16.11920   12.08450   12.08450  702.96940  702.96940    -999.25    -999.25    -999.25   13.42490    0.09500  -13.28230   13.42490    -999.25
 4400.00000    8.27920    8.27920   44.61820    -999.25    -999.25    -999.25    -999.25   22.41240    -999.25  101.21330  101.21330    -999.25   27.80160   41.45270   41.45270   22.41240   13.49870   13.49870  730.40360  730.40360    -999.25    -999.25    -999.25   14.09950    5.94070   -7.52380   14.09950    -999.25
 4450.00000    8.58410    8.58410   50.61420    -999.25    -999.25    -999.25    -999.25   19.75730    -999.25  105.05190  105.05190    -999.25   42.05620   57.62660   57.62660   19.75730   13.79920   13.79920  694.04900  694.04900    -999.25    -999.25    -999.25   12.78370    5.74370   -7.80810   12.78370    -999.25
 4500.00000    8.36070    8.36070   44.63830    -999.25    -999.25    -999.25    -999.25   22.40230    -999.25  101.61960  101.61960    -999.25   21.51940   27.60120   27.60120   22.40230   13.58770   13.58770  797.22570  797.22570    -999.25    -999.25    -999.25   13.56990   10.53860   -3.10050   13.56990    -999.25
 4550.00000    7.98980    7.98980   50.31240    -999.25    -999.25    -999.25    -999.25   19.87580    -999.25  103.57870  103.57870    -999.25   22.59220   28.14720   28.14720   19.87580   13.45890   13.45890  715.97930  715.97930    -999.25    -999.25    -999.25   13.41080   13.19420   -0.41030   13.41080    -999.25
 4600.00000    8.85960    8.85960  166.30360    -999.25    -999.25    -999.25    -999.25    6.01310    -999.25  103.77480  103.77480    -999.25   81.05740   87.26900   87.26900    6.01310    6.24040    6.24040  749.08900  749.08900    -999.25    -999.25    -999.25    5.93360   -6.53920  -19.41850    5.93360    -999.25
 4650.00000    8.10580    8.10580  111.08150    -999.25    -999.25    -999.25    -999.25    9.00240    -999.25  104.54830  104.54830    -999.25   58.22960   76.57970   76.57970    9.00240    8.15020    8.15020  721.89650  721.89650    -999.25    -999.25    -999.25    8.56020   -2.46160  -14.61580    8.56020    -999.25
 4700.00000    8.15130    8.15130   71.16220    -999.25    -999.25    -999.25    -999.25   14.05240    -999.25  104.49750  104.49750    -999.25   32.74680   42.74910   42.74910   14.05240   10.11880   10.11880  734.62340  734.62340    -999.25    -999.25    -999.25    9.69610    6.46910   -4.95990    9.69610    -999.25
 4750.00000    8.21810    8.21810   77.67590    -999.25    -999.25    -999.25    -999.25   12.87400    -999.25   86.97530   86.97530    -999.25   74.24900   79.73380   79.73380   12.87400   12.35620   12.35620  746.46890  746.46890    -999.25    -999.25    -999.25   14.94810   -5.92260  -16.62650   14.94810    -999.25
 4800.00000    8.20280    8.20280   95.18280    -999.25    -999.25    -999.25    -999.25   10.50610    -999.25   93.26950   93.26950    -999.25   68.99020   92.32750   92.32750   10.50610    9.57020    9.57020  655.68930  655.68930    -999.25    -999.25    -999.25    8.33820   -5.41160  -15.39040    8.33820    -999.25
 4850.00000    8.12980    8.12980   54.56520    -999.25    -999.25    -999.25    -999.25   18.32670    -999.25   96.47480   96.47480    -999.25   50.39200   68.69940   68.69940   18.32670   14.34590   14.34590  674.39770  674.39770    -999.25    -999.25    -999.25   12.97980    0.34420   -8.90940   12.97980    -999.25
 4900.00000    8.06140    8.06140   95.25080    -999.25    -999.25    -999.25    -999.25   10.49860    -999.25   98.34140   98.34140    -999.25   74.30350   79.66400   79.66400   10.49860    9.14700    9.14700  736.58440  736.58440    -999.25    -999.25    -999.25    8.58930  -12.60410  -21.13260    8.58930    -999.25
 4950.00000    7.98670    7.98670   90.20390    -999.25    -999.25    -999.25    -999.25   11.08600    -999.25  101.39030  101.39030    -999.25   41.76590   53.79370   53.79370   11.08600    9.73270    9.73270  681.46250  681.46250    -999.25    -999.25    -999.25    8.82420   -5.31340  -13.11670    8.82420    -999.25
 5000.00000    8.12300    8.12300  151.38900    -999.25    -999.25    -999.25    -999.25    6.60550    -999.25  103.50480  103.50480    -999.25   56.09380   68.78810   68.78810    6.60550    6.32440    6.32440  683.49950  683.49950    -999.25    -999.25    -999.25    6.07640  -17.69160  -24.76980    6.07640    -999.25
