~Version ---------------------------------------------------
VERS. 2.0 : CWLS log ASCII Standard -VERSION 2.0
WRAP.  NO : ONE LINE PER DEPTH STEP
~Well ------------------------------------------------------
STRT.F                   300.0 : START DEPTH
STOP.F                 14500.0 : STOP DEPTH
STEP.F                50.00000 : STEP LENGTH
NULL.                  -999.25 : NULL VALUE
COMP.     SUNDANCE OIL COMPANY : COMPANY
WELL.           N E SHORTER #1 : WELL
FLD .               FARRER, SE : FIELD
LOC .                          : LOCATION
CNTY.                LIMESTONE : COUNTY
STAT.                    TEXAS : STATE
CTRY. UNITED STATES OF AMERICA : COUNTRY
SRVC.            Dresser Atlas : SERVICE COMPANY
DATE.              01-Jul-1979 : LOGDATE
API .           42293304520000 : API NUMBER
UWI .           42293304520000 : UNIQUE WELL ID
SLAT.WGS84       31.4107756472 : SURFACE LATITUDE
SLON.WGS84      -96.2915378088 : SURFACE LONGITUDE
~Curve Information -----------------------------------------
DEPT   .F                 : 
ILD    .OHMM 07 120 46 00 : INDUCTION DEEP RESISTIVITY
ILM    .OHMM 07 120 44 00 : INDUCTION MEDIUM RESISTIVITY
SPR    .MV   07 010 01 00 : SPONTANEOUS POTENTIAL FROM RESISTIVITY LOG
SFL    .OHMM 07 220 06 00 : SPHERICALLY FOCUSED LOG
DPHI_SS.DEC  45 890 12 00 : DENSITY POROSITY SANDSTONE
NPHI_SS.DEC  42 890 03 00 : NEUTRON POROSITY SANDSTONE
CORR   .G/C3 45 356 01 00 : DENSITY CORRECTION
RHOB   .G/C3 45 350 01 00 : BULK DENSITY
DPHI_LS.DEC  45 890 10 00 : DENSITY POROSITY LIMESTONE
NPHI_LS.DEC  42 890 01 00 : NEUTRON POROSITY LIMESTONE
GRD    .GAPI 45 310 01 00 : GAMMA RAY FROM DENSITY LOG
CALD   .IN   45 280 60 00 : CALIPER FROM DENSITY LOG
~Params ----------------------------------------------------
PD  .                     GL : PERMANENT DATUM
EPD .FT                424.5 : ELEVATION PERMANENT DATUM
LMF .                     KB : LOG MEASURED FROM
DAPD.FT                 22.5 : FEET ABOVE PERMANENT DATUM
DMF .                     KB : DRILLING MEASURED FROM
EKB .FT                  447 : KELLY BUSHING
EDF .FT                  446 : DRILLING FLOOR
EGL .FT                424.5 : GROUND LEVEL
DATE.               07/01/79 : RUN DATE
RUN .                      2 : RUN NUMBER
DD  .FT                14500 : DEPTH DRILLER
DL  .FT                14503 : DEPTH LOGGER
BLI .FT                14501 : BOTTOM LOG INTERVAL
TLI .FT                 5360 : TOP LOG INTERVAL
CS  .IN                9.625 : CASING SIZE
CBD .FT                 5360 : CASING BOTTOM DRILLER
CBL .FT                 5360 : CASING BOTTOM LOGGER
BS  .IN                 8.75 : BIT SIZE
BSD .FT                14500 : BIT SIZE AT DEPTH
DFT .               GEE CHEM : DRILLING FLUID TYPE
DFD .                   12.1 : DRILLING FLUID DENSITY
DFV .                     45 : DRILLING FLUID VISCOSITY
DFPH.                     11 : DRILLING FLUID PH
DFL .                    8.8 : DRILLING FLUID LOSS
MSS .                    PIT : MUD SAMPLE SOURCE
RMS .OHMM               0.85 : RESISTIVITY MUD SAMPLE
MST .DEGF                 80 : MUD SAMPLE TEMPERATURE
RMF .OHMM               0.63 : RESISTIVITY MUD FILTRATE SAMPLE
MFST.DEGF                 80 : MUD FILTRATE SAMPLE TEMPERATURE
RMC .OHMM               1.01 : RESISTIVITY MUD CAKE
MCST.DEGF                 80 : MUD CAKE SAMPLE TEMPERATURE
MFSS.                    CAL : MUD FILTRATE SAMPLE SOURCE
MCSS.                    CAL : MUD CAKE SAMPLE SOURCE
RMB .OHMM               0.22 : RESISTIVITY MUD AT BHT
TCS .HRS                   6 : TIME CIRCULATED STOPPED
LUN .                   6104 : LOGGING UNIT NUMBER
LUL .                  TYLER : LOGGING UNIT LOCATION
ENGI.                 DELLVA : RECORDING ENGINEER
WITN.                 WALKER : WITNESSED BY
CLNT.                A2DTECH : CLIENT CODE
ORIG.          1" 2.5" PRINT : ORIGIN OF DATA
UWI .         42293304520000 : UNIQUE WELL ID
DICO. A2D Technologies, Inc. : DIGITIZING COMPANY
~Other -----------------------------------------------------
~ASCII -----------------------------------------------------
# ...
 11500.00000    5.39230    4.19900  -74.25350    8.88170    0.08660    0.25500    0.03220    2.46290    -999.25    -999.25   82.73110   10.25850
 11550.00000   29.53600   19.60690 -147.46500   32.45100    0.26730    0.33580    0.06040    2.28620    -999.25    -999.25   75.38440   10.80610
 11600.00000   13.07960   12.50730 -126.16130   19.10970    0.04110    0.09700    0.04180    2.57750    -999.25    -999.25   51.48270    9.26570
 11650.00000    7.70110    5.59950  -81.31910    7.00360    0.03550    0.13000    0.02720    2.41110    -999.25    -999.25   63.01230    9.59130
 11700.00000   21.52130   12.53260 -115.50090   18.08440    0.09700    0.12120    0.07200    2.48640    -999.25    -999.25   38.60700    9.95620
 11750.00000   15.79740    3.65830  -82.24120    5.52100    0.18190    0.28760    0.15640    2.38330    -999.25    -999.25   93.45600   12.89840
 11800.00000   12.85130   13.74300 -115.68730   18.13740    0.23330    0.37180    0.04040    2.20870    -999.25    -999.25   86.08270   10.49760
 11850.00000   13.34620   14.54020 -119.87920   15.75150    0.21810    0.25320    0.02010    2.28750    -999.25    -999.25   67.24370    9.57990
 11900.00000    6.41530    5.04270  -91.15890   14.54280    0.03160    0.10760    0.01330    2.59120    -999.25    -999.25   50.75200    9.32090
 11950.00000   11.99900   10.15850 -117.97120   21.73660    0.04160    0.10150    0.01750    2.59000    -999.25    -999.25   51.42100    9.07480
 12000.00000   13.65750    9.90740 -133.02190   23.29730    0.07890    0.11290    0.01810    2.52480    -999.25    -999.25   37.20070    9.45350
 12050.00000   15.36030   12.88820 -136.61960   19.15250    0.04360    0.09340    0.00560    2.52260    -999.25    -999.25   39.57950   10.30620
 12100.00000   14.62220   10.78590  -89.83700   11.33210    0.07730    0.09700    0.05770    2.53550    -999.25    -999.25   34.54150   10.60610
 12150.00000   13.66970   12.72100 -112.54010   26.25050    0.06560    0.13700    0.06950    2.59710    -999.25    -999.25   49.21580   11.20860
 12200.00000   14.01920   13.37900 -120.86180   19.58340    0.02600    0.16570    0.00940    2.45860    -999.25    -999.25   85.06090   10.39520
 12250.00000   16.21920   16.60980 -135.85630   24.09190   -0.01070    0.17010    0.02060    2.65890    -999.25    -999.25   86.85190   10.29560
 12300.00000   16.40470    5.09440  -75.35630    7.03740   -0.00410    0.08910    0.02960    2.60080    -999.25    -999.25   39.14240   10.57740
 12350.00000   11.75480    9.12710  -93.21230   14.64000    0.02810    0.26560    0.01840    2.60960    -999.25    -999.25   87.14130   10.54750
 12400.00000    5.57470    3.71600  -65.22110    5.45510    0.09580    0.10770    0.02680    2.50220    -999.25    -999.25   36.79140    9.38910
 12450.00000   21.23660   16.59050 -142.56250   37.10290    0.08080    0.07420    0.01640    2.50600    -999.25    -999.25   32.80070    9.23260
 12500.00000    6.61790    5.00120  -70.61080    8.09540    0.12240    0.32890    0.15280    2.49510    -999.25    -999.25  106.94390   10.06570
 12550.00000    6.69250    5.88820  -57.34200    7.08810    -999.25    -999.25    0.08630    2.27100    0.22290    0.11720  102.56670    7.81930
 12600.00000    6.10860    5.88790  -59.20480    8.24380    -999.25    -999.25    0.09360    2.64960    0.02550    0.19260  119.51220   11.17930
 12650.00000    6.07180    3.54340  -54.19150    4.84910    -999.25    -999.25    0.15690    2.54650    0.07270    0.19180  111.70870   11.11350
 12700.00000    4.05050    4.40090  -45.58490    7.35610    -999.25    -999.25    0.06100    2.57250    0.06860    0.15510  109.31150   11.36240
 12750.00000    5.06310    3.43500  -44.67910    5.41230    -999.25    -999.25    0.19470    2.64790    0.11620    0.18410  102.27260   11.49550
 12800.00000    9.01700    3.59310  -44.34430    5.51060    -999.25    -999.25    0.14680    2.47680    0.13740    0.17220   96.23360   11.46320
 12850.00000    4.25150    3.22740  -43.00220    5.44180    -999.25    -999.25    0.04850    2.54210    0.19320    0.17490  101.57440   13.16340
 12900.00000    8.06380    7.07320  -49.16120   16.45640    -999.25    -999.25    0.06140    2.59450    0.05140    0.11430  105.77460   10.74570
 12950.00000    7.90870    5.74090  -74.35140   15.38620    -999.25    -999.25    0.07240    2.46360    0.14760    0.14620  107.86620   12.65140
 13000.00000    9.84690    7.18030  -72.09700   15.33570    -999.25    -999.25    0.07290    2.58800    0.05740    0.17230  109.39130   13.34910
 13050.00000    9.73800    7.32530  -64.93540   10.08280    -999.25    -999.25    0.08080    2.52270    0.11670    0.21090  103.92840   14.11710
 13100.00000    8.66300    7.84180  -81.17010   11.03490    -999.25    -999.25    0.07280    2.59870    0.06610    0.21010  102.80550   15.80530
 13150.00000    5.62730    4.94540  -68.70050    8.05760    -999.25    -999.25    0.05650    2.59510    0.07450    0.20230  105.28250   15.67960
 13200.00000    7.35440    7.15270  -71.50170    8.72510    -999.25    -999.25    0.04240    2.59260    0.07420    0.21430  106.33520   15.92060
 13250.00000    8.74570    7.73440  -60.71070    9.27880    -999.25    -999.25    0.15040    2.52750    0.10590    0.18520  109.81390   14.38420
 13300.00000    5.39390    5.15400  -52.66830    7.28170    -999.25    -999.25    0.13120    2.52160    0.12140    0.22850   95.66970   15.29810
 13350.00000    3.92880    3.10400  -34.97750    4.67210    -999.25    -999.25    0.05540    2.57370    0.08740    0.21110  106.06030   15.97080
 13400.00000    4.20980    3.29720  -36.57150    5.15350    -999.25    -999.25    0.06760    2.57990    0.07530    0.20090  105.01970   15.73710
 13450.00000    6.15980    7.04210  -40.50040    7.93600    -999.25    -999.25    0.03620    2.61100    0.06680    0.21090  113.17550   14.20000
 13500.00000    4.61930    4.19070  -52.69410    7.23290    -999.25    -999.25    0.05090    2.63110    0.04260    0.17780  112.52580   13.33630
 13550.00000    8.87030    6.72490  -53.82760   10.81540    -999.25    -999.25    0.08300    2.66220    0.03110    0.17980  123.21910   11.14830
 13600.00000    6.04940    5.46400  -42.66540    7.25810    -999.25    -999.25    0.04050    2.62670    0.03650    0.17550  120.99010   11.20450
 13650.00000    4.64860    4.45860  -37.06480    5.91470    -999.25    -999.25    0.02150    2.62490    0.04340    0.19020  119.60590   12.62980
 13700.00000    7.55050    5.77680  -35.67670   10.17900    -999.25    -999.25    0.03570    2.61680    0.04710    0.18230  120.58680   11.58730
 13750.00000   17.95290   10.56290  -41.64210   14.68110    -999.25    -999.25    0.02430    2.60680    0.05920    0.15390  114.93330   10.74220
 13800.00000   14.11340   12.84220  -48.49540   18.40600    -999.25    -999.25   -0.00690    2.54640    0.08380    0.10710  125.23230   10.42800
 13850.00000   25.12020   23.04300  -90.34690   56.50800    -999.25    -999.25   -0.00310    2.56180    0.09070    0.10390  100.64820   10.01680
 13900.00000   28.87070   19.58880  -96.76130   36.59700    -999.25    -999.25    0.01790    2.67210    0.00670    0.04790   71.60890   10.05110
 13950.00000   35.80210   22.87790  -94.12240   61.98440    -999.25    -999.25   -0.00710    2.65390    0.01530    0.03130   69.23640   10.03320
 14000.00000   35.72200   25.05880 -120.08530   60.69870    -999.25    -999.25   -0.00050    2.67110    0.02340    0.01790   55.84420    9.95670
 14050.00000   26.70670   23.47640 -109.81330   46.98560    -999.25    -999.25    0.01860    2.69610    0.00320    0.01460   55.18750    9.96540
 14100.00000   39.10430   27.50660 -146.41850   74.82580    -999.25    -999.25    0.00900    2.67980    0.02010    0.01120   56.85850    9.97940
 14150.00000   27.22040   23.13160 -148.91110   74.18810    -999.25    -999.25    0.00670    2.67170    0.01950    0.00680   48.85170   10.16710
 14200.00000   28.44070   26.65390 -150.43060   72.00120    -999.25    -999.25    0.01560    2.69140    0.00630    0.00370   46.10430   10.24620
 14250.00000   28.46060   24.91610 -177.13870   74.00680    -999.25    -999.25   -0.00010    2.67410    0.01250    0.00590   47.74020   10.23700
