~Version ---------------------------------------------------
VERS. 2.0 : CWLS log ASCII Standard -VERSION 2.0
WRAP.  NO : ONE LINE PER DEPTH STEP
~Well ------------------------------------------------------
STRT.FT                           3600.0 : START DEPTH
STOP.FT                           8150.0 : STOP DEPTH
STEP.FT                         50.00000 : STEP LENGTH
NULL.                            -999.25 : NULL VALUE
COMP. SANTA FE-WINDSOR PRODUCING COMPANY : COMPANY
WELL.                     HIELSCHER #2-A : WELL
FLD .                           GIDDINGS : FIELD
LOC .                                    : LOCATION
CNTY.                                LEE : COUNTY
STAT.                              TEXAS : STATE
CTRY.           UNITED STATES OF AMERICA : COUNTRY
SRVC.                       Schlumberger : SERVICE COMPANY
DATE.                        18-Dec-1983 : LOGDATE
API .                     42287315320000 : API NUMBER
UWI .                     42287315320000 : UNIQUE WELL ID
SLAT.WGS84                 30.0540398572 : SURFACE LATITUDE
SLON.WGS84                -97.0154916592 : SURFACE LONGITUDE
~Curve Information -----------------------------------------
DEPT  .FT    : DEPTH FEET
GRRED .GAPI  : GAMMA RAY FROM RESISTIVITY LOG
NEUTED.CU    : NEUTRON FROM NEUTRON LOG [DEPTH ADJ TO RES LOG]
SPRED .MV    : SPONTANEOUS POTENTIAL FROM RESISTIVITY LOG
ILDED .OHMM  : INDUCTION LOG DEEP RESISTIVITY
ILMED .OHMM  : INDUCTION LOG MEDIUM RESISTIVITY
SFLUED.OHMM  : SPHERICALLY FOCUSED LOG RESISTIVITY
DCALED.IN    : DIFFERENTIAL CALIPER FROM DENSITY LOG
TENRED.LBF   : TENSION FROM RESISTIVITY LOG
DTED  .US/F  : DELTA TIME FROM SONIC LOG [DEPTH ADJ TO RES LOG]
GRWS  .GAPI  : GAMMA RAY [GRRED]
SPWS  .MV    : SPONTANEOUS POTENTIAL [BASELINE 0 MV] [SPRED]
GRNED .GAPI  : GAMMA RAY FROM NEUTRON LOG [DEPTH ADJ TO RES LOG]
CALWS .IN    : CALIPER [DCALED+BIT]
DRESWS.OHMM  : DEEP RESISTIVITY [ILDED]
MRESWS.OHMM  : MEDIUM RESISTIVITY [ILMED]
SRESWS.OHMM  : SHALLOW RESISTIVITY [SFLUED]
CONDWS.MMHO  : CONDUCTIVITY [1000/DRESWS]
DTWS  .US/F  : DELTA TIME [DTED]
NEUTWS.CU    : NEUTRON [NEUTED]
~Params ----------------------------------------------------
PD  .                     GL : PERMANENT DATUM
EPD .FT                  342 : ELEVATION PERMANENT DATUM
LMF .                     KB : LOG MEASURED FROM
DAPD.FT                   21 : FEET ABOVE PERMANENT DATUM
DMF .                     KB : DRILLING MEASURED FROM
EKB .FT                  363 : KELLY BUSHING
EDF .FT                  362 : DRILLING FLOOR
EGL .FT                  342 : GROUND LEVEL
DATE.               12/18/83 : RUN DATE
RUN .                      1 : RUN NUMBER
DD  .FT                 8195 : DEPTH DRILLER
DL  .FT                 8202 : DEPTH LOGGER
BLI .FT                 8196 : BOTTOM LOG INTERVAL
TLI .FT                 3611 : TOP LOG INTERVAL
CS  .IN                9.875 : CASING SIZE
CBD .FT                 3612 : CASING BOTTOM DRILLER
CBL .FT                 3611 : CASING BOTTOM LOGGER
BS  .IN                 8.75 : BIT SIZE
BSD .FT                 8195 : BIT SIZE AT DEPTH
DFT .                    LSN : DRILLING FLUID TYPE
DFD .                    9.4 : DRILLING FLUID DENSITY
DFV .                     35 : DRILLING FLUID VISCOSITY
DFPH.                    9.5 : DRILLING FLUID PH
DFL .                      8 : DRILLING FLUID LOSS
MSS .                   TANK : MUD SAMPLE SOURCE
RMS .OHMM               1.63 : RESISTIVITY MUD SAMPLE
MST .DEGF                 85 : MUD SAMPLE TEMPERATURE
RMF .OHMM               1.22 : RESISTIVITY MUD FILTRATE SAMPLE
MFST.DEGF                 85 : MUD FILTRATE SAMPLE TEMPERATURE
RMC .OHMM               2.45 : RESISTIVITY MUD CAKE
MCST.DEGF                 85 : MUD CAKE SAMPLE TEMPERATURE
MFSS.                      C : MUD FILTRATE SAMPLE SOURCE
MCSS.                      C : MUD CAKE SAMPLE SOURCE
RMB .OHMM              0.823 : RESISTIVITY MUD AT BHT
TCS .HRS                 500 : TIME CIRCULATED STOPPED
TLAB.HRS                1000 : TIME LOGGER AT BOTTOM
LUN .                   8227 : LOGGING UNIT NUMBER
LUL .                BRENHAM : LOGGING UNIT LOCATION
ENGI.               BERBINIS : RECORDING ENGINEER
WITN.                  IRVIN : WITNESSED BY
CLNT.                A2DTECH : CLIENT CODE
ORIG.            2" 5" PRINT : ORIGIN OF DATA
UWI .         42287315320000 : UNIQUE WELL ID
DICO. A2D Technologies, Inc. : DIGITIZING COMPANY
OS  .                        : OTHER SERVICES
PWI .                        : PRIMARY WELL IDENTIFIER
R1  .                        : REMARKS 1
R2  .                        : REMARKS 2
LSRV.                        : LOG MNEMONIC
~Other -----------------------------------------------------
~ASCII -----------------------------------------------------
 3600.00000    -999.25    -999.25    -999.25    -999.25    -999.25    -999.25    -999.25    -999.25    -999.25    -999.25    -999.25    -999.25    -999.25    -999.25    -999.25    -999.25    -999.25    -999.25    -999.25
 3650.00000   44.53010    -999.25  -78.61870    3.18410    4.61470    7.97290    4.37420 2560.81880  111.03860   44.53010  -53.08820    -999.25   13.12420    3.18410    4.61470    7.97290  314.06050  111.03860    -999.25
 3700.00000   49.05250    -999.25  -79.85050    3.26790    4.64730    9.34330    3.85410 2543.29830  108.42740   49.05250  -53.97970    -999.25   12.60410    3.26790    4.64730    9.34330  306.00690  108.42740    -999.25
 3750.00000   73.63100    -999.25  -41.22840    3.94250    4.20430    5.05540    4.10030 2558.10620   88.77020   73.63100  -15.51580    -999.25   12.85030    3.94250    4.20430    5.05540  253.64610   88.77020    -999.25
 3800.00000   55.14140    -999.25  -83.39800    3.10030    4.92750    9.49970    3.02500 2558.58500  104.25680   55.14140  -59.16730    -999.25   11.77500    3.10030    4.92750    9.49970  322.54940  104.25680    -999.25
 3850.00000   50.32240    -999.25  -81.72340    3.32300    5.13120   10.26130    3.25480 2528.63230  102.09840   50.32240  -58.97450    -999.25   12.00480    3.32300    5.13120   10.26130  300.93290  102.09840    -999.25
 3900.00000   55.98310    -999.25  -62.33950    3.58220    5.16000    9.71800    2.95690 2548.93430  104.00210   55.98310  -41.07250    -999.25   11.70690    3.58220    5.16000    9.71800  279.15810  104.00210    -999.25
 3950.00000   56.60130    -999.25  -68.57250    2.80650    4.08850    7.69990    3.01910 2559.66650   98.79590   56.60130  -48.78740    -999.25   11.76910    2.80650    4.08850    7.69990  356.31570   98.79590    -999.25
 4000.00000   36.56970    -999.25  -76.10920    2.48200    3.65500    7.39350    2.67110 2559.31250  102.76250   36.56970  -57.80590    -999.25   11.42110    2.48200    3.65500    7.39350  402.90090  102.76250    -999.25
 4050.00000   39.14940    -999.25  -20.31870    3.80290    4.58250    4.84290    5.14700 2548.53710  149.48110   39.14940   -3.49730    -999.25   13.89700    3.80290    4.58250    4.84290  262.95720  149.48110    -999.25
 4100.00000   55.29620    -999.25  -66.19020    3.77920    5.16870    8.56870    1.73650 2551.39550   99.11970   55.29620  -44.92830    -999.25   10.48650    3.77920    5.16870    8.56870  264.60630   99.11970    -999.25
 4150.00000   38.80590    -999.25  -59.99390    3.96970    5.63030   11.25870    1.78420 2584.41800  116.12400   38.80590  -39.52370    -999.25   10.53420    3.96970    5.63030   11.25870  251.90820  116.12400    -999.25
 4200.00000   53.04340    -999.25  -25.28850    6.46390    6.93940    7.96000    5.18910 2560.98490  124.49920   53.04340   -7.11970    -999.25   13.93910    6.46390    6.93940    7.96000  154.70540  124.49920    -999.25
 4250.00000   67.60380    -999.25  -19.80990    2.39920    2.47620    2.82990    3.84290 2530.93160   98.05830   67.60380   -2.11510    -999.25   12.59290    2.39920    2.47620    2.82990  416.80560   98.05830    -999.25
 4300.00000   44.51020    -999.25  -88.37450    2.97570    4.90730   10.86410    2.35300 2572.28100  104.17230   44.51020  -65.98560    -999.25   11.10300    2.97570    4.90730   10.86410  336.05540  104.17230    -999.25
 4350.00000   50.11760    -999.25  -68.37850    2.59780    3.34130    8.07370    2.18870 2534.82450   96.35150   50.11760  -46.13050    -999.25   10.93870    2.59780    3.34130    8.07370  384.94110   96.35150    -999.25
 4400.00000   65.38480    -999.25  -63.37980    2.54550    3.38480    4.39330    3.38010 2584.49730  111.39830   65.38480  -41.27260    -999.25   12.13010    2.54550    3.38480    4.39330  392.85010  111.39830    -999.25
 4450.00000   48.67160    -999.25  -75.54650    3.62940    5.75190   11.53830    1.82880 2554.99410   96.06670   48.67160  -53.58010    -999.25   10.57880    3.62940    5.75190   11.53830  275.52760   96.06670    -999.25
 4500.00000   55.58910    -999.25  -30.31320    3.79190    4.10000    5.22170    5.24910 2548.45800   85.47360   55.58910   -8.48760    -999.25   13.99910    3.79190    4.10000    5.22170  263.72000   85.47360    -999.25
 4550.00000   68.97100    -999.25  -27.96690    2.80580    3.02020    3.63850    4.81220 2534.63260   96.22190   68.97100   -6.75120    -999.25   13.56220    2.80580    3.02020    3.63850  356.40460   96.22190    -999.25
 4600.00000   59.85600    -999.25  -67.10760    2.50280    3.80700   10.08410    1.41510 2562.00560   96.00630   59.85600  -48.11160    -999.25   10.16510    2.50280    3.80700   10.08410  399.55250   96.00630    -999.25
 4650.00000   76.71300    -999.25  -20.31070    2.24440    2.38760    2.32250    5.37000 2501.40310  105.53050   76.71300   -3.77890    -999.25   14.12000    2.24440    2.38760    2.32250  445.55340  105.53050    -999.25
 4700.00000   60.91500    -999.25  -32.21210    2.70430    2.94460    3.22750    5.74930 2544.66500   98.72980   60.91500  -16.40790    -999.25   14.49930    2.70430    2.94460    3.22750  369.78150   98.72980    -999.25
 4750.00000   74.46340    -999.25  -19.57760    2.65600    2.72900    3.01520    3.98400 2529.05620  101.05240   74.46340   -4.42150    -999.25   12.73400    2.65600    2.72900    3.01520  376.50600  101.05240    -999.25
 4800.00000   57.29930    -999.25  -19.28450    2.68690    2.76110    2.89810    5.59210 2526.70140   94.82480   57.29930   -5.26300    -999.25   14.34210    2.68690    2.76110    2.89810  372.17610   94.82480    -999.25
 4850.00000   69.64690    -999.25  -19.52260    2.55830    2.65710    2.96710    3.03920 2566.26710   93.35180   69.64690   -6.63570    -999.25   11.78920    2.55830    2.65710    2.96710  390.88460   93.35180    -999.25
 4900.00000   57.01300    -999.25  -16.66070    2.67330    2.74640    2.99960    4.73410 2566.83400   92.83090   57.01300   -4.90840    -999.25   13.48410    2.67330    2.74640    2.99960  374.06950   92.83090    -999.25
 4950.00000   81.57010    -999.25  -12.79960    2.45940    2.53250    2.61560    2.61860 2529.79540   96.51750   81.57010   -2.18190    -999.25   11.36860    2.45940    2.53250    2.61560  406.60320   96.51750    -999.25
 5000.00000   80.34730    -999.25  -11.24240    2.53410    2.60440    2.95520    1.83640 2535.87960   90.71240   80.34730   -1.70850    -999.25   10.58640    2.53410    2.60440    2.95520  394.61740   90.71240    -999.25
 5050.00000   79.87040    -999.25  -10.06810    2.26880    2.33340    2.61530    1.52050 2506.56710   91.42820   79.87040   -0.82140    -999.25   10.27050    2.26880    2.33340    2.61530  440.76160   91.42820    -999.25
 5100.00000   81.51430    -999.25  -10.20190    1.81390    1.86370    2.11050    1.79960 2568.26950   99.08620   81.51430   -1.24250    -999.25   10.54960    1.81390    1.86370    2.11050  551.29830   99.08620    -999.25
 5150.00000   86.02940    -999.25  -10.31090    1.50660    1.54790    1.83290    1.88620 2524.92430  101.69980   86.02940   -1.63870    -999.25   10.63620    1.50660    1.54790    1.83290  663.74620  101.69980    -999.25
 5200.00000   85.54470    -999.25   -9.80440    1.55420    1.59690    1.83780    1.70410 2519.26660  100.14410   85.54470   -1.41950    -999.25   10.45410    1.55420    1.59690    1.83780  643.41780  100.14410    -999.25
 5250.00000   83.63560    -999.25  -10.28230    1.55830    1.61120    1.84130    1.52090 2493.36990   99.74340   83.63560   -2.20410    -999.25   10.27090    1.55830    1.61120    1.84130  641.72500   99.74340    -999.25
 5300.00000   81.51130    -999.25   -9.89230    1.36320    1.40070    1.69520    1.26560 2530.94170  102.72650   81.51130   -2.42660    -999.25   10.01560    1.36320    1.40070    1.69520  733.56810  102.72650    -999.25
 5350.00000   93.11710    -999.25  -10.24740    1.25470    1.28910    1.58030    1.83710 2537.13380  107.74390   93.11710   -3.39420    -999.25   10.58710    1.25470    1.28910    1.58030  797.00330  107.74390    -999.25
 5400.00000   90.44610    -999.25   -8.41540    1.17860    1.21120    1.47100    1.13250 2555.87790  103.71740   90.44610   -2.17470    -999.25    9.88250    1.17860    1.21120    1.47100  848.46430  103.71740    -999.25
