~Version ---------------------------------------------------
VERS. 2.0 : CWLS log ASCII Standard -VERSION 2.0
WRAP. YES : MULTIPLE LINES PER DEPTH STEP
~Well ------------------------------------------------------
STRT.FT                  550.0 : START DEPTH
STOP.FT                 4850.0 : STOP DEPTH
STEP.FT               50.00000 : STEP LENGTH
NULL.                  -999.25 : NULL VALUE
COMP.      KAISER OIL USA LTD. : COMPANY
WELL.     CONNELLY JOHN B. #1A : WELL
FLD .                       WC : FIELD
LOC .                          : LOCATION
CNTY.                   WILSON : COUNTY
STAT.                    TEXAS : STATE
CTRY. UNITED STATES OF AMERICA : COUNTRY
SRVC.             Schlumberger : SERVICE COMPANY
DATE.              01-May-1982 : LOGDATE
API .           42493311060000 : API NUMBER
UWI .           42493311060000 : UNIQUE WELL ID
SLAT.WGS84       29.1269044783 : SURFACE LATITUDE
SLON.WGS84      -98.3133795575 : SURFACE LONGITUDE
~Curve Information -----------------------------------------
DEPT    .FT    : DEPTH FEET
CALWS   .IN    : CALIPER [DCALRED+8.875]
CONDWS  .MMHO  : CONDUCTIVITY [1000/DRESWS]
DCALRED .IN    : DIFFERENTIAL CALIPER FROM RESISTIVITY LOG
DCORWS  .G/C3  : DENSITY CORRECTION [DRHOED]
DENWS   .G/C3  : BULK DENSITY [CALCULATED FROM DPOWS][M=2.65 F=1.0]<4150>[M=2.71 F=1.0]
DPHILSED.V/V   : DENSITY POROSITY [M=2.71 F=1.0] FROM IDN LOG
DPHISSED.V/V   : DENSITY POROSITY [M=2.65 F=1.0] FROM IDN LOG
DPOWS   .V/V   : DENSITY POROSITY [M=2.65 F=1.0][DPHISSED]<4150>[M=2.71 F=1.0] [DPHILSED]
DRESWS  .OHMM  : DEEP RESISTIVITY [ILDED]
DRHOED  .G/C3  : DENSITY CORRECTION FROM IDN LOG
GRRED   .GAPI  : GAMMA RAY FROM RESISTIVITY LOG
GRWS    .GAPI  : GAMMA RAY [GRRED]
ILDED   .OHMM  : INDUCTION LOG DEEP RESISTIVITY
ILMED   .OHMM  : INDUCTION LOG MEDIUM RESISTIVITY
MRESWS  .OHMM  : MEDIUM RESISTIVITY [ILMED]
NPHILSED.V/V   : NEUTRON POROSITY LIMESTONE FROM IDN LOG
NPHISSED.V/V   : NEUTRON POROSITY SANDSTONE FROM IDN LOG
NPOWS   .V/V   : NEUTRON POROSITY SANDSTONE [NPHISSED]<4150>[NPHILSED]
SFLUED  .OHMM  : SPHERICALLY FOCUSED LOG RESISTIVITY
SPRED   .MV    : SPONTANEOUS POTENTIAL FROM RESISTIVITY LOG
SPWS    .MV    : SPONTANEOUS POTENTIAL [BASELINE 0 MV] [SPRED]
SRESWS  .OHMM  : SHALLOW RESISTIVITY [SFLUED]
TENRED  .LBF   : TENSION FROM RESISTIVITY LOG
~Params ----------------------------------------------------
PD  .                     GL : PERMANENT DATUM
EPD .FT                  551 : ELEVATION PERMANENT DATUM
LMF .                     KB : LOG MEASURED FROM
DAPD.FT                   10 : FEET ABOVE PERMANENT DATUM
DMF .                     KB : DRILLING MEASURED FROM
EKB .FT                  561 : KELLY BUSHING
EDF .FT                  560 : DRILLING FLOOR
EGL .FT                  551 : GROUND LEVEL
DATE.               05/01/82 : RUN DATE
RUN .                      1 : RUN NUMBER
DD  .FT                 4859 : DEPTH DRILLER
DL  .FT                 4856 : DEPTH LOGGER
BLI .FT                 4850 : BOTTOM LOG INTERVAL
TLI .FT                  510 : TOP LOG INTERVAL
CS  .IN                8.875 : CASING SIZE
CBD .FT                  500 : CASING BOTTOM DRILLER
CBL .FT                  510 : CASING BOTTOM LOGGER
BS  .IN                7.375 : BIT SIZE
BSD .FT                 4859 : BIT SIZE AT DEPTH
DFT .               LIG SULF : DRILLING FLUID TYPE
DFD .                    9.6 : DRILLING FLUID DENSITY
DFV .                     45 : DRILLING FLUID VISCOSITY
DFPH.                    8.6 : DRILLING FLUID PH
DFL .                    5.4 : DRILLING FLUID LOSS
MSS .                    PIT : MUD SAMPLE SOURCE
RMS .OHMM               1.01 : RESISTIVITY MUD SAMPLE
MST .DEGF                 75 : MUD SAMPLE TEMPERATURE
RMF .OHMM               0.96 : RESISTIVITY MUD FILTRATE SAMPLE
MFST.DEGF                 75 : MUD FILTRATE SAMPLE TEMPERATURE
RMC .OHMM                  2 : RESISTIVITY MUD CAKE
MCST.DEGF                 75 : MUD CAKE SAMPLE TEMPERATURE
MFSS.                    CAL : MUD FILTRATE SAMPLE SOURCE
MCSS.                    CAL : MUD CAKE SAMPLE SOURCE
RMB .OHMM              0.583 : RESISTIVITY MUD AT BHT
TCS .HRS                 100 : TIME CIRCULATED STOPPED
TLAB.HRS                 500 : TIME LOGGER AT BOTTOM
LUN .                   8258 : LOGGING UNIT NUMBER
LUL .             PLEASANTON : LOGGING UNIT LOCATION
ENGI.        HILTON COMSTOCK : RECORDING ENGINEER
WITN.                 PAVONA : WITNESSED BY
CLNT.                A2DTECH : CLIENT CODE
ORIG.               5" PRINT : ORIGIN OF DATA
UWI .         42493311060000 : UNIQUE WELL ID
DICO. A2D Technologies, Inc. : DIGITIZING COMPANY
~Other -----------------------------------------------------
~ASCII -----------------------------------------------------
# ...
 2100.00000    9.01320  247.56770    0.13820    0.08140    2.06360    -999.25    0.35540    0.35540    4.03930    0.08140   85.63780   85.63780    4.03930    4.15840    4.15840    -999.25    0.52180    0.52180    2.38680  -49.29740   -4.32670    2.38680 1355.62650
 2150.00000    9.05280  134.35080    0.17780    0.02380    2.07630    -999.25    0.34770    0.34770    7.44320    0.02380   68.53160   68.53160    7.44320    7.73830    7.73830    -999.25    0.42540    0.42540    6.99250  -56.76800  -13.17620    6.99250 1381.21020
 2200.00000    8.83810   94.82360   -0.03690    0.00970    2.04630    -999.25    0.36590    0.36590   10.54590    0.00970   44.19890   44.19890   10.54590   11.17980   11.17980    -999.25    0.42140    0.42140   11.55340  -56.85130  -14.63840   11.55340 1408.86600
 2250.00000    8.58610  108.69090   -0.28890    0.01470    2.09510    -999.25    0.33630    0.33630    9.20040    0.01470   47.35830   47.35830    9.20040    9.87360    9.87360    -999.25    0.39130    0.39130    8.05040  -54.56650  -13.73240    8.05040 1403.18750
 2300.00000    8.68080  158.84870   -0.19420    0.00760    2.05810    -999.25    0.35870    0.35870    6.29530    0.00760   57.74270   57.74270    6.29530    7.51140    7.51140    -999.25    0.42610    0.42610   12.85060  -51.97010  -12.51490   12.85060 1433.58470
 2350.00000    8.56750  118.21450   -0.30750    0.02600    2.06510    -999.25    0.35450    0.35450    8.45920    0.02600   49.70790   49.70790    8.45920    9.39550    9.39550    -999.25    0.40960    0.40960   10.34960  -52.73370  -14.65740   10.34960 1440.31370
 2400.00000    8.99160  240.00380    0.11660    0.01460    2.15980    -999.25    0.29710    0.29710    4.16660    0.01460   95.00550   95.00550    4.16660    4.48510    4.48510    -999.25    0.41860    0.41860    4.37250  -42.89360   -6.19620    4.37250 1504.74320
 2450.00000    9.51870  351.28390    0.64370    0.05100    2.14610    -999.25    0.30540    0.30540    2.84670    0.05100   97.70360   97.70360    2.84670    3.03270    3.03270    -999.25    0.49820    0.49820    2.45660  -41.69160   -6.37300    2.45660 1483.55000
 2500.00000    8.89680  289.14270    0.02180    0.03390    2.16060    -999.25    0.29660    0.29660    3.45850    0.03390   95.58230   95.58230    3.45850    3.64720    3.64720    -999.25    0.42890    0.42890    3.59460  -48.05070  -14.11100    3.59460 1502.91850
 2550.00000    9.23130  332.83410    0.35630    0.05900    2.25280    -999.25    0.24070    0.24070    3.00450    0.05900  110.41940  110.41940    3.00450    3.29540    3.29540    -999.25    0.41740    0.41740    3.22170  -39.00770   -6.44690    3.22170 1508.44750
 2600.00000    9.18360  368.48700    0.30860    0.09440    2.26620    -999.25    0.23260    0.23260    2.71380    0.09440  107.33860  107.33860    2.71380    2.85230    2.85230    -999.25    0.45800    0.45800    2.37730  -36.62620   -5.44420    2.37730 1511.48170
 2650.00000    8.99580  418.00780    0.12080    0.09910    2.25140    -999.25    0.24160    0.24160    2.39230    0.09910  105.19450  105.19450    2.39230    2.54750    2.54750    -999.25    0.44710    0.44710    2.42670  -36.02380   -6.22070    2.42670 1587.61230
 2700.00000    9.84760  360.11380    0.97260    0.09240    2.27310    -999.25    0.22840    0.22840    2.77690    0.09240  106.85920  106.85920    2.77690    2.86210    2.86210    -999.25    0.43240    0.43240    2.51670  -36.10900   -7.68480    2.51670 1570.07960
 2750.00000    9.71040  499.87500    0.83540    -999.25    -999.25    -999.25    -999.25    -999.25    2.00050    -999.25  109.27070  109.27070    2.00050    2.12010    2.12010    -999.25    -999.25    -999.25    1.93570  -32.91130   -5.86600    1.93570 1594.18680
 2800.00000    9.48910  511.79690    0.61410    -999.25    -999.25    -999.25    -999.25    -999.25    1.95390    -999.25  106.07070  106.07070    1.95390    2.02510    2.02510    -999.25    -999.25    -999.25    1.97880  -31.43030   -5.40350    1.97880 1594.01050
 2850.00000    8.91760  632.31110    0.04260    -999.25    -999.25    -999.25    -999.25    -999.25    1.58150    -999.25  107.38200  107.38200    1.58150    1.71760    1.71760    -999.25    -999.25    -999.25    1.67570  -29.70070   -4.44190    1.67570 1614.55740
 2900.00000    9.88860  623.28590    1.01360    -999.25    -999.25    -999.25    -999.25    -999.25    1.60440    -999.25  107.77340  107.77340    1.60440    1.71400    1.71400    -999.25    -999.25    -999.25    1.67760  -27.40840   -2.91770    1.67760 1738.77610
 2950.00000   10.44380  695.07200    1.56880    -999.25    -999.25    -999.25    -999.25    -999.25    1.43870    -999.25  103.48390  103.48390    1.43870    1.60200    1.60200    -999.25    -999.25    -999.25    1.56890  -28.52440   -4.80170    1.56890 1644.43090
 3000.00000   10.25130  720.20170    1.37630    -999.25    -999.25    -999.25    -999.25    -999.25    1.38850    -999.25  105.03980  105.03980    1.38850    1.55500    1.55500    -999.25    -999.25    -999.25    1.52290  -28.25790   -5.30330    1.52290 1683.37230
 3050.00000   10.20750  633.31220    1.33250    -999.25    -999.25    -999.25    -999.25    -999.25    1.57900    -999.25  115.66600  115.66600    1.57900    1.71060    1.71060    -999.25    -999.25    -999.25    1.75820  -29.97480   -7.78820    1.75820 1701.93850
 3100.00000    9.31840  434.76370    0.44340    -999.25    -999.25    -999.25    -999.25    -999.25    2.30010    -999.25   84.94990   84.94990    2.30010    2.79100    2.79100    -999.25    -999.25    -999.25    3.04380  -26.42400   -5.00550    3.04380 1702.88820
 3150.00000    8.91670  488.87800    0.04170    -999.25    -999.25    -999.25    -999.25    -999.25    2.04550    -999.25   87.39480   87.39480    2.04550    2.21800    2.21800    -999.25    -999.25    -999.25    2.25520  -31.88860  -11.23810    2.25520 1742.25540
 3200.00000    9.63450  550.99450    0.75950    -999.25    -999.25    -999.25    -999.25    -999.25    1.81490    -999.25   90.79140   90.79140    1.81490    1.96750    1.96750    -999.25    -999.25    -999.25    1.90680  -30.64710  -10.76470    1.90680 1739.57690
 3250.00000    9.44830  435.12320    0.57330    -999.25    -999.25    -999.25    -999.25    -999.25    2.29820    -999.25   84.52800   84.52800    2.29820    2.49930    2.49930    -999.25    -999.25    -999.25    2.45760  -29.55390  -10.43950    2.45760 1817.56710
 3300.00000    9.45720  750.07500    0.58220    -999.25    -999.25    -999.25    -999.25    -999.25    1.33320    -999.25   91.90410   91.90410    1.33320    1.44820    1.44820    -999.25    -999.25    -999.25    1.36580  -25.95030   -7.60400    1.36580 1781.47630
 3350.00000    8.92940  555.33960    0.05440    -999.25    -999.25    -999.25    -999.25    -999.25    1.80070    -999.25   85.60990   85.60990    1.80070    2.23370    2.23370    -999.25    -999.25    -999.25    2.74550  -25.78440   -8.20610    2.74550 1781.88870
 3400.00000    9.00190  415.76580    0.12690    0.08360    2.41600    -999.25    0.14180    0.14180    2.40520    0.08360   84.64210   84.64210    2.40520    2.71470    2.71470    -999.25    0.36280    0.36280    2.97970  -27.36110  -10.55090    2.97970 1793.83350
 3450.00000    8.80080  515.41080   -0.07420    0.09290    2.33300    -999.25    0.19210    0.19210    1.94020    0.09290   90.44540   90.44540    1.94020    2.14620    2.14620    -999.25    0.40300    0.40300    2.00260  -24.33720   -8.29500    2.00260 1782.13160
 3500.00000    9.47340  495.90880    0.59840    0.01710    2.35990    -999.25    0.17580    0.17580    2.01650    0.01710   89.09240   89.09240    2.01650    2.20580    2.20580    -999.25    0.40180    0.40180    2.13510  -23.14260   -7.86850    2.13510 1841.55590
 3550.00000   10.34520  560.12990    1.47020    0.01870    2.35750    -999.25    0.17730    0.17730    1.78530    0.01870   92.01870   92.01870    1.78530    1.95080    1.95080    -999.25    0.40740    0.40740    1.93370  -20.17430   -5.66820    1.93370 1837.39990
 3600.00000    9.71750  510.82960    0.84250    0.03900    2.38040    -999.25    0.16340    0.16340    1.95760    0.03900   91.87500   91.87500    1.95760    2.18900    2.18900    -999.25    0.40260    0.40260    1.99180  -22.74850   -9.01050    1.99180 1851.54050
