~Version ---------------------------------------------------
VERS. 2.0 : CWLS log ASCII Standard -VERSION 2.0
WRAP. YES : MULTIPLE LINES PER DEPTH STEP
~Well ------------------------------------------------------
STRT.FT                   2500.0 : START DEPTH
STOP.FT                  13000.0 : STOP DEPTH
STEP.FT                 50.00000 : STEP LENGTH
NULL.                    -999.25 : NULL VALUE
COMP. DORCHESTER EXPLORATION INC : COMPANY
WELL.      S. C. WILSON ET AL #1 : WELL
FLD .                    WILDCAT : FIELD
LOC .                            : LOCATION
CNTY.                    MADISON : COUNTY
STAT.                      TEXAS : STATE
CTRY.   UNITED STATES OF AMERICA : COUNTRY
SRVC.                            : SERVICE COMPANY
DATE.                            : LOGDATE
API .             42313302910000 : API NUMBER
UWI .             42313302910000 : UNIQUE WELL ID
SLAT.WGS84          30.919898434 : SURFACE LATITUDE
SLON.WGS84        -95.6430029646 : SURFACE LONGITUDE
~Curve Information -----------------------------------------
DEPT    .FT    : DEPTH FEET
CALDED  .IN    : CALIPER FROM DENSITY LOG
CALWS   .IN    : CALIPER [CALDED]
CONDWS  .MMHO  : CONDUCTIVITY [1000/DRESWS]
DCORWS  .G/C3  : DENSITY CORRECTION [DRHOED]
DENWS   .G/C3  : BULK DENSITY [M=2.71 F=1.0] [CALCULATED FROM DPHILSED]
DPHILSED.V/V   : DENSITY POROSITY LIMESTONE FROM DENSITY LOG
DPOWS   .V/V   : DENSITY POROSITY [M=2.71 F=1.0] [DPHILSED]
DRESWS  .OHMM  : DEEP RESISTIVITY [ILDED]
DRHOED  .G/C3  : DENSITY CORRECTION FROM DENSITY LOG
DTED    .US/F  : DELTA TIME FROM SONIC LOG
DTWS    .US/F  : DELTA TIME [DTED]
GRDED   .GAPI  : GAMMA RAY FROM DENSITY LOG
GRWS    .GAPI  : GAMMA RAY [GRDED]
ILDED   .OHMM  : INDUCTION LOG DEEP RESISTIVITY
ILMED   .OHMM  : INDUCTION LOG MEDIUM RESISTIVITY
MRESWS  .OHMM  : MEDIUM RESISTIVITY [ILMED]
NPHILSED.V/V   : NEUTRON POROSITY LIMESTONE FROM DENSITY LOG
NPOWS   .V/V   : NEUTRON POROSITY LIMESTONE [NPHILSED]
RHOBED  .G/C3  : BULK DENSITY FROM DENSITY LOG [NOT USED FOR WSR]
SFLUED  .OHMM  : SPHERICALLY FOCUSED LOG RESISTIVITY
SPRED   .MV    : SPONTANEOUS POTENTIAL FROM RESISTIVITY LOG
SPWS    .MV    : SPONTANEOUS POTENTIAL [BASELINE 0 MV] [SPRED]
SRESWS  .OHMM  : SHALLOW RESISTIVITY [SFLUED]
TENDED  .LBF   : TENSION FROM DENSITY LOG
TENRED  .LBF   : TENSION FROM RESISTIVITY LOG
~Params ----------------------------------------------------
PD  .                     GL : PERMANENT DATUM
EPD .FT                  154 : ELEVATION PERMANENT DATUM
LMF .                    RKB : LOG MEASURED FROM
DAPD.FT                22.75 : FEET ABOVE PERMANENT DATUM
DMF .                     KB : DRILLING MEASURED FROM
EKB .FT               176.75 : KELLY BUSHING
EDF .FT               175.75 : DRILLING FLOOR
EGL .FT                  154 : GROUND LEVEL
DATE.               01/13/81 : RUN DATE
RUN .                      1 : RUN NUMBER
DD  .FT                13006 : DEPTH DRILLER
DL  .FT                12992 : DEPTH LOGGER
BLI .FT                12989 : BOTTOM LOG INTERVAL
TLI .FT                 2500 : TOP LOG INTERVAL
CS  .IN                9.625 : CASING SIZE
CBD .FT                 2505 : CASING BOTTOM DRILLER
CBL .FT                 2500 : CASING BOTTOM LOGGER
BS  .IN                 8.75 : BIT SIZE
BSD .FT                13006 : BIT SIZE AT DEPTH
DFT .                    LNS : DRILLING FLUID TYPE
DFD .                    9.9 : DRILLING FLUID DENSITY
DFV .                     76 : DRILLING FLUID VISCOSITY
DFPH.                    9.5 : DRILLING FLUID PH
DFL .                    2.4 : DRILLING FLUID LOSS
MSS .               FLOWLINE : MUD SAMPLE SOURCE
RMS .OHMM              0.806 : RESISTIVITY MUD SAMPLE
MST .DEGF                 75 : MUD SAMPLE TEMPERATURE
RMF .OHMM              0.638 : RESISTIVITY MUD FILTRATE SAMPLE
MFST.DEGF                 75 : MUD FILTRATE SAMPLE TEMPERATURE
RMC .OHMM               1.06 : RESISTIVITY MUD CAKE
MCST.DEGF                 75 : MUD CAKE SAMPLE TEMPERATURE
MFSS.                      M : MUD FILTRATE SAMPLE SOURCE
MCSS.                      C : MUD CAKE SAMPLE SOURCE
RMB .OHMM              0.244 : RESISTIVITY MUD AT BHT
TCS .HRS                1600 : TIME CIRCULATED STOPPED
TLAB.HRS                 200 : TIME LOGGER AT BOTTOM
LUN .                   8066 : LOGGING UNIT NUMBER
LUL .                 DAYTON : LOGGING UNIT LOCATION
ENGI.               HARFISON : RECORDING ENGINEER
WITN.                  CLARK : WITNESSED BY
CLNT.                A2DTECH : CLIENT CODE
ORIG.               5" PRINT : ORIGIN OF DATA
UWI .         42313302910000 : UNIQUE WELL ID
DICO. A2D Technologies, Inc. : DIGITIZING COMPANY
~Other -----------------------------------------------------
~ASCII -----------------------------------------------------
# ...
 9500.00000    -999.25    -999.25  371.12640    -999.25    -999.25    -999.25    -999.25    2.69450    -999.25    -999.25    -999.25    -999.25    -999.25    2.69450    2.64410    2.64410    -999.25    -999.25    -999.25    3.18470  -21.86630   -4.60190    3.18470    -999.25 4649.98290
 9550.00000    -999.25    -999.25  369.05820    -999.25    -999.25    -999.25    -999.25    2.70960    -999.25    -999.25    -999.25    -999.25    -999.25    2.70960    2.78320    2.78320    -999.25    -999.25    -999.25    3.20430  -20.63080   -3.57280    3.20430    -999.25 4492.24320
 9600.00000   21.56970   21.56970  413.14630    0.11970    2.59320    0.06830    0.06830    2.42040    0.11970   84.56980   84.56980   79.92960   79.92960    2.42040    2.46950    2.46950    0.21240    0.21240    2.59670    2.77220  -19.86590   -3.01440    2.77220 4356.59280 7268.09330
 9650.00000   21.53890   21.53890  364.61750    0.18280    2.54160    0.09850    0.09850    2.74260    0.18280   77.44830   77.44830   78.19550   78.19550    2.74260    2.35160    2.35160    0.20670    0.20670    2.56150    3.56680  -20.64980   -3.80240    3.56680 4407.90970 4369.18070
 9700.00000   12.83190   12.83190  180.51840    0.11500    2.72080   -0.00630   -0.00630    5.53960    0.11500   71.50610   71.50610   66.60040   66.60040    5.53960    5.59100    5.59100    0.13110    0.13110    2.73270    8.25890  -23.75620   -6.90880    8.25890 4451.53560 4377.97070
 9750.00000   11.14080   11.14080  119.37450    0.01640    2.69770    0.00720    0.00720    8.37700    0.01640   63.95960   63.95960   50.28420   50.28420    8.37700    8.08300    8.08300    0.06830    0.06830    2.70130   12.68370  -29.37060  -12.52320   12.68370 4500.59420 4392.94730
 9800.00000   11.07430   11.07430  123.72260   -0.03950    2.47540    0.13720    0.13720    8.08260   -0.03950   80.28410   80.28410   39.02540   39.02540    8.08260    7.26310    7.26310    0.09300    0.09300    2.47310    5.30360  -29.94360  -13.09620    5.30360 4532.03860 4431.44340
 9850.00000    9.96680    9.96680   38.88660    0.19960    2.61870    0.05340    0.05340   25.71580    0.19960   56.40500   56.40500   32.50630   32.50630   25.71580   29.06850   29.06850    0.04300    0.04300    2.59900   31.09570  -40.69280  -23.84540   31.09570 4520.92920 4468.66700
 9900.00000   13.31190   13.31190   42.40320    0.10530    2.05800    0.38130    0.38130   23.58310    0.10530   56.36100   56.36100   43.31000   43.31000   23.58310   16.12470   16.12470    0.07090    0.07090    2.01000   20.29680  -40.52870  -23.68130   20.29680 4540.10890 4500.27930
 9950.00000   10.68030   10.68030   71.47500    0.08220    2.50720    0.11860    0.11860   13.99090    0.08220   62.64440   62.64440   23.91960   23.91960   13.99090   13.02680   13.02680    0.03080    0.03080    2.51070   26.69490  -57.77230  -40.92490   26.69490 4721.85400 4521.23240
 10000.00000   12.59140   12.59140  234.67020    0.15440    2.28180    0.25040    0.25040    4.26130    0.15440   82.09230   82.09230   75.93730   75.93730    4.26130    3.72260    3.72260    0.23160    0.23160    2.34040    3.96320  -24.28140   -7.48000    3.96320 4556.37400 4495.89450
 10050.00000    9.05080    9.05080  119.20510    0.05410    2.53200    0.10410    0.10410    8.38890    0.05410   65.22140   65.22140   18.47650   18.47650    8.38890   12.41410   12.41410    0.04130    0.04130    2.53560   20.47440 -112.34380  -95.79800   20.47440 4516.38330 4507.80860
 10100.00000    9.32430    9.32430  118.32220    0.07140    2.55610    0.09000    0.09000    8.45150    0.07140   64.41640   64.41640   23.66160   23.66160    8.45150   10.53790   10.53790    0.04010    0.04010    2.55660   14.71420  -99.57090  -83.28060   14.71420 4604.97270 4548.99220
 10150.00000    9.80100    9.80100   48.46860    0.06950    2.59630    0.06650    0.06650   20.63190    0.06950   61.08440   61.08440   21.30970   21.30970   20.63190   22.76440   22.76440    0.01470    0.01470    2.60040   30.69200  -88.27440  -72.23970   30.69200 4538.14700 4539.35250
 10200.00000    9.93630    9.93630  169.02740    0.09940    2.58840    0.07110    0.07110    5.91620    0.09940   65.81330   65.81330   31.96870   31.96870    5.91620    6.82690    6.82690    0.07740    0.07740    2.59080    8.92960  -64.52700  -48.74790    8.92960 4647.42040 4581.78420
 10250.00000    9.46140    9.46140  210.35800    0.07120    2.56860    0.08270    0.08270    4.75380    0.07120   65.47180   65.47180   24.62230   24.62230    4.75380    5.20150    5.20150    0.03900    0.03900    2.56980    7.45510  -82.50700  -66.98340    7.45510 4650.66700 4597.42480
 10300.00000    9.31660    9.31660  152.38560    0.06470    2.64720    0.03670    0.03670    6.56230    0.06470   63.71070   63.71070   45.83850   45.83850    6.56230    9.39190    9.39190    0.07700    0.07700    2.65650   12.95110  -94.45470  -79.18670   12.95110 4656.12300 4587.56050
 10350.00000    8.72780    8.72780  329.15310    0.04690    2.45230    0.15070    0.15070    3.03810    0.04690   64.64780   64.64780   16.73640   16.73640    3.03810    5.01180    5.01180    0.07170    0.07170    2.45500   10.85530  -94.69660  -79.68420   10.85530 4627.55960 4611.42090
 10400.00000   21.29220   21.29220  639.83620   -0.04320    1.41620    0.75660    0.75660    1.56290   -0.04320  139.84980  139.84980   42.67850   42.67850    1.56290    0.93130    0.93130    0.48930    0.48930    1.42170    2.47910  -21.09180   -6.33500    2.47910 4767.74020 4634.32230
 10450.00000   21.02230   21.02230  386.90710   -0.04170    1.47690    0.72110    0.72110    2.58460   -0.04170  136.23110  136.23110   44.80910   44.80910    2.58460    1.25390    1.25390    0.51150    0.51150    1.49270    3.17410  -26.28810  -11.41020    3.17410 4622.59570 4658.57620
 10500.00000   19.73340   19.73340  281.64250   -0.00880    1.58050    0.66050    0.66050    3.55060   -0.00880  110.46110  110.46110   57.12780   57.12780    3.55060    1.69950    1.69950    0.42540    0.42540    1.58790    4.56320  -25.32830  -10.12640    4.56320 4686.20360 4683.83890
 10550.00000   21.27230   21.27230  478.92720   -0.04440    1.43740    0.74420    0.74420    2.08800   -0.04440  118.97810  118.97810   47.21760   47.21760    2.08800    1.23480    1.23480    0.49120    0.49120    1.45090    3.57410  -26.99710  -11.47130    3.57410 4669.84720 4668.78120
 10600.00000   21.23100   21.23100  226.07560    0.12290    2.15660    0.32360    0.32360    4.42330    0.12290   80.81400   80.81400   64.62220   64.62220    4.42330    3.06350    3.06350    0.36920    0.36920    2.14480    5.05580  -23.10030   -7.25060    5.05580 4698.28520 4677.25000
 10650.00000   21.62430   21.62430  315.41760    0.01210    1.72850    0.57400    0.57400    3.17040    0.01210   89.92570   89.92570   59.39770   59.39770    3.17040    1.73830    1.73830    0.40830    0.40830    1.73170    4.13850  -22.51700   -6.34340    4.13850 4683.84860 4708.58590
 10700.00000   21.55820   21.55820  338.30640    0.06710    1.89060    0.47920    0.47920    2.95590    0.06710   83.37040   83.37040   51.78680   51.78680    2.95590    2.05120    2.05120    0.39860    0.39860    2.01730    3.64630  -21.61300   -5.11540    3.64630 4700.37650 4599.27050
 10750.00000   21.49360   21.49360  365.76440    0.02100    1.73870    0.56800    0.56800    2.73400    0.02100   92.56450   92.56450   53.10920   53.10920    2.73400    1.60830    1.60830    0.41830    0.41830    1.73820    3.83050  -19.75160   -2.93010    3.83050 4747.41990 4809.96580
 10800.00000   21.63250   21.63250  533.39020    0.02030    1.72660    0.57510    0.57510    1.87480    0.02030  110.56790  110.56790   49.35180   49.35180    1.87480    1.16640    1.16640    0.45440    0.45440    1.68470    2.58640  -21.00410   -4.35730    2.58640 4720.09670 4806.75780
 10850.00000   21.65000   21.65000  542.00540    0.00990    1.64350    0.62370    0.62370    1.84500    0.00990  114.53030  114.53030   49.35290   49.35290    1.84500    1.17920    1.17920    0.51400    0.51400    1.64960    3.12250  -21.17340   -4.74460    3.12250 4750.55860 4814.41600
