~Version ---------------------------------------------------
VERS. 2.0 : CWLS log ASCII Standard -VERSION 2.0
WRAP. YES : MULTIPLE LINES PER DEPTH STEP
~Well ------------------------------------------------------
STRT.FT                  300.0 : START DEPTH
STOP.FT                14000.0 : STOP DEPTH
STEP.FT               50.00000 : STEP LENGTH
NULL.                  -999.25 : NULL VALUE
COMP.      MGF OIL CORPORATION : COMPANY
WELL.                 BOONE #1 : WELL
FLD .                  WILDCAT : FIELD
LOC .                          : LOCATION
CNTY.                      BEE : COUNTY
STAT.                    TEXAS : STATE
CTRY. UNITED STATES OF AMERICA : COUNTRY
SRVC.             Schlumberger : SERVICE COMPANY
DATE.              11-Feb-1976 : LOGDATE
API .           42025304380000 : API NUMBER
UWI .           42025304380000 : UNIQUE WELL ID
SLAT.WGS84       28.6868031711 : SURFACE LATITUDE
SLON.WGS84       -97.929230078 : SURFACE LONGITUDE
~Curve Information -----------------------------------------
DEPT    .FT    : DEPTH FEET
ALL8ED  .OHMM  : AMP. LATEROLOG 8
CALDED  .IN    : CALIPER FROM DENSITY LOG
CALSED  .IN    : CALIPER FROM SONIC LOG
CALWS   .IN    : CALIPER [CALDED]
CILDED  .MMHO  : CONDUCTIVITY FROM RESISTIVITY LOG
CONDWS  .MMHO  : CONDUCTIVITY [1000/DRESWS]
CORRED  .G/C3  : DENSITY CORRECTION FROM DENSITY LOG
DCORWS  .G/C3  : DENSITY CORRECTION [CORRED]
DENWS   .G/C3  : BULK DENSITY [M=2.65/2.71 FROM 13350-TD F=1.0] [RHOBED]
DPHILSED.V/V   : DENSITY POROSITY LIMESTONE FROM DENSITY LOG
DPHISSED.V/V   : DENSITY POROSITY SANDSTONE FROM DENSITY LOG
DPOWS   .V/V   : DENSITY POROSITY [M=2.65/2.71 FROM 13350-TD F=1.0] [CALCULATED FROM DENWS]
DRESWS  .OHMM  : DEEP RESISTIVITY [ILDED] FROM 3588 IF ILDED<1;1000/CILDED;ELSE ILDED
DTED    .US/F  : DELTA TIME FROM SONIC LOG [DEPTH ADJ TO ALL8]
DTWS    .US/F  : DELTA TIME [DTED]
GRDED   .GAPI  : GAMMA RAY FROM DENSITY LOG [DEPTH ADJ TO SPR]
GRSED   .GAPI  : GAMMA RAY FROM SONIC LOG
GRWS    .GAPI  : GAMMA RAY [GRDED]
ILDED   .OHMM  : INDUCTION LOG DEEP RESISTIVITY
NPHILSED.V/V   : NEUTRON POROSITY LIMESTONE FROM DENSITY LOG
NPHISSED.V/V   : NEUTRON POROSITY SANDSTONE FROM DENSITY LOG
NPOWS   .V/V   : NEUTRON POROSITY [MERGED NPHISSED/NPHILSED FROM 13350-TD]
RHOBED  .G/C3  : BULK DENSITY FROM DENSITY LOG
SPRED   .MV    : SPONTANEOUS POTENTIAL FROM RESISTIVITY LOG SHIFTED
SPWS    .MV    : SPONTANEOUS POTENTIAL [SHIFTED/BASELINE 0 MV] [SPRED]
SRESWS  .OHMM  : SHALLOW RESISTIVITY [ALL8ED]
~Params ----------------------------------------------------
PD  .                     GL : PERMANENT DATUM
EPD .FT                  503 : ELEVATION PERMANENT DATUM
LMF .                     KB : LOG MEASURED FROM
DAPD.FT                   21 : FEET ABOVE PERMANENT DATUM
DMF .                     KB : DRILLING MEASURED FROM
EKB .FT                  524 : KELLY BUSHING
EDF .FT                  523 : DRILLING FLOOR
EGL .FT                  503 : GROUND LEVEL
DATE.               02/11/76 : RUN DATE
RUN .                      2 : RUN NUMBER
DD  .FT                14000 : DEPTH DRILLER
DL  .FT                14017 : DEPTH LOGGER
BLI .FT                14014 : BOTTOM LOG INTERVAL
TLI .FT                 3588 : TOP LOG INTERVAL
CS  .IN                10.75 : CASING SIZE
CBD .FT                 3536 : CASING BOTTOM DRILLER
CBL .FT                 3588 : CASING BOTTOM LOGGER
BS  .IN                 8.75 : BIT SIZE
BSD .FT                14000 : BIT SIZE AT DEPTH
DFT .             RD 111 OIL : DRILLING FLUID TYPE
DFD .                   11.1 : DRILLING FLUID DENSITY
DFV .                     59 : DRILLING FLUID VISCOSITY
DFPH.                    9.5 : DRILLING FLUID PH
DFL .                    3.7 : DRILLING FLUID LOSS
MSS .             RETURN PIT : MUD SAMPLE SOURCE
RMS .OHMM               0.59 : RESISTIVITY MUD SAMPLE
MST .DEGF                101 : MUD SAMPLE TEMPERATURE
RMF .OHMM               0.62 : RESISTIVITY MUD FILTRATE SAMPLE
MFST.DEGF                 76 : MUD FILTRATE SAMPLE TEMPERATURE
RMC .OHMM               0.75 : RESISTIVITY MUD CAKE
MCST.DEGF                101 : MUD CAKE SAMPLE TEMPERATURE
MFSS.                   MEAS : MUD FILTRATE SAMPLE SOURCE
MCSS.                  CHART : MUD CAKE SAMPLE SOURCE
RMB .OHMM               0.19 : RESISTIVITY MUD AT BHT
TCS .HRS                  24 : TIME CIRCULATED STOPPED
LUN .                   7676 : LOGGING UNIT NUMBER
LUL .                  PLEAS : LOGGING UNIT LOCATION
ENGI.                 POWELL : RECORDING ENGINEER
WITN.                  ADAMS : WITNESSED BY
CLNT.                A2DTECH : CLIENT CODE
ORIG.               1" PRINT : ORIGIN OF DATA
UWI .         42025304380000 : UNIQUE WELL ID
DICO. A2D Technologies, Inc. : DIGITIZING COMPANY
~Other -----------------------------------------------------
~ASCII -----------------------------------------------------
# ...
 5700.00000    0.87360    -999.25    9.91040    9.91040 1550.87680 1550.87680    -999.25    -999.25    -999.25    -999.25    -999.25    -999.25    0.64480  118.43260  118.43260    -999.25   66.26430   66.26430    0.89820    -999.25    -999.25    -999.25    -999.25   -1.49700   -1.76880    0.87360
 5750.00000    1.15930    -999.25   10.08000   10.08000 1029.42610 1029.42610    -999.25    -999.25    -999.25    -999.25    -999.25    -999.25    0.97140  131.45910  131.45910    -999.25   71.19000   71.19000    1.10780    -999.25    -999.25    -999.25    -999.25   -3.89220   -4.35500    1.15930
 5800.00000    2.20900   14.41390   10.58170   10.58170  514.97000  514.97000    0.03770    0.03770    2.42770    -999.25    0.13060    0.13470    1.94190   98.13280   98.13280   69.04620   65.36430   65.36430    2.15570    -999.25    0.27200    0.27200    2.42770   -8.08380   -8.73750    2.20900
 5850.00000    1.30150   13.76530   10.67140   10.67140 1080.96110 1080.96110    0.01390    0.01390    2.31160    -999.25    0.20860    0.20510    0.92510  120.53050  120.53050   77.79450   67.60350   67.60350    1.28740    -999.25    0.44370    0.44370    2.31160   -1.34730   -2.19190    1.30150
 5900.00000    1.22990   12.40040   11.67110   11.67110 1059.45240 1059.45240    0.01840    0.01840    2.30260    -999.25    0.23180    0.21050    0.94390  122.77290  122.77290   81.79180   69.17470   69.17470    0.95810    -999.25    0.43110    0.43110    2.30260    0.59880   -0.43680    1.22990
 5950.00000    4.38860    9.62550    9.32750    9.32750  312.34520  312.34520    0.02780    0.02780    2.28760    -999.25    0.22160    0.21960    3.20160   88.61710   88.61710   63.76220   55.58330   55.58330    3.94200    -999.25    0.27790    0.27790    2.28760  -12.42520  -13.71990    4.38860
 6000.00000    4.02390   10.28970   10.50690   10.50690  263.86810  263.86810   -0.00490   -0.00490    2.44120    -999.25    0.13290    0.12650    3.78980   85.24340   85.24340   65.05390   59.56930   59.56930    4.11350    -999.25    0.22920    0.22920    2.44120  -11.74560  -13.35990    4.02390
 6050.00000    4.29190    9.69020    9.52920    9.52920  251.37240  251.37240    0.01690    0.01690    2.27410    -999.25    0.23780    0.22780    3.97820   87.03700   87.03700   49.08480   40.96610   40.96610    4.12170    -999.25    0.23420    0.23420    2.27410  -17.51500  -19.44880    4.29190
 6100.00000    4.69250   10.08010    9.73090    9.73090  234.88560  234.88560    0.03780    0.03780    2.36930    -999.25    0.17700    0.17010    4.25740   90.41320   90.41320   73.54520   65.14260   65.14260    4.19160    -999.25    0.27790    0.27790    2.36930  -11.97600  -14.22940    4.69250
 6150.00000    3.33360   10.67370   10.40280   10.40280  446.78720  446.78720    0.02170    0.02170    2.45920    -999.25    0.11940    0.11560    2.23820   90.41270   90.41270   82.53380   72.75680   72.75680    2.57480    -999.25    0.32380    0.32380    2.45920   -7.13560   -9.70860    3.33360
 6200.00000    4.57310    9.44720    9.22370    9.22370  469.80970  469.80970    0.02410    0.02410    2.28840    -999.25    0.21980    0.21920    2.12850   80.97640   80.97640   27.43690   25.74440   25.74440    2.03600    -999.25    0.21570    0.21570    2.28840  -63.01310  -65.90570    4.57310
 6250.00000    3.54630    9.94660   10.10420   10.10420  362.80340  362.80340    0.02510    0.02510    2.42110    -999.25    0.13960    0.13870    2.75630   91.53710   91.53710   74.40460   62.90440   62.90440    2.91920    -999.25    0.30900    0.30900    2.42110  -20.70920  -23.92130    3.54630
 6300.00000    3.09260    9.24720    9.28300    9.28300 1032.49040 1032.49040    0.02070    0.02070    2.19630    -999.25    0.27650    0.27500    0.96850   91.83590   91.83590   38.69170   32.23510   32.23510    1.04790    -999.25    0.27120    0.27120    2.19630  -65.26890  -68.80060    3.09260
 6350.00000    2.39400    9.26330    9.18650    9.18650  947.53260  947.53250    0.01240    0.01240    2.21730    -999.25    0.26490    0.26220    1.05540   85.84490   85.84490   29.72330   26.19030   26.19030    1.03290    -999.25    0.23820    0.23820    2.21730  -68.11350  -71.96480    2.39400
 6400.00000    2.35230   10.19410   10.41780   10.41780  558.88390  558.88390    0.04610    0.04610    2.40220    -999.25    0.14960    0.15020    1.78930   92.21040   92.21040    -999.25   74.54970   74.54970    1.90830    -999.25    0.31220    0.31220    2.40220   -5.69460   -9.86550    2.35230
 6450.00000    3.66770    -999.25    9.15650    9.15650  532.43440  532.43440    -999.25    -999.25    -999.25    -999.25    -999.25    -999.25    1.87820   89.13860   89.13860    -999.25   59.77060   59.77060    1.85130    -999.25    -999.25    -999.25    -999.25  -27.09500  -31.58550    3.66770
 6500.00000    5.05880    -999.25    9.40990    9.40990  433.13670  433.13670    -999.25    -999.25    -999.25    -999.25    -999.25    -999.25    2.30870   82.77210   82.77210    -999.25   53.50080   53.50080    2.24550    -999.25    -999.25    -999.25    -999.25  -48.20360  -53.01360    5.05880
 6550.00000    4.17910    -999.25    9.14750    9.14750  906.18780  906.18790    -999.25    -999.25    -999.25    -999.25    -999.25    -999.25    1.10350   85.69290   85.69290    -999.25   39.84520   39.84520    1.16270    -999.25    -999.25    -999.25    -999.25  -72.30620  -77.43580    4.17910
 6600.00000    4.14330    -999.25    9.89550    9.89550  392.54280  392.54280    -999.25    -999.25    -999.25    -999.25    -999.25    -999.25    2.54750   84.34680   84.34680    -999.25   79.91980   79.91980    2.60470    -999.25    -999.25    -999.25    -999.25  -27.06690  -32.51610    4.14330
 6650.00000    4.91340    -999.25    9.29850    9.29850  586.82630  586.82630    -999.25    -999.25    -999.25    -999.25    -999.25    -999.25    1.70410   83.55820   83.55820    -999.25   61.79050   61.79050    1.83130    -999.25    -999.25    -999.25    -999.25  -54.69000  -60.45880    4.91340
 6700.00000    2.36420    -999.25    9.25870    9.25870 1043.90890 1043.90890    -999.25    -999.25    -999.25    -999.25    -999.25    -999.25    0.95790   86.44190   86.44190    -999.25   40.07440   40.07440    1.01800    -999.25    -999.25    -999.25    -999.25  -80.63880  -86.72710    2.36420
 6750.00000    5.19380    -999.25    9.18660    9.18660  592.81440  592.81440    -999.25    -999.25    -999.25    -999.25    -999.25    -999.25    1.68690   84.04490   84.04490    -999.25   52.70900   52.70900    1.70670    -999.25    -999.25    -999.25    -999.25  -64.67020  -71.07810    5.19380
 6800.00000    3.82090    -999.25    9.49170    9.49170  730.53890  730.53890    -999.25    -999.25    -999.25    -999.25    -999.25    -999.25    1.36890   86.59020   86.59020    -999.25   67.39520   67.39520    1.26360    -999.25    -999.25    -999.25    -999.25  -69.35980  -76.08730    3.82090
 6850.00000    2.06570    -999.25   11.23160   11.23160  636.72620  636.72620    -999.25    -999.25    -999.25    -999.25    -999.25    -999.25    1.57050  101.49640  101.49640    -999.25   74.55990   74.55990    2.05590    -999.25    -999.25    -999.25    -999.25   -0.84790   -7.89500    2.06570
 6900.00000    3.53430    -999.25    9.40300    9.40300  495.01590  495.01590    -999.25    -999.25    -999.25    -999.25    -999.25    -999.25    2.02010   85.39330   85.39330    -999.25   72.09440   72.09440    2.27540    -999.25    -999.25    -999.25    -999.25  -22.15570  -29.52230    3.53430
 6950.00000    3.21200    -999.25   10.58950   10.58950  445.10770  445.10770    -999.25    -999.25    -999.25    -999.25    -999.25    -999.25    2.24660   87.19100   87.19100    -999.25   85.27120   85.27120    2.27540    -999.25    -999.25    -999.25    -999.25  -21.90530  -29.59150    3.21200
 7000.00000    3.78710    -999.25   10.25370   10.25370  425.71430  425.71430    -999.25    -999.25    -999.25    -999.25    -999.25    -999.25    2.34900   86.09210   86.09210    -999.25   67.61050   67.61050    2.45770    -999.25    -999.25    -999.25    -999.25  -18.76040  -26.76620    3.78710
