~Version ---------------------------------------------------
VERS. 2.0 : CWLS log ASCII Standard -VERSION 2.0
WRAP.  NO : ONE LINE PER DEPTH STEP
~Well ------------------------------------------------------
STRT.F                     300.0 : START DEPTH
STOP.F                   14450.0 : STOP DEPTH
STEP.F                  50.00000 : STEP LENGTH
NULL.                    -999.25 : NULL VALUE
COMP. CHAMPLIN PETROLEUM COMPANY : COMPANY
WELL.          LEDWIG CAROLYN #1 : WELL
FLD .      YORKTOWN-N.E. EDWARDS : FIELD
LOC .                            : LOCATION
CNTY.                    DE WITT : COUNTY
STAT.                      TEXAS : STATE
CTRY.   UNITED STATES OF AMERICA : COUNTRY
SRVC.               Schlumberger : SERVICE COMPANY
DATE.                01-Jan-1979 : LOGDATE
API .             42123309360000 : API NUMBER
UWI .             42123309360000 : UNIQUE WELL ID
SLAT.WGS84         29.0138346697 : SURFACE LATITUDE
SLON.WGS84        -97.4746712486 : SURFACE LONGITUDE
~Curve Information -----------------------------------------
DEPT .F                 : 
CILD .MMHO 07 110 46 00 : CONDUCTIVITY INDUCTION LOG DEEP
LL8  .OHMM 07 220 08 00 : LATEROLOG-8 RES.
GRR  .GAPI 07 310 01 00 : GAMMA RAY FROM RES. LOG
ILM  .OHMM 07 120 44 00 : INDUCTION LOG MEDIUM
SFLU .OHMM 07 220 01 00 : SPHERICALLY FOCUSED LOG UNAVERAGED RESISTIVITY
ILD  .OHMM 07 120 46 00 : INDUCTION LOG DEEP
DT   .US/F 60 520 00 00 : INTERVAL TRANSIT TIME
SPR  .MV   07 010 01 00 : SPONTANEOUS POTENTIAL FROM RES. LOG
CALD .IN   45 280 60 00 : CALIPER FROM DENSITY LOG
CORR .G/C3 45 356 01 00 : DENSITY CORRECTION
GRD  .GAPI 45 310 01 00 : GAMMA RAY FROM DENSITY LOG
DPHI .DEC  45 890 12 00 : DENSITY POROSITY SANDSTONE MATRIX CHANGE TO AT 13170 LIMESTONE
NPHI .DEC  42 890 03 00 : NEUTRON POROSITY SANDSTONE MATRIX CHANGE AT 13170 TO LIMESTONE
RHOB .G/C3 45 350 01 00 : BULK DENSITY
ASFL .OHMM 07 221 06 00 : AMPLIFIED SHALLOW FOCUSED LOG RESISTIVITY
RILD .OHMM 07 120 46 00 : INDUCTION LOG DEEP RESISTIVITY
NEUT .NAPI 35 330 01 00 : NEUTRON
GRN  .GAPI 35 310 01 00 : GAMMA RAY
NEUT1.NAPI 35 330 01 00 : NEUTRON DEFAULT SCALE & UNIT 0/1000
GRN1 .GAPI 35 310 01 00 : GAMMA RAY DEFAULT SCALE & UNIT 0/100
~Params ----------------------------------------------------
PD  .                     GL : PERMANENT DATUM
EPD .FT                355.1 : ELEVATION PERMANENT DATUM
LMF .                     KB : LOG MEASURED FROM
DAPD.FT                   20 : FEET ABOVE PERMANENT DATUM
DMF .                     KB : DRILLING MEASURED FROM
EKB .FT                375.1 : KELLY BUSHING
EDF .FT                374.1 : DRILLING FLOOR
EGL .FT                355.1 : GROUND LEVEL
DATE.               01/01/79 : RUN DATE
RUN .                      3 : RUN NUMBER
DD  .FT                14460 : DEPTH DRILLER
DL  .FT                14470 : DEPTH LOGGER
BLI .FT                14460 : BOTTOM LOG INTERVAL
TLI .FT                 9970 : TOP LOG INTERVAL
CS  .IN                10.75 : CASING SIZE
CBD .FT                 2500 : CASING BOTTOM DRILLER
BS  .IN                 8.75 : BIT SIZE
BSD .FT                14460 : BIT SIZE AT DEPTH
DFT .        IMCO SALT WATER : DRILLING FLUID TYPE
DFD .                   11.3 : DRILLING FLUID DENSITY
DFV .                     60 : DRILLING FLUID VISCOSITY
DFPH.                  11.35 : DRILLING FLUID PH
DFL .                    7.6 : DRILLING FLUID LOSS
MSS .               CIRC PIT : MUD SAMPLE SOURCE
RMS .OHMM              0.104 : RESISTIVITY MUD SAMPLE
MST .DEGF                 48 : MUD SAMPLE TEMPERATURE
RMF .OHMM              0.079 : RESISTIVITY MUD FILTRATE SAMPLE
MFST.DEGF                 48 : MUD FILTRATE SAMPLE TEMPERATURE
RMC .OHMM              0.156 : RESISTIVITY MUD CAKE
MCST.DEGF                 48 : MUD CAKE SAMPLE TEMPERATURE
MFSS.                      M : MUD FILTRATE SAMPLE SOURCE
MCSS.                      C : MUD CAKE SAMPLE SOURCE
RMB .OHMM              0.016 : RESISTIVITY MUD AT BHT
MRT .DEGF                304 : MAXIMUM RECORDED TEMPERATURE
LUN .                   8015 : LOGGING UNIT NUMBER
LUL .               VICTORIA : LOGGING UNIT LOCATION
ENGI.               BUCHANAN : RECORDING ENGINEER
WITN.              PRITCHARD : WITNESSED BY
CLNT.                A2DTECH : CLIENT CODE
ORIG.            2" 5" PRINT : ORIGIN OF DATA
UWI .         42123309360000 : UNIQUE WELL ID
DICO. A2D Technologies, Inc. : DIGITIZING COMPANY
~Other -----------------------------------------------------
~ASCII -----------------------------------------------------
# ...
 12550.00000    -999.25    -999.25    -999.25    -999.25    2.15860    1.72080   89.61190   38.04860    -999.25    -999.25    -999.25    -999.25    -999.25    -999.25    -999.25    -999.25    -999.25    -999.25    -999.25    -999.25
 12600.00000    -999.25    -999.25    -999.25    -999.25    3.89310    2.31010   78.65460   39.20090    8.96810    0.04420   88.42800    0.07260    0.25750    2.55550    -999.25    -999.25    -999.25    -999.25    -999.25    -999.25
 12650.00000    -999.25    -999.25    -999.25    -999.25    2.17320    2.02700   90.13920   37.97620    9.12770    0.04450  102.38470    0.06660    0.21400    2.57120    -999.25    -999.25    -999.25    -999.25    -999.25    -999.25
 12700.00000    -999.25    -999.25    -999.25    -999.25    2.84080    2.44450   83.06230   39.51640    9.05960    0.07420   98.51270    0.03800    0.22050    2.61480    -999.25    -999.25    -999.25    -999.25    -999.25    -999.25
 12750.00000    -999.25    -999.25    -999.25    -999.25    3.17120    2.60050   81.45360   38.86720    8.66870    0.03520   86.23600    0.05710    0.21610    2.57280    -999.25    -999.25    -999.25    -999.25    -999.25    -999.25
 12800.00000    -999.25    -999.25    -999.25    -999.25    2.85600    2.41160   82.79620   38.38790    9.25000    0.03260   82.37340    0.06490    0.24300    2.57340    -999.25    -999.25    -999.25    -999.25    -999.25    -999.25
 12850.00000    -999.25    -999.25    -999.25    -999.25    3.25340    2.47850   79.72940   37.91940    9.90620    0.04320   86.29380    0.04320    0.23830    2.60690    -999.25    -999.25    -999.25    -999.25    -999.25    -999.25
 12900.00000    -999.25    -999.25    -999.25    -999.25    2.66180    2.13350   81.69770   36.79530   10.05320    0.06170   84.75050    0.03790    0.24780    2.59970    -999.25    -999.25    -999.25    -999.25    -999.25    -999.25
 12950.00000    -999.25    -999.25    -999.25    -999.25    2.65810    2.17120   84.45330   37.57940    9.34850    0.06330   97.26720    0.03850    0.26880    2.61450    -999.25    -999.25    -999.25    -999.25    -999.25    -999.25
 13000.00000    -999.25    -999.25    -999.25    -999.25    2.38900    -999.25   89.54220   38.76980    9.24750    0.02240   94.23730    0.06570    0.27660    2.57080    -999.25    -999.25    -999.25    -999.25    -999.25    -999.25
 13050.00000    -999.25    -999.25    -999.25    -999.25    2.93780    2.06490   83.06400   37.47070    9.16770    0.03960   96.55440    0.05640    0.25370    2.59320    -999.25    -999.25    -999.25    -999.25    -999.25    -999.25
 13100.00000    -999.25    -999.25    -999.25    -999.25    2.54470    2.10300   82.89290   37.41390    9.02790    0.03600  104.78950    0.05410    0.25220    2.58000    -999.25    -999.25    -999.25    -999.25    -999.25    -999.25
 13150.00000    -999.25    -999.25    -999.25    -999.25    2.75270    2.22140   82.34590   37.03440    9.24750    0.05810   93.77990    0.01870    0.21220    2.65780    -999.25    -999.25    -999.25    -999.25    -999.25    -999.25
 13200.00000    -999.25    -999.25    -999.25    -999.25    2.72180    2.71540   83.74400   36.50280    9.33450    0.00920   76.31860    0.09720    0.25020    2.53720    -999.25    -999.25    -999.25    -999.25    -999.25    -999.25
 13250.00000    -999.25    -999.25    -999.25    -999.25    2.76540    2.04370   85.48360   35.99210    9.36370    0.04400   95.39940    0.05430    0.17490    2.61720    -999.25    -999.25    -999.25    -999.25    -999.25    -999.25
 13300.00000    -999.25    -999.25    -999.25    -999.25    3.18170    2.51170   79.12140   35.88600    9.32730    0.03550   85.33040    0.03520    0.13300    2.64720    -999.25    -999.25    -999.25    -999.25    -999.25    -999.25
 13350.00000    -999.25    -999.25    -999.25    -999.25   10.77570   10.29500   61.43140   33.43250    8.96550    0.02850   49.94580    0.02390    0.04940    2.66860    -999.25    -999.25    -999.25    -999.25  300.72210   35.39750
 13400.00000    -999.25    -999.25    -999.25    -999.25    4.98520    3.73570   74.76690   32.43430    9.18500    0.07120   72.23220    0.01970    0.10800    2.67300    -999.25    -999.25    -999.25    -999.25  305.92210   56.47020
 13450.00000    -999.25    -999.25    -999.25    -999.25    3.49980    2.86830   76.38170   33.21430    9.55990    0.02680   84.53710    0.03760    0.14560    2.63880    -999.25    -999.25    -999.25    -999.25  175.28470   63.58620
 13500.00000    -999.25    -999.25    -999.25    -999.25   27.74620   46.34340   54.17650   27.25330    8.71740    0.01660   28.98580   -0.00900    0.00780    2.72780    -999.25    -999.25    -999.25    -999.25  703.29580   16.63220
 13550.00000    -999.25    -999.25    -999.25    -999.25    3.91210    6.58220   73.04170   16.94440    8.64980   -0.00150   35.03070    0.06480    0.12700    2.61060    -999.25    -999.25    -999.25    -999.25  379.54510   43.15570
 13600.00000    -999.25    -999.25    -999.25    -999.25   23.04270   21.17420   54.75740    9.89310    8.62480    0.00100   30.50060    0.00550    0.00900    2.69250    -999.25    -999.25    -999.25    -999.25  607.50670   19.79430
 13650.00000    -999.25    -999.25    -999.25    -999.25   27.46570   46.84930   54.53710    4.67410    8.59490    0.01900   21.01750   -0.00980    0.00410    2.72640    -999.25    -999.25    -999.25    -999.25  761.71890   19.83950
 13700.00000    -999.25    -999.25    -999.25    -999.25   21.76320   14.90930   55.18890    9.07240    8.60880   -0.00210   28.58880    0.03460    0.00910    2.64810    -999.25    -999.25    -999.25    -999.25  574.51520   36.02950
 13750.00000    -999.25    -999.25    -999.25    -999.25   24.84890   28.27880   55.56620   -4.81940    8.60880    0.01970   21.64320    0.00450    0.00680    2.70390    -999.25    -999.25    -999.25    -999.25  907.39900   15.00870
 13800.00000    -999.25    -999.25    -999.25    -999.25   32.81670   27.70900   55.82510    0.14610    8.58880    0.01770   22.36300   -0.00420    0.00720    2.71610    -999.25    -999.25    -999.25    -999.25  636.92050   15.92160
 13850.00000    -999.25    -999.25    -999.25    -999.25   31.36640   34.51250   59.12180   -5.61340    8.54890    0.01560   27.75610    0.06380    0.02090    2.60000    -999.25    -999.25    -999.25    -999.25  351.40190   46.13380
 13900.00000    -999.25    -999.25    -999.25    -999.25   23.18140   17.48060   67.53460    6.94800    8.54890    0.02320   49.44500    0.03460    0.06590    2.65240    -999.25    -999.25    -999.25    -999.25  371.00210   29.32170
 13950.00000    -999.25    -999.25    -999.25    -999.25    7.76950    6.28860   89.02550   25.77600    9.16470    0.02800   88.20270    0.10020    0.20180    2.53320    -999.25    -999.25    -999.25    -999.25  118.21540   56.74290
 14000.00000    -999.25    -999.25    -999.25    -999.25    6.73820    4.87150   93.00200   28.05560    9.05010    0.02860   98.52060    0.08620    0.23030    2.56370    -999.25    -999.25    -999.25    -999.25  138.42590   57.90350
 14050.00000    -999.25    -999.25    -999.25    -999.25   12.58460   10.66380   91.85250   17.73810    8.10690    -999.25  100.23950    0.45450    0.24000    2.00150    -999.25    -999.25    -999.25    -999.25  162.97680   84.51630
 14100.00000    -999.25    -999.25    -999.25    -999.25   12.89080    8.89600   86.56060   12.57940    8.08480   -0.13680   86.56400    -999.25    0.20850    2.29650    -999.25    -999.25    -999.25    -999.25   91.69910   74.79090
 14150.00000    -999.25    -999.25    -999.25    -999.25   14.96800    8.04620   59.03170   -4.15910    7.85010   -0.16520   42.81500    -999.25    0.08350    2.54830    -999.25    -999.25    -999.25    -999.25  192.97290   28.28950
 14200.00000    -999.25    -999.25    -999.25    -999.25   37.27260   94.61410   52.14730  -30.37210    7.82130   -0.05700   26.05850    -999.25    0.01190    2.48550    -999.25    -999.25    -999.25    -999.25  560.83010   11.57170
 14250.00000    -999.25    -999.25    -999.25    -999.25   11.64540    6.24360   64.91830   -8.58970    0.24580    -999.25   44.68850    -999.25    0.19080    -999.25    -999.25    -999.25    -999.25    -999.25  172.92970   40.59460
