~Version ---------------------------------------------------
VERS. 2.0 : CWLS log ASCII Standard -VERSION 2.0
WRAP.  NO : ONE LINE PER DEPTH STEP
~Well ------------------------------------------------------
STRT.F                   3750.0 : START DEPTH
STOP.F                   8600.0 : STOP DEPTH
STEP.F                 50.00000 : STEP LENGTH
NULL.                   -999.25 : NULL VALUE
COMP. WINDSOR PRODUCING COMPANY : COMPANY
WELL.             CAMERON B. #2 : WELL
FLD .                  GIDDINGS : FIELD
LOC .                           : LOCATION
CNTY.                       LEE : COUNTY
STAT.                     TEXAS : STATE
CTRY.  UNITED STATES OF AMERICA : COUNTRY
SRVC.              Schlumberger : SERVICE COMPANY
DATE.               23-Jun-1979 : LOGDATE
API .            42287305100000 : API NUMBER
UWI .            42287305100000 : UNIQUE WELL ID
SLAT.WGS84         30.221344647 : SURFACE LATITUDE
SLON.WGS84       -96.8734381644 : SURFACE LONGITUDE
~Curve Information -----------------------------------------
DEPT.F    0   1   0  0 : 1 MEASURED DEPTH
GR  .GAPI 81 310 00 00 : GAMMA RAY
ILD .OHMM 07 120 46 00 : INDUCTION DEEP RESISTIVITY
ILM .OHMM 07 120 44 00 : INDUCTION MEDIUM RESISTIVITY
SFL .OHMM 07 220 01 00 : SPHERICALLY FOCUSED LOG
SPR .MV   07 010 01 00 : SPONTANEOUS POTENTIAL FROM RESISTIVITY LOG
~Params ----------------------------------------------------
PD  .                     GL : PERMANENT DATUM
EPD .FT                  351 : ELEVATION PERMANENT DATUM
LMF .                     KB : LOG MEASURED FROM
DAPD.FT                   12 : FEET ABOVE PERMANENT DATUM
DMF .                     KB : DRILLING MEASURED FROM
EKB .FT                  363 : KELLY BUSHING
EDF .FT                  362 : DRILLING FLOOR
EGL .FT                  351 : GROUND LEVEL
DATE.               06/23/79 : RUN DATE
RUN .                      1 : RUN NUMBER
DD  .FT                 8646 : DEPTH DRILLER
DL  .FT                 8652 : DEPTH LOGGER
BLI .FT                 8646 : BOTTOM LOG INTERVAL
TLI .FT                 3750 : TOP LOG INTERVAL
CS  .IN                8.625 : CASING SIZE
CBD .FT                 3748 : CASING BOTTOM DRILLER
CBL .FT                 3750 : CASING BOTTOM LOGGER
BS  .IN                 8.75 : BIT SIZE
BSD .FT                 8646 : BIT SIZE AT DEPTH
DFT .              QUEBRACHD : DRILLING FLUID TYPE
DFD .                    9.8 : DRILLING FLUID DENSITY
DFV .                     42 : DRILLING FLUID VISCOSITY
DFPH.                    9.5 : DRILLING FLUID PH
DFL .                    7.4 : DRILLING FLUID LOSS
MSS .                   TANK : MUD SAMPLE SOURCE
RMS .OHMM               1.37 : RESISTIVITY MUD SAMPLE
MST .DEGF                112 : MUD SAMPLE TEMPERATURE
RMF .OHMM               1.02 : RESISTIVITY MUD FILTRATE SAMPLE
MFST.DEGF                112 : MUD FILTRATE SAMPLE TEMPERATURE
RMC .OHMM               2.01 : RESISTIVITY MUD CAKE
MCST.DEGF                112 : MUD CAKE SAMPLE TEMPERATURE
MFSS.                      C : MUD FILTRATE SAMPLE SOURCE
MCSS.                      C : MUD CAKE SAMPLE SOURCE
RMB .OHMM               0.73 : RESISTIVITY MUD AT BHT
TCS .HRS                1100 : TIME CIRCULATED STOPPED
TLAB.HRS                1430 : TIME LOGGER AT BOTTOM
LUN .                   8096 : LOGGING UNIT NUMBER
LUL .                BRENHAM : LOGGING UNIT LOCATION
ENGI.              CILLILAND : RECORDING ENGINEER
WITN.              HOLIFIELD : WITNESSED BY
CLNT.                A2DTECH : CLIENT CODE
ORIG.            2" 5" PRINT : ORIGIN OF DATA
UWI .         42287305100000 : UNIQUE WELL ID
DICO. A2D Technologies, Inc. : DIGITIZING COMPANY
~Other -----------------------------------------------------
~ASCII -----------------------------------------------------
 3750.00000    -999.25   91.70880    4.64980    6.98730  -54.19350
 3800.00000    -999.25    6.50220    7.69160    9.10140  -53.48120
 3850.00000    -999.25    3.32500    3.45600    3.67830  -29.43770
 3900.00000    -999.25    5.39190    5.97240    7.15040  -39.25490
 3950.00000    -999.25    5.24190    6.13770    6.97770  -42.38600
 4000.00000    -999.25    3.43350    4.52080    7.28260  -70.48920
 4050.00000    -999.25    3.81490    4.39580    4.53360  -41.54640
 4100.00000    -999.25    4.28200    4.78910    6.91330  -38.60760
 4150.00000    -999.25    3.01740    3.81760    6.01360  -58.83560
 4200.00000    -999.25    1.79330    2.21270    4.08710  -66.46170
 4250.00000    -999.25    1.63460    2.18860    5.43800  -90.39890
 4300.00000    -999.25    2.27050    2.91490    5.41940  -57.55990
 4350.00000    -999.25    3.24370    3.74530    4.29840  -32.25920
 4400.00000    -999.25    2.75270    3.08500    3.42640  -32.85890
 4450.00000    -999.25    2.03800    2.87010   10.10840  -90.88210
 4500.00000    -999.25    1.99270    2.12220    1.73200  -31.88760
 4550.00000    -999.25    2.28700    2.95540    5.41490  -63.12370
 4600.00000    -999.25    1.97230    2.74320    6.69530  -74.12790
 4650.00000    -999.25    2.51950    3.00340    3.36590  -48.43780
 4700.00000    -999.25    1.21860    1.60180    5.24590  -91.21740
 4750.00000    -999.25    1.84750    2.28390    3.66680  -50.92940
 4800.00000    -999.25    2.55220    3.09240    4.43850  -40.92730
 4850.00000    -999.25    1.91240    2.46030    5.38090  -65.58220
 4900.00000    -999.25    2.55230    2.65820    2.90690  -27.22260
 4950.00000    -999.25    2.53060    2.61290    2.67150  -28.06070
 5000.00000    -999.25    2.48940    2.63540    2.87060  -29.99000
 5050.00000    -999.25    2.34220    2.42960    2.55020  -27.62260
 5100.00000    -999.25    2.43870    2.52300    2.71320  -28.38170
 5150.00000    -999.25    1.85320    1.96550    2.05580  -24.67080
 5200.00000    -999.25    1.84530    1.94590    2.14900  -25.93720
 5250.00000    -999.25    1.63210    1.71710    1.91180  -26.47770
 5300.00000    -999.25    1.78430    1.90030    1.98900  -25.92890
 5350.00000    -999.25    1.78150    1.84280    2.10350  -25.55340
 5400.00000    -999.25    1.65600    1.74710    1.91550  -24.78650
 5450.00000    -999.25    1.64250    1.71690    1.85990  -27.48690
 5500.00000    -999.25    1.38110    1.43710    1.55510  -23.69930
 5550.00000    -999.25    1.33430    1.44070    1.52130  -20.93080
 5600.00000    -999.25    1.48100    1.54330    1.64620  -21.08440
 5650.00000    -999.25    1.85470    2.13590    2.73110  -26.22560
 5700.00000    -999.25    1.34410    1.47220    1.70930  -31.62760
 5750.00000    -999.25    1.57250    1.67450    1.73110  -29.09910
 5800.00000    -999.25    1.59200    1.72040    1.98890  -38.37040
 5850.00000    -999.25    1.63440    1.79880    2.32930  -31.13780
 5900.00000    -999.25    1.83080    1.94120    2.06810  -28.72600
 5950.00000    -999.25    2.02350    2.20830    2.46680  -23.63350
 6000.00000    -999.25    1.63250    1.73000    1.86530  -32.13030
 6050.00000    -999.25    1.09220    1.16500    1.32380  -26.45660
 6100.00000    -999.25    1.29600    1.35120    1.39560  -28.34030
 6150.00000    -999.25    1.00990    1.05820    1.24080  -23.80910
 6200.00000    -999.25    1.13070    1.21010    1.50680  -28.54920
 6250.00000    -999.25    1.26530    1.38140    1.63530  -24.83220
 6300.00000    -999.25    1.82480    1.97710    2.15050  -36.76480
 6350.00000    -999.25    1.58390    1.71170    1.94120  -25.91210
 6400.00000    -999.25    1.85450    2.00270    2.13680  -24.69510
 6450.00000    -999.25    1.44380    1.54550    1.61220  -23.13450
 6500.00000    -999.25    1.42230    1.53380    1.73700  -22.90890
 6550.00000   81.02590    1.67230    1.73460    1.81570  -23.77940
 6600.00000   88.38980    1.29600    1.41010    1.47450  -22.99630
 6650.00000   87.16940    1.43960    1.52580    1.69030  -26.05810
 6700.00000   92.24270    1.24150    1.33510    1.45050  -24.93400
 6750.00000   72.34600    1.54180    1.66810    1.78530  -24.98640
 6800.00000   81.65070    2.02430    2.22810    2.42540  -20.34870
 6850.00000   68.37160    1.58940    1.72710    1.89410  -23.93290
 6900.00000   77.95480    1.75640    1.93470    2.21610  -20.09740
 6950.00000   70.77970    2.09630    2.24160    2.43530  -20.43090
 7000.00000   76.85080    1.40330    1.53010    1.70070  -19.80390
 7050.00000   68.49920    1.41090    1.55130    1.80610  -21.40510
 7100.00000   62.87150    1.70460    1.87060    2.15970  -81.38070
 7150.00000   49.12260    5.21610    5.73770    6.39160  -85.09130
 7200.00000   53.64470    5.45890    6.20050    7.73610  -86.11190
 7250.00000   56.47870    3.61630    4.22420    5.88200  -76.21290
 7300.00000   60.71730    3.22600    3.60020    4.62300  -75.28040
 7350.00000   58.75820    2.13810    2.31520    2.59720  -74.66470
 7400.00000   60.40200    3.28220    3.49970    3.87650  -73.36640
 7450.00000   72.59780    2.18940    2.39530    2.80760  -71.68650
 7500.00000   57.49050    2.59300    2.85910    3.14120  -71.93210
 7550.00000   60.52260    1.58830    1.77000    2.06090  -75.56580
 7600.00000   60.80970    2.08130    2.18480    2.34640  -71.26420
 7650.00000   47.17370    5.38540    5.86060    6.48310  -74.05790
 7700.00000   51.29090    6.60830    7.62780   10.97700  -77.92200
 7750.00000   46.66200    6.05890    7.05580    9.17580  -79.79460
 7800.00000   55.21440    8.10860    9.09210   11.74010  -84.14520
 7850.00000   62.77790   10.13390   10.45410   11.93980  -81.64110
 7900.00000   58.63200    8.45640    9.85690   18.99860  -75.86460
 7950.00000   50.32240    6.90490    8.09590   14.80210  -72.24360
 8000.00000   48.20770    5.45340    5.94130    6.44650  -66.75820
 8050.00000   50.17410    6.19840    6.61970    7.38710  -69.58870
 8100.00000   46.70300    5.97560    6.40030    7.79770  -75.73610
 8150.00000   45.59540    6.41330    6.93610    9.39410  -66.94900
 8200.00000   53.13990   12.40210   14.12260   20.10490  -83.62580
 8250.00000   51.46940   18.53970   19.66850   27.65920  -86.42130
 8300.00000   54.92280   20.10830   21.35730   26.40360  -80.46990
 8350.00000   46.54970   25.20970   25.91080   67.46730  -73.54530
 8400.00000   60.67610    4.60930    4.57260    5.97870  -60.90340
 8450.00000   58.14630   14.45130   14.71440   20.35790  -52.09810
 8500.00000   53.94690    7.30650    5.56710    6.69220  -65.59640
 8550.00000   42.34260    8.27310    7.60190    8.90430  -54.42560
 8600.00000    -999.25   38.04020   39.67650   47.11990  -61.93540
