~Version ---------------------------------------------------
VERS. 2.0 : CWLS log ASCII Standard -VERSION 2.0
WRAP.  NO : ONE LINE PER DEPTH STEP
~Well ------------------------------------------------------
STRT.F                             300.0 : START DEPTH
STOP.F                           21950.0 : STOP DEPTH
STEP.F                          50.00000 : STEP LENGTH
NULL.                            -999.25 : NULL VALUE
COMP. PAN AMERICAN PETROLEUM CORPORATION : COMPANY
WELL.                  A. M. FOERSTER #1 : WELL
FLD .                            WILDCAT : FIELD
LOC .                                    : LOCATION
CNTY.                           LA SALLE : COUNTY
STAT.                              TEXAS : STATE
CTRY.           UNITED STATES OF AMERICA : COUNTRY
SRVC.                       Schlumberger : SERVICE COMPANY
DATE.                        20-Aug-1964 : LOGDATE
API .                     42283002040000 : API NUMBER
UWI .                     42283002040000 : UNIQUE WELL ID
SLAT.WGS84                 28.3371650608 : SURFACE LATITUDE
SLON.WGS84                -98.9649233845 : SURFACE LONGITUDE
~Curve Information -----------------------------------------
DEPT .F                 : 
ASN  .OHMM 05 041 16 00 : AMPLIFIED SHORT NORMAL RESISTIVITY
CILD .MMHO 05 110 46 00 : INDUCTION DEEP CONDUCTIVITY
SPR  .MV   05 010 01 00 : SPONTANEOUS POTENTIAL FROM RESISTIVITY
ILD  .OHMM 05 120 46 00 : INDUCTION DEEP RESISTIVITY
DT   .US/F 60 520 31 00 : DELTA-T (INTERVAL TRANSIT TIME)
CALS .IN   60 280 50 00 : CALIPER
GRN1 .GAPI 35 310 01 00 : GAMMA RAY
GRN2 .GAPI 35 310 01 00 : GAMMA RAY
GRN3 .GAPI 35 310 01 00 : GAMMA RAY
NEUT .NAPI 35 330 01 00 : NEUTRON
NEUT1.NAPI 35 330 01 00 : NEUTRON
~Params ----------------------------------------------------
PD  .                     GL : PERMANENT DATUM
EPD .F                   445 : ELEVATION PERMANENT DATUM
LMF .                     KB : LOG MEASURED FROM
DAPD.F                  28.5 : FEET ABOVE PERMANENT DATUM
DMF .                     KB : DRILLING MEASURED FROM
EKB .F                 473.5 : KELLING BUSHING
EDF .F                   471 : DRILLING FLOOR
EGL .F                   445 : GROUND LEVEL
DATE.               08/20/64 : RUN DATE
RUN .                     11 : RUN NUMBER
DD  .F                 21995 : DEPTH DRILLER
DL  .F                 21992 : DEPTH LOGGER
BLI .F                 21991 : BOTTOM LOG INTERVAL
TLI .F                 20005 : TOP LOG INTERVAL
CS  .IN                9.625 : CASING SIZE
CBD .F                 15993 : CASING BOTTOM DRILLER
CBL .F                 15993 : CASING BOTTOM LOGGER
BS  .IN                  8.5 : BIT SIZE
BSD .F                 21995 : BIT SIZE AT DEPTH
DFT .    XP 20 O E SPER CAUS : DRILLING FLUID TYPE
DFD .                   18.4 : DRILLING FLUID DENSITY
DFV .                     54 : DRILLING FLUID VISCOSITY
DFPH.                    8.9 : DRILLING FLUID PH
DFL .                      4 : DRILLING FLUID LOSS
MSS .                MUD PIT : MUD SAMPLE SOURCE
RMS .OHMM               0.15 : RESISTIVITY MUD SAMPLE
MST .F                   120 : MUD SAMPLE TEMPERATURE
RMF .OHMM              0.089 : RESISTIVITY MUD FILTRATE SAMPLE
MFST.F                    75 : MUD FILTRATE SAMPLE TEMPERATURE
RMC .OHMM               0.32 : RESISTIVITY MUD CAKE
MCST.F                    75 : MUD CAKE SAMPLE TEMPERATURE
MFSS.                      M : MUD FILTRATE SAMPLE SOURCE
MCSS.                      M : MUD CAKE SAMPLE SOURCE
RMB .OHMM              0.046 : RESISTIVITY MUD AT BHT
TCS .HRS                  10 : TIME CURCULATED STOPPED
LUN .                   4526 : LOGGING UNIT NUMBER
LUL .                    KEN : LOGGING UNIT LOCATION
ENGI.                  HARSH : RECORDING ENGINEER
WITN.          FREEMAN WALSH : WITNESSED BY
CLNT.                A2DTECH : CLIENT CODE
ORIG.               1" PRINT : ORIGIN OF DATA
UWI .         42283002040000 : UNIQUE WELL ID
DICO. A2D Technologies, Inc. : DIGITIZING COMPANY
~Other -----------------------------------------------------
~ASCII -----------------------------------------------------
# ...
 9450.00000    4.07860  173.76520  -16.08120    5.13890   79.58800   15.30720    -999.25    -999.25    -999.25    -999.25    -999.25
 9500.00000    3.79170  251.88380  -15.02240    3.74010   99.58800   15.21690    -999.25    -999.25    -999.25    -999.25    -999.25
 9550.00000    3.94050  250.74720  -15.20930    3.80450   82.10860   14.58430    -999.25    -999.25    -999.25    -999.25    -999.25
 9600.00000    4.28570  237.87980  -14.64890    4.17150   80.90940   14.83470    -999.25    -999.25    -999.25    -999.25    -999.25
 9650.00000    4.87700  198.55510  -15.47090    4.97020   73.37080   14.46390    -999.25    -999.25    -999.25    -999.25    -999.25
 9700.00000   10.71430   31.70120  -31.28930   10.83320   67.37830   14.25410    -999.25    -999.25    -999.25    -999.25    -999.25
 9750.00000    5.01490  219.68110  -33.08380    5.00250   69.97740   14.10250    -999.25    -999.25    -999.25    -999.25    -999.25
 9800.00000    7.12950  132.07610  -34.16430    6.83510   66.58290   13.39470    -999.25    -999.25    -999.25    -999.25    -999.25
 9850.00000    6.21280  179.42150  -34.80540    5.98070   67.19100   13.42480    -999.25    -999.25    -999.25    -999.25    -999.25
 9900.00000   10.38680   91.82330  -34.88020   10.87160   60.63220   12.80720    -999.25    -999.25    -999.25    -999.25    -999.25
 9950.00000   10.24300   96.38920  -35.25450   10.78500   65.52810   12.79220    -999.25    -999.25    -999.25    -999.25    -999.25
 10000.00000    8.36310  115.98840  -34.70220    9.80680   67.94850   12.71690    -999.25    -999.25    -999.25    -999.25    -999.25
 10050.00000   10.84080   83.53190  -35.20480   11.70120   63.33940   12.58140    -999.25    -999.25    -999.25    -999.25    -999.25
 10100.00000    8.27380  105.38010  -34.43110    8.32090   85.93200   12.89590    -999.25    -999.25    -999.25    -999.25    -999.25
 10150.00000    6.65170  171.97360  -35.17960    5.64620   77.77900   12.89750    -999.25    -999.25    -999.25    -999.25    -999.25
 10200.00000    7.34840  145.34040  -34.73930    6.83510   71.50570   12.71690    -999.25    -999.25    -999.25    -999.25    -999.25
 10250.00000    6.67410  184.60370  -33.60780    5.90640   72.61060   13.13860    -999.25    -999.25    -999.25    -999.25    -999.25
 10300.00000    5.28270  230.39360  -33.38320    4.75480   79.47490   12.79210    -999.25    -999.25    -999.25    -999.25    -999.25
 10350.00000    5.18110  233.87820  -34.05670    4.94060   80.62270   13.06330    -999.25    -999.25    -999.25    -999.25    -999.25
 10400.00000    6.10120  199.17910  -33.53290    6.06180   75.78390   12.92780    -999.25    -999.25    -999.25    -999.25    -999.25
 10450.00000    6.90230  175.03420  -31.81140    6.24070   81.86800   12.83730    -999.25    -999.25    -999.25    -999.25    -999.25
 10500.00000    7.85220  129.99840  -30.13980    8.27140   59.17480   12.71690    -999.25    -999.25    -999.25    -999.25    -999.25
 10550.00000   24.24080   33.78150  -32.55990   29.66820   82.33330   12.92780    -999.25    -999.25    -999.25    -999.25    -999.25
 10600.00000   31.44180   20.92680  -34.13170   40.17280   75.82900   13.22870    -999.25    -999.25    -999.25    -999.25    -999.25
 10650.00000   29.76190   21.10100  -34.20660   40.41600   78.48490   12.93510    -999.25    -999.25    -999.25    -999.25    -999.25
 10700.00000   53.52160    5.92920  -32.28560  120.85480   50.39740   13.09340    -999.25    -999.25    -999.25    -999.25    -999.25
 10750.00000   14.82140   63.15400  -28.36830   15.45320   55.95670   13.40200    -999.25    -999.25    -999.25    -999.25    -999.25
 10800.00000   21.17430   36.71030  -27.54490   40.56460   53.00860   13.43980    -999.25    -999.25    -999.25    -999.25    -999.25
 10850.00000   59.53870    4.55900  -42.88920  130.83220   49.38520   13.73320    -999.25    -999.25    -999.25    -999.25    -999.25
 10900.00000   35.14880   15.39610  -96.35660   54.33490   50.26240   13.25890    -999.25    -999.25    -999.25    -999.25    -999.25
 10950.00000   19.98140   68.60660 -154.11680   12.07280   57.80210   13.50740    -999.25    -999.25    -999.25    -999.25    -999.25
 11000.00000   28.85770   32.28700 -154.79040   27.34030   51.16250   12.86750    -999.25    -999.25    -999.25    -999.25    -999.25
 11050.00000   37.20240   23.96610 -135.04010   38.55940   49.31730   13.25900    -999.25    -999.25    -999.25    -999.25    -999.25
 11100.00000   25.83830   51.17600 -157.05020   18.72800   53.18830   13.10850    -999.25    -999.25    -999.25    -999.25    -999.25
 11150.00000   20.00000   95.20460 -160.83710   10.58120   57.87700   12.43830    -999.25    -999.25    -999.25    -999.25    -999.25
 11200.00000   17.73470  137.20210 -162.50420    7.21330   54.98860   12.38550    -999.25    -999.25    -999.25    -999.25    -999.25
 11250.00000   19.17290  153.87240 -165.09720    6.25940   55.78390   12.52860    -999.25    -999.25    -999.25    -999.25    -999.25
 11300.00000   21.08790   79.85970 -161.08620   11.94730   52.78330   12.89760    -999.25    -999.25    -999.25    -999.25    -999.25
 11350.00000   15.34290  199.85010 -163.15400    5.47680   55.88900   12.42320    -999.25    -999.25    -999.25    -999.25    -999.25
 11400.00000   16.54840  153.52320 -162.26550    6.70620   56.15900   12.35540    -999.25    -999.25    -999.25    -999.25    -999.25
 11450.00000   23.11480   55.42160 -156.07850   16.65440   49.90250   12.96540    -999.25    -999.25    -999.25    -999.25    -999.25
 11500.00000   19.85100   61.16940 -151.12110   16.02130   52.69320   12.79220    -999.25    -999.25    -999.25    -999.25    -999.25
 11550.00000   20.61100   46.92650 -146.23840   19.51070   52.80570   13.34960    -999.25    -999.25    -999.25    -999.25    -999.25
 11600.00000   15.49930   96.13720 -143.84010   10.13380   53.18830   13.24400    -999.25    -999.25    -999.25    -999.25    -999.25
 11650.00000   13.19920  121.98900 -135.72500    8.27120   53.48100   12.68660    -999.25    -999.25    -999.25    -999.25    -999.25
 11700.00000   20.88420   12.04450 -113.60240   48.18820   51.65820   13.37930    -999.25    -999.25    -999.25    -999.25    -999.25
 11750.00000   17.71240   32.98320 -110.91180   29.33440   55.01150   13.37450    -999.25    -999.25    -999.25    -999.25    -999.25
 11800.00000   17.13860   56.97150 -113.15100   17.28760   53.09830   12.92770    -999.25    -999.25    -999.25    -999.25    -999.25
 11850.00000   18.93930   58.24600 -103.76240   15.98400   50.64520   13.53020    -999.25    -999.25    -999.25    -999.25    -999.25
 11900.00000   72.05660    1.34830  -71.20080  162.65320   50.17280   13.83120    -999.25    -999.25    -999.25    -999.25    -999.25
 11950.00000   47.37960   12.81860  -49.85050   70.09500   51.38790   13.35690    -999.25    -999.25    -999.25    -999.25    -999.25
 12000.00000   53.92500    5.33480  -55.44130  120.02420   50.21770   13.57530    -999.25    -999.25    -999.25    -999.25    -999.25
 12050.00000   41.28160    9.92080  -53.91130   69.15640   55.21410   12.98800    -999.25    -999.25    -999.25    -999.25    -999.25
 12100.00000   45.67760    7.34630  -45.44100  110.03530   50.57760   12.88250    -999.25    -999.25    -999.25    -999.25    -999.25
 12150.00000   38.53680   10.86960  -42.45140   79.84270   49.54220   12.87500    -999.25    -999.25    -999.25    -999.25    -999.25
 12200.00000   45.75320    9.29540  -50.34300   87.33230   54.08850   13.18380    -999.25    -999.25    -999.25    -999.25    -999.25
 12250.00000   45.39240   12.44440  -64.20020   77.62910   51.86050   13.73340    -999.25    -999.25    -999.25    -999.25    -999.25
 12300.00000   40.98370   18.59070  -57.10010   59.78680   50.21770   13.13860    -999.25    -999.25    -999.25    -999.25    -999.25
 12350.00000   41.50530    9.44530  -49.62630   73.95680   49.76740   13.16110    -999.25    -999.25    -999.25    -999.25    -999.25
 12400.00000   30.88270   29.08780  -52.31690   29.88920   49.94740   14.93070    -999.25    -999.25    -999.25    -999.25    -999.25
