~Version ---------------------------------------------------
VERS. 2.0 : CWLS log ASCII Standard -VERSION 2.0
WRAP.  NO : ONE LINE PER DEPTH STEP
~Well ------------------------------------------------------
STRT.F                          3850.0 : START DEPTH
STOP.F                          8700.0 : STOP DEPTH
STEP.F                        50.00000 : STEP LENGTH
NULL.                          -999.25 : NULL VALUE
COMP. HILL INTERNATIONAL PRODUCTION CO : COMPANY
WELL.                   PETERS M.D. #1 : WELL
FLD .                           KURTEN : FIELD
LOC .                                  : LOCATION
CNTY.                           BRAZOS : COUNTY
STAT.                            TEXAS : STATE
CTRY.         UNITED STATES OF AMERICA : COUNTRY
SRVC.                                  : SERVICE COMPANY
DATE.                                  : LOGDATE
API .                   42041308470000 : API NUMBER
UWI .                   42041308470000 : UNIQUE WELL ID
SLAT.WGS84               30.7582645587 : SURFACE LATITUDE
SLON.WGS84              -96.3642408522 : SURFACE LONGITUDE
~Curve Information -----------------------------------------
DEPT.F                 : 
SPR .MV   07 010 01 00 : SPONTANEOUS POTENTIAL
CALR.IN   07 280 01 00 : CALIPER FROM RESISTIVITY
GRR .GAPI 07 310 01 00 : GAMMA RAY FROM RESISTIVITY
TENR.LBS  07 635 01 00 : TOTAL TENSION RESISTIVITY
RFOC.OHMM 07 220 04 00 : RESISTIVITY FOCUSED LOG RES.
RILD.OHMM 07 120 46 00 : DEEP INDUCTION RESISTIVITY
RILM.OHMM 07 120 44 00 : INDUCTION LOG MEDIUM RESISTIVITY
PORD.DEC  45 890 10 00 : POROSITY DENSITY
CN  .DEC  42 890 01 00 : NEUTRON POROSITY
~Params ----------------------------------------------------
EKB .F                 353.0 : KELLY BUSHING
EGL .F                   335 : ELEVATION GROUND LEVEL
EDF .F                   352 : ELEVATION DERRICK FLOOR
EPD .F                   335 : ELEVATION PERMANENT DATUM
TD  .F                8723.0 : TOTAL DEPTH
DATE.            03-DEC-1982 : DATE LOGGED
CLNT.                A2DTECH : CLIENT CODE
SL  .  1500' FNL & 7440' FEL : SURFACE LOCATION
PD  .                     GL : PERMANENT DATUM
LMF .                     KB : LOG MEASURED FROM
DMF .                     KB : DRILLING MEASURED FROM
DAPD.F                    18 : FEET ABOVE PERMANENT DATUM
DD  .F                  8723 : DEPTH DRILLER
DL  .F                  8695 : DEPTH LOGGER
BLI .F                  8692 : BOTTOM LOG INTERVAL
TLI .F                  3852 : TOP LOG INTERVAL
CS1 .IN                8.625 : CASING SIZE
CBD1.         8.625" @ 3850' : CASING DRILLER 1
CBL1.F                  3852 : CASING LOGGER 1
BS1 .IN                7.875 : BIT SIZE
BSD1.F                  8723 : DEPTH DRILLED WITH BIT1
DFT .                    LSN : TYPE FLUID IN HOLE
DFD .                    9.5 : DENSITY
DFV .                     52 : VISCOSITY
DFPH.                   10.0 : PH
DFL .                    5.8 : FLUID LOSS
MSS .               FLOWLINE : SOURCE OF SAMPLE
MFST.F                    75 : RMF MEAS. TEMP.
MFSS.                   CALC : SOURCE RMF.
MCSS.                   CALC : SOURCE RMC.
BHT .F                   200 : BHT.
TCS .HRS                   8 : TIME CIRC. STOPPED
LUN .                   6304 : LOGGING UNIT NUMBER
LUL .                  BRYAN : LOGGING UNIT LOCATION
ENGI.                  BROWN : RECORDED BY
WITN.                PERKOLA : WITNESSED BY
ORIG.               5" PRINT : ORIGIN OF DATA
UWI .         42041308470000 : UNIQUE WELL ID
DICO. A2D TECHNOLOGIES, INC. : DIGITIZING COMPANY
~Other -----------------------------------------------------
# CN 890 01 (LIMESTONE).
# PORD 890 10 (LIMESTONE).
~ASCII -----------------------------------------------------
 3850.00000  -94.71400    -999.25    -999.25    -999.25    -999.25    -999.25    -999.25    -999.25    -999.25
 3900.00000  -82.57200    -999.25   72.80200   17.88100    7.72200    4.38200    6.20000    -999.25    -999.25
 3950.00000  -24.63200    -999.25   81.71300    8.89300    2.47600    2.11600    2.18200    -999.25    -999.25
 4000.00000  -23.32100    -999.25  100.61300    5.01000    1.91600    1.93900    1.97700    -999.25    -999.25
 4050.00000  -25.16400    -999.25   88.37600    5.01000    2.36500    2.05600    2.13300    -999.25    -999.25
 4100.00000  -28.21000    -999.25   85.21000    5.01000    2.16400    1.76100    1.79000    -999.25    -999.25
 4150.00000  -26.67300    -999.25   88.82700   19.13700    2.36300    2.12500    2.14300    -999.25    -999.25
 4200.00000  -27.77300    -999.25   99.21700    5.01000    2.48000    2.09900    2.16700    -999.25    -999.25
 4250.00000  -27.87700    -999.25   91.37000    8.62600    2.21500    1.90500    1.92100    -999.25    -999.25
 4300.00000  -26.74900    -999.25  101.11600   34.78800    2.14500    2.04400    1.98600    -999.25    -999.25
 4350.00000  -26.33100    -999.25  102.62200   15.03000    1.90500    1.74600    1.72900    -999.25    -999.25
 4400.00000  -24.37900    -999.25  116.64900    8.67800    1.85700    1.47200    1.46900    -999.25    -999.25
 4450.00000  -28.07200    -999.25  100.52800   -2.79900    1.83900    1.48400    1.48400    -999.25    -999.25
 4500.00000  -24.64300    -999.25  105.00600    3.51800    1.68200    1.27300    1.21900    -999.25    -999.25
 4550.00000  -24.94500    -999.25  103.12200    5.01000    1.61300    1.19400    1.16800    -999.25    -999.25
 4600.00000  -29.89300    -999.25  105.56000   15.92800    1.87900    1.67200    1.68300    -999.25    -999.25
 4650.00000  -30.38700    -999.25  109.24800   32.39400    1.94400    1.65800    1.65400    -999.25    -999.25
 4700.00000  -31.81000    -999.25  108.97600   14.46700    2.02400    1.81800    1.80600    -999.25    -999.25
 4750.00000  -39.26500    -999.25   81.16200    8.80800    2.42300    2.02000    2.06100    -999.25    -999.25
 4800.00000  -28.10600    -999.25   94.93300    7.37700    1.66300    1.31400    1.34300    -999.25    -999.25
 4850.00000  -28.51000    -999.25   98.12300   14.57100    1.42600    1.00900    1.02100    -999.25    -999.25
 4900.00000  -28.32100    -999.25   85.95700   11.76000    1.59000    1.29200    1.29200    -999.25    -999.25
 4950.00000  -24.26900    -999.25   86.83400    8.26700    1.36900    0.98400    0.97200    -999.25    -999.25
 5000.00000  -25.73900    -999.25   98.68500    5.71000    1.35500    0.95100    0.94700    -999.25    -999.25
 5050.00000  -33.22500    -999.25   87.75800   15.03000    1.59500    1.22700    1.22300    -999.25    -999.25
 5100.00000  -32.66100    -999.25   83.57200   15.03000    1.52300    1.26100    1.22200    -999.25    -999.25
 5150.00000  -30.68500    -999.25   88.39600   15.03000    1.40400    0.95600    0.94400    -999.25    -999.25
 5200.00000  -33.43200    -999.25   92.58700   15.03000    1.42100    0.96400    1.01500    -999.25    -999.25
 5250.00000  -29.49900    -999.25  105.69600   15.03000    1.42900    1.03000    1.00700    -999.25    -999.25
 5300.00000  -22.08100    -999.25   94.39600   15.03000    1.35600    0.95900    0.94200    -999.25    -999.25
 5350.00000  -26.34100    -999.25   83.99600   15.03000    1.85300    1.42800    1.40700    -999.25    -999.25
 5400.00000  -27.38400    -999.25   73.44800   15.03000    2.36800    2.09300    2.00200    -999.25    -999.25
 5450.00000  -28.19500    -999.25   76.47500   15.03000    1.85100    1.48400    1.49500    -999.25    -999.25
 5500.00000  -23.52600    -999.25   72.75200   15.03000    2.45000    2.24700    2.30100    -999.25    -999.25
 5550.00000  -17.05700    -999.25   64.31000   15.03000    2.85700    2.56200    2.65800    -999.25    -999.25
 5600.00000  -14.40200    -999.25   91.68500   15.03000    1.51000    1.03500    0.99700    -999.25    -999.25
 5650.00000  -14.34500    -999.25   89.67000   15.03000    1.44400    1.11300    1.18200    -999.25    -999.25
 5700.00000  -12.64500    -999.25   97.22500   15.03000    1.36600    1.12500    1.11900    -999.25    -999.25
 5750.00000  -11.19200    -999.25  123.27500   13.58500    1.31900    0.93700    0.97400    -999.25    -999.25
 5800.00000  -12.62100    -999.25   98.74200   -4.02800    1.56400    1.21400    1.17100    -999.25    -999.25
 5850.00000  -14.62600    -999.25  102.01200    5.01000    1.43400    1.09800    1.13500    -999.25    -999.25
 5900.00000  -15.04800    -999.25  106.86800    5.01000    1.36200    1.01400    1.02500    -999.25    -999.25
 5950.00000  -14.64900    -999.25  100.42000    6.87000    1.33300    0.96800    0.95200    -999.25    -999.25
 6000.00000  -13.61100    -999.25  112.40300   13.82100    1.41700    1.37100    1.26200    -999.25    -999.25
 6050.00000  -18.13600    -999.25  102.37400   27.59800    1.23300    0.86400    0.88200    -999.25    -999.25
 6100.00000  -14.70100    -999.25  105.12900   31.47400    1.47400    1.13900    1.11600    -999.25    -999.25
 6150.00000  -14.57400    -999.25  117.53000   15.03000    1.49500    1.13200    1.12800    -999.25    -999.25
 6200.00000  -16.65500    -999.25   97.06200   15.03000    1.65200    1.30700    1.34200    -999.25    -999.25
 6250.00000  -16.49200    -999.25   91.93400   15.03000    1.86600    1.55800    1.55600    -999.25    -999.25
 6300.00000  -18.00800    -999.25  128.18000   15.03000    1.87900    1.85800    1.82900    -999.25    -999.25
 6350.00000  -18.33400    -999.25  100.89100   15.03000    1.59100    1.23700    1.24700    -999.25    -999.25
 6400.00000  -19.44700    -999.25  107.98500   15.53900    1.61300    1.23600    1.25900    -999.25    -999.25
 6450.00000  -13.91700    -999.25  106.53000   18.21700    1.52600    1.07600    1.04700    -999.25    -999.25
 6500.00000  -18.64700    -999.25   93.58100   20.89600    1.35700    0.98800    0.99200    -999.25    -999.25
 6550.00000  -19.04900    -999.25   90.40100   23.57400    1.84900    1.44800    1.43400    -999.25    -999.25
 6600.00000  -19.45900    -999.25  102.11200   17.92200    1.54200    -999.25    -999.25    -999.25    -999.25
 6650.00000  -22.30100    -999.25   93.21100   30.82400    1.75300    1.33300    1.36600    -999.25    -999.25
 6700.00000  -16.65300    -999.25   70.35500   15.29800    2.26500    2.16100    2.28200    -999.25    -999.25
 6750.00000  -21.21400    -999.25   86.71400   31.58500    1.82000    1.39900    1.43200    -999.25    -999.25
 6800.00000  -16.10200    -999.25   89.97300   15.03000    1.94500    1.50500    1.60500    -999.25    -999.25
 6850.00000  -15.87400    -999.25  109.36500   17.47600    1.67900    1.23900    1.29200    -999.25    -999.25
 6900.00000  -15.01400    -999.25   99.01300   21.02500    1.93200    1.55000    1.59100    -999.25    -999.25
 6950.00000  -17.35400    -999.25  103.51500   24.57300    1.85000    1.46400    1.53800    -999.25    -999.25
 7000.00000  -18.26900    -999.25   90.16800   11.86100    1.93800    1.48700    1.50500    -999.25    -999.25
 7050.00000  -18.49200    -999.25   87.71500   22.67000    1.77500    1.34500    1.39800    -999.25    -999.25
 7100.00000  -21.90600    -999.25   98.58800    8.22100    1.77500    1.35700    1.44500    -999.25    -999.25
 7150.00000  -14.28300    -999.25   97.93600    5.01000    1.86600    1.42400    1.57700    -999.25    -999.25
 7200.00000  -17.12700   13.52400   91.62500  -15.03000    1.70500    1.34700    1.42300    -999.25    -999.25
 7250.00000  -16.92500   12.89300   93.67000  -15.03000    1.68500    1.27300    1.32900    0.18400    0.29900
 7300.00000  -12.24500   10.88700   83.67800  -14.12000    2.59800    2.23200    2.51100    0.09800    0.21100
 7350.00000  -18.42800   11.98000  100.83100  -13.45300    2.37900    2.06800    2.37300    0.08000    0.26900
 7400.00000  -21.74700   10.71200   92.02300   -5.36700    2.07100    1.52600    1.79300    0.44500    0.29600
 7450.00000  -16.50400   10.23400   67.53100    2.71900    3.41200    3.47700    3.75900    0.06500    0.18100
