~Version ---------------------------------------------------
VERS. 2.0 : CWLS log ASCII Standard -VERSION 2.0
WRAP.  NO : ONE LINE PER DEPTH STEP
~Well ------------------------------------------------------
STRT.F                   300.0 : START DEPTH
STOP.F                 18600.0 : STOP DEPTH
STEP.F                50.00000 : STEP LENGTH
NULL.                  -999.25 : NULL VALUE
COMP.        SHELL OIL COMPANY : COMPANY
WELL. PAWELEK BEN A ET AL A #1 : WELL
FLD .    PERSON AREA (WILDCAT) : FIELD
LOC .                          : LOCATION
CNTY.                   KARNES : COUNTY
STAT.                    TEXAS : STATE
CTRY. UNITED STATES OF AMERICA : COUNTRY
SRVC.             Schlumberger : SERVICE COMPANY
DATE.              22-May-1978 : LOGDATE
API .           42255305980000 : API NUMBER
UWI .           42255305980000 : UNIQUE WELL ID
SLAT.WGS84       29.0241796548 : SURFACE LATITUDE
SLON.WGS84      -97.8796797249 : SURFACE LONGITUDE
~Curve Information -----------------------------------------
DEPT   .F    0   1   0  0 : 1 MEASURED DEPTH
ILD    .OHMM 07 120 46 00 : INDUCTION DEEP RESISTIVITY
ILM    .OHMM 07 120 44 00 : INDUCTION MEDIUM RESISTIVITY
SPR    .MV   07 010 01 00 : SPONTANEOUS POTENTIAL FROM RESISTIVITY LOG
SFL    .OHMM 07 220 01 00 : SPHERICALLY FOCUSED LOG
GRR    .GAPI 07 310 01 00 : GAMMA RAY FROM RESISTIVITY LOG
DPHI_SS.DEC  45 890 12 00 : DENSITY POROSITY SANDSTONE
NPHI_SS.DEC  42 890 03 00 : NEUTRON POROSITY SANDSTONE
NPHI_LS.DEC  42 890 01 00 : NEUTRON POROSITY LIMESTONE
DPHI_LS.DEC  45 890 10 00 : DENSITY POROSITY LIMESTONE
GRD    .GAPI 45 310 01 00 : GAMMA RAY FROM DENSITY LOG
RHOB   .G/C3 45 350 01 00 : BULK DENSITY
DRHO   .G/C3 45 356 01 00 : BULK DENSITY CORRECTION
CALD   .IN   45 280 60 00 : CALIPER FROM DENSITY LOG
TEND   .LB   45 635 00 00 : TENSION FROM DENSITY LOG
PROX   .OHMM 21 270 04 00 : PROXIMITY RESISTIVITY (MPT)
MCAL   .IN   15 280 01 00 : MLT (MICROLOG) CALIPER
GRS    .GAPI 60 310 01 00 : GAMMA RAY FROM SONIC LOG
DT     .US/F 60 500 00 00 : DELTA-T (INTERVAL TRANSIT TIME)
CALS   .IN   60 280 50 00 : CALIPER FROM SONIC LOG
~Params ----------------------------------------------------
PD  .                     GL : PERMANENT DATUM
EPD .FT                  335 : ELEVATION PERMANENT DATUM
LMF .                     KB : LOG MEASURED FROM
DAPD.FT                   28 : FEET ABOVE PERMANENT DATUM
DMF .                     KB : DRILLING MEASURED FROM
EKB .FT                  363 : KELLY BUSHING
EDF .FT                  362 : DRILLING FLOOR
EGL .FT                  335 : GROUND LEVEL
DATE.               05/22/78 : RUN DATE
RUN .                      4 : RUN NUMBER
DD  .FT                18626 : DEPTH DRILLER
DL  .FT                18642 : DEPTH LOGGER
BLI .FT                18637 : BOTTOM LOG INTERVAL
TLI .FT                17550 : TOP LOG INTERVAL
CS  .IN                    7 : CASING SIZE
CBD .FT                17544 : CASING BOTTOM DRILLER
CBL .FT                17550 : CASING BOTTOM LOGGER
BS  .IN                    6 : BIT SIZE
BSD .FT                18626 : BIT SIZE AT DEPTH
DFT .               INVERMUL : DRILLING FLUID TYPE
DFD .                   17.6 : DRILLING FLUID DENSITY
DFV .                     70 : DRILLING FLUID VISCOSITY
DFL .                      2 : DRILLING FLUID LOSS
LUN .                   7799 : LOGGING UNIT NUMBER
LUL .                  PLEAS : LOGGING UNIT LOCATION
ENGI.             TURBEVILLE : RECORDING ENGINEER
WITN.                JARRELL : WITNESSED BY
CLNT.                A2DTECH : CLIENT CODE
ORIG.            2" 5" PRINT : ORIGIN OF DATA
UWI .         42255305980000 : UNIQUE WELL ID
DICO. A2D Technologies, Inc. : DIGITIZING COMPANY
~Other -----------------------------------------------------
~ASCII -----------------------------------------------------
# ...
 2150.00000    1.15850    1.21800  -30.14880    1.29510    -999.25    -999.25    -999.25    -999.25    -999.25   64.46890    2.15570    0.05680   15.41930    -999.25    -999.25    -999.25   61.39740  137.50930    -999.25
 2200.00000    1.34900    1.41520  -66.63190    1.99170    -999.25    -999.25    -999.25    -999.25    -999.25   58.41320    2.07300    0.04450   16.06620    -999.25    -999.25    -999.25   52.74420  120.84730    -999.25
 2250.00000    1.64590    1.71570  -39.90330    1.83120    -999.25    -999.25    -999.25    -999.25    -999.25   55.89610    2.21250    0.05210   16.21970    -999.25    -999.25    -999.25   53.67680  119.84250    -999.25
 2300.00000    1.36210    1.42030  -31.84660    1.56930    -999.25    -999.25    -999.25    -999.25    -999.25   58.68200    2.23310    0.06560   16.20080    -999.25    -999.25    -999.25   57.40680  138.18300    -999.25
 2350.00000    0.91650    1.01040  -27.40090    0.98130    -999.25    -999.25    -999.25    -999.25    -999.25  130.07460    2.10400    0.03080   16.24190    -999.25    -999.25    -999.25   95.90100  131.12460    -999.25
 2400.00000    1.06580    1.10970  -29.22290    1.26570    -999.25    -999.25    -999.25    -999.25    -999.25   61.29500    2.15600    0.05270   15.48350    -999.25    -999.25    -999.25   54.74950  127.36830    -999.25
 2450.00000    0.99940    1.14170  -63.40190    1.45150    -999.25    -999.25    -999.25    -999.25    -999.25  105.07340    2.10880   -0.00900   15.49460    -999.25    -999.25    -999.25   93.88410  126.34240    -999.25
 2500.00000    1.03830    1.08470  -31.86690    1.28050    -999.25    -999.25    -999.25    -999.25    -999.25   50.60630    2.10480    0.07510   15.02390    -999.25    -999.25    -999.25   45.34960  141.83120    -999.25
 2550.00000    1.45840    1.59720  -58.27420    1.78140    -999.25    -999.25    -999.25    -999.25    -999.25   43.13280    2.16670    0.06190   16.08790    -999.25    -999.25    -999.25   39.24770  107.10870    -999.25
 2600.00000    1.77820    1.85200  -34.51700    1.94350    -999.25    -999.25    -999.25    -999.25    -999.25   53.02240    2.24130    0.02230   16.20740    -999.25    -999.25    -999.25   50.85760  113.21500    -999.25
 2650.00000    1.25660    1.33550  -27.98880    1.41190    -999.25    -999.25    -999.25    -999.25    -999.25   54.07650    2.22150    0.07260   16.31840    -999.25    -999.25    -999.25   51.47060  125.83680    -999.25
 2700.00000    1.67080    1.75670  -37.39500    1.94420    -999.25    -999.25    -999.25    -999.25    -999.25   59.69050    2.20900    0.03610   16.09260    -999.25    -999.25    -999.25   53.87840  113.79520    -999.25
 2750.00000    1.61990    1.66340  -35.68660    1.73640    -999.25    -999.25    -999.25    -999.25    -999.25   62.73480    2.20940    0.02110   15.96580    -999.25    -999.25    -999.25   59.93100  118.42220    -999.25
 2800.00000    1.75610    1.82570  -31.68650    2.07580    -999.25    -999.25    -999.25    -999.25    -999.25   71.85800    2.24220    0.02260   15.48640    -999.25    -999.25    -999.25   64.17180  108.77690    -999.25
 2850.00000    1.39240    1.52280  -57.98110    2.05920    -999.25    -999.25    -999.25    -999.25    -999.25   55.77290    2.19750    0.03770   16.36770    -999.25    -999.25    -999.25   50.35370  112.38080    -999.25
 2900.00000    1.24450    1.38820  -65.27980    1.88440    -999.25    -999.25    -999.25    -999.25    -999.25   53.34980    2.09840    0.01000   15.63030    -999.25    -999.25    -999.25   47.34040  112.72380    -999.25
 2950.00000    1.67960    1.73100  -27.51070    1.83750    -999.25    -999.25    -999.25    -999.25    -999.25   59.16720    2.27400    0.06290   15.84910    -999.25    -999.25    -999.25   51.88750  112.44100    -999.25
 3000.00000    1.14190    1.17280  -21.42780    1.19130    -999.25    -999.25    -999.25    -999.25    -999.25   68.62500    2.25710    0.05440   15.74590    -999.25    -999.25    -999.25   56.55330  125.36090    -999.25
 3050.00000    1.60680    1.64710  -25.57230    1.61300    -999.25    -999.25    -999.25    -999.25    -999.25   59.28530    2.23650    0.01100   15.89830    -999.25    -999.25    -999.25   49.92910  113.50090    -999.25
 3100.00000    1.20820    1.27600  -28.88920    1.51340    -999.25    -999.25    -999.25    -999.25    -999.25   66.51270    2.23880    0.03430   16.01660    -999.25    -999.25    -999.25   59.11640  120.66980    -999.25
 3150.00000    1.46170    1.53230  -48.32120    1.81770    -999.25    -999.25    -999.25    -999.25    -999.25   57.16830    2.23860    0.02010   16.46980    -999.25    -999.25    -999.25   55.68220  121.67540    -999.25
 3200.00000    1.53280    1.57390  -34.75310    1.74040    -999.25    -999.25    -999.25    -999.25    -999.25   60.80060    2.20860    0.01880   15.82680    -999.25    -999.25    -999.25   51.78750  111.61090    -999.25
 3250.00000    1.04970    1.13810  -26.84520    1.01540    -999.25    -999.25    -999.25    -999.25    -999.25   60.72070    2.25270    0.05740   15.53470    -999.25    -999.25    -999.25   61.25890  127.32130    -999.25
 3300.00000    1.56750    1.61000  -41.02530    1.77820    -999.25    -999.25    -999.25    -999.25    -999.25   49.89350    2.15190    0.02980   15.25750    -999.25    -999.25    -999.25   48.23480  113.63500    -999.25
 3350.00000    1.22840    1.31810  -24.67260    1.28150    -999.25    -999.25    -999.25    -999.25    -999.25   51.65290    2.13790    0.04890   15.34400    -999.25    -999.25    -999.25   49.37450  122.07460    -999.25
 3400.00000    1.36670    1.41300  -24.46660    1.50640    -999.25    -999.25    -999.25    -999.25    -999.25   49.44940    2.00770    0.09370   14.83010    -999.25    -999.25    -999.25   49.48930  127.71930    -999.25
 3450.00000    1.57230    1.62320  -24.28560    1.65330    -999.25    -999.25    -999.25    -999.25    -999.25   48.44100    2.11190    0.08020   14.88400    -999.25    -999.25    -999.25   46.76640  124.59830    -999.25
 3500.00000    2.04970    2.19700  -31.04040    3.66300    -999.25    -999.25    -999.25    -999.25    -999.25   46.02820    2.10940    0.06410   15.28160    -999.25    -999.25    -999.25   40.28940  111.78190    -999.25
 3550.00000    3.13660    3.22060  -40.87820    3.45820    -999.25    -999.25    -999.25    -999.25    -999.25   56.47290    2.11890    0.04020   15.34080    -999.25    -999.25    -999.25   49.68630  107.60590    -999.25
 3600.00000    3.22950    3.32080  -46.68910    3.41080    -999.25    -999.25    -999.25    -999.25    -999.25   45.23130    2.18730    0.05290   15.37260    -999.25    -999.25    -999.25   38.27210  105.59580    -999.25
 3650.00000    3.68170    3.78740  -28.41660    3.30800    -999.25    -999.25    -999.25    -999.25    -999.25   71.77330    2.35240    0.15630   15.73960    -999.25    -999.25    -999.25   60.16680  105.46160    -999.25
 3700.00000    3.96150    4.06350  -45.66900    4.14140    -999.25    -999.25    -999.25    -999.25    -999.25   34.90270    2.10970    0.00410   15.58300    -999.25    -999.25    -999.25   32.34030  108.37610    -999.25
 3750.00000    5.33750    5.60090  -29.79510    6.58130    -999.25    -999.25    -999.25    -999.25    -999.25   56.20510    2.34500    0.05640   15.40160    -999.25    -999.25    -999.25   47.04090   96.79360    -999.25
 3800.00000    6.59000    6.17560  -25.71380    5.77990    -999.25    -999.25    -999.25    -999.25    -999.25   38.34190    2.18510    0.03500   15.39770    -999.25    -999.25    -999.25   26.88610  103.56930    -999.25
 3850.00000    7.69420    6.90560  -24.92910    6.65580    -999.25    -999.25    -999.25    -999.25    -999.25   39.87130    2.22740    0.04960   15.51720    -999.25    -999.25    -999.25   35.21600  105.56990    -999.25
 3900.00000   10.11370    8.07920  -20.29330    7.22310    -999.25    -999.25    -999.25    -999.25    -999.25   28.61780    2.08670    0.03740   15.44330    -999.25    -999.25    -999.25   28.86210  112.71040    -999.25
 3950.00000   11.72260    8.76100  -20.94860    8.20570    -999.25    -999.25    -999.25    -999.25    -999.25   30.77250    2.13920    0.06200   15.12060    -999.25    -999.25    -999.25   29.88960  101.53180    -999.25
