~Version ---------------------------------------------------
VERS. 2.0 : CWLS log ASCII Standard -VERSION 2.0
WRAP. YES : MULTIPLE LINES PER DEPTH STEP
~Well ------------------------------------------------------
STRT.FT                        2500.0 : START DEPTH
STOP.FT                       18000.0 : STOP DEPTH
STEP.FT                      50.00000 : STEP LENGTH
NULL.                         -999.25 : NULL VALUE
COMP. UNION PACIFIC RESOURCES COMPANY : COMPANY
WELL.       UPR T-BAR-X KING COBRA #1 : WELL
FLD .                         WILDCAT : FIELD
LOC .                                 : LOCATION
CNTY.                            LEON : COUNTY
STAT.                           TEXAS : STATE
CTRY.        UNITED STATES OF AMERICA : COUNTRY
SRVC.                    Schlumberger : SERVICE COMPANY
DATE.                     05-Nov-1997 : LOGDATE
API .                  42289312660000 : API NUMBER
UWI .                  42289312660000 : UNIQUE WELL ID
SLAT.WGS84              31.2008912115 : SURFACE LATITUDE
SLON.WGS84             -96.2874133979 : SURFACE LONGITUDE
~Curve Information -----------------------------------------
DEPT    .FT    : DEPTH FEET
AT10ED  .OHMM  : 10 INCH RESISTIVITY TWO FOOT RESOLUTION FROM AIT LOG
AT20ED  .OHMM  : 20 INCH RESISTIVITY TWO FOOT RESOLUTION FROM AIT LOG
AT30ED  .OHMM  : 30 INCH RESISTIVITY TWO FOOT RESOLUTION FROM AIT LOG
AT60ED  .OHMM  : 60 INCH RESISTIVITY TWO FOOT RESOLUTION FROM AIT LOG
AT90ED  .OHMM  : 90 INCH RESISTIVITY TWO FOOT RESOLUTION FROM AIT LOG
CALDED  .IN    : CALIPER FROM DENSITY LOG [DEP ADJ TO GRRED]
CALRED  .IN    : CALIPER FROM RESISTIVITY LOG
CALWS   .IN    : CALIPER [2484 CALICAL 15888 CALRED]
CGRDED  .GAPI  : GAMMA RAY FROM DENSITY LOG [DEP ADJ TO GRRED]
CONDWS  .MMHO  : CONDUCTIVITY [1000/DRESWS]
DCALED  .IN    : DIFFERENTIAL CALIPER FROM DENSITY LOG
DCORWS  .G/C3  : DENSITY CORRECTION [2484 DRHOED 9946 DRHED 15888.5 DRHOED]
DENWS   .G/C3  : BULK DENSITY [M=2.71 F=1.0] [CALCULATED FROM DPOWS]
DPHILSED.V/V   : DENSITY POROSITY [M=2.71 F=1.0] FROM DENSITY LOG [DEP ADJ TO GRRED]
DPOLSED .V/V   : DENSITY POROSITY HIGH RESOLUTION [M=2.71 F=1.0] FROM DENSITY LOG
DPOWS   .V/V   : DENSITY POROSITY [M=2.71 F=1.0] [2484 DPHILSED 9942 DPOLSED 15888 DPHILSED]
DRESWS  .OHMM  : DEEP RESISTIVITY [A2484 AT90ED 9948.5 IDPHED 15892 LLDED]
DRHED   .G/C3  : DENSITY CORRECTION
DRHOED  .G/C3  : DENSITY CORRECTION FROM DENSITY LOG [DEP ADJ TO GRRED]
DTCOED  .US/F  : DELTA TIME COMPRESSIONAL FROM SONIC LOG [DEP ADJ TO GRRED]
DTED    .US/F  : DELTA TIME FROM SONIC LOG
DTLED   .US/F  : DELTA TIME LONG SPACING FROM SONIC LOG
DTLFED  .US/F  : DELTA TIME LONG SPACING FAR DETECTOR FROM SONIC LOG
DTLNED  .US/F  : DELTA TIME LONG SPACING NEAR DETECTOR FROM SONIC LOG
DTSMED  .US/F  : DELTA TIME SHEAR WAVE FROM SONIC LOG [DEP ADJ TO GRRED]
DTSWS   .US/F  : DELTA TIME SHEAR [DTSMED]
DTWS    .US/F  : DELTA TIME [2484 DTLNED 10155.5 DTLFED 10297.5 DTLNED 10506.5 DTLFED 10628.5 DTLNED 10694 DTLFED 10859 DTLNED 11620 DTLFED 13285.5 DTLNED 14723 DTLFED 15057 DTLNED 15798 DTLFED 15889.5 DTED 15912.5 DTCOED]
GRRED   .GAPI  : GAMMA RAY FROM RESISTIVITY LOG
GRSED   .GAPI  : GAMMA RAY FROM SONIC LOG [DEP ADJ TO GRRED]
GRWS    .GAPI  : GAMMA RAY [2484 GRRED 9881.5 GRREDNRM 9946 GRRED 15728.5 GRSEDNRM 15878 CGRDED 16070 GRRED]
IDPHED  .OHMM  : INDUCTION DEEP PHASE RESISTIVITY
IMPHED  .OHMM  : INDUCTION MEDIUM PHASE RESISTIVITY
LLDED   .OHMM  : LATEROLOG DEEP RESISTIVITY
LLSED   .OHMM  : LATEROLOG SHALLOW RESISTIVITY
MRESWS  .OHMM  : MEDIUM RESISTIVITY [2484 AT30ED 9949.5 IMPHED]
NPHILSED.V/V   : NEUTRON POROSITY LIMESTONE FROM DENSITY LOG [DEP ADJ TO GRRED]
NPOWS   .V/V   : NEUTRON POROSITY LIMESTONE [2484 NPHILSED 15780.5 NPHILNRM 15883.5 NPHILSED]
PEFED   .B/E   : PHOTOELECTRIC FACTOR FROM DENSITY LOG
PEFLED  .B/E   : PHOTOELECTRIC FACTOR FROM DENSITY LOG
PEFWS   .B/E   : PHOTOELECTRIC FACTOR [2484 PEFED 9952.5 PEFLED]
RESED   .OHMM  : SYNTHETIC RESISTIVITY
SFLUED  .OHMM  : SPHERICALLY FOCUSED LOG RESISTIVITY
SPHILSED.V/V   : SONIC POROSITY FROM SONIC LOG [DEP ADJ TO GRRED]
SPOWS   .V/V   : SONIC POROSITY [CAL FR DTWS; M= 47.6, F=189]
SPRED   .MV    : SPONTANEOUS POTENTIAL FROM RESISTIVITY LOG [SHIFTS ARE REMOVED]
SPWS    .MV    : SPONTANEOUS POTENTIAL [BASELINE 0 MV] [SPRED]
SRESWS  .OHMM  : SHALLOW RESISTIVITY [2484 AT10ED 9945.5 SFLUED 15891.5 LLSED]
TENDED  .LBF   : TENSION FROM DENSITY LOG [DEP ADJ TO GRRED]
TENRED  .LBF   : TENSION FROM RESISTIVITY LOG
~Params ----------------------------------------------------
PD  .                     GL : PERMANENT DATUM
EPD .FT                  348 : ELEVATION PERMANENT DATUM
LMF .                     KB : LOG MEASURED FROM
DAPD.FT                   28 : FEET ABOVE PERMANENT DATUM
DMF .                     KB : DRILLING MEASURED FROM
EKB .FT                  376 : KELLY BUSHING
EDF .FT                  374 : DRILLING FLOOR
EGL .FT                  348 : GROUND LEVEL
DATE.               11/05/97 : RUN DATE
RUN .                      3 : RUN NUMBER
DD  .FT                18038 : DEPTH DRILLER
DL  .FT                18024 : DEPTH LOGGER
BLI .FT                 1800 : BOTTOM LOG INTERVAL
TLI .FT                15888 : TOP LOG INTERVAL
CS  .IN                7.625 : CASING SIZE
CBD .FT                15888 : CASING BOTTOM DRILLER
CBL .FT                15888 : CASING BOTTOM LOGGER
BS  .IN                    6 : BIT SIZE
BSD .FT                18038 : BIT SIZE AT DEPTH
DFT .                POLYMER : DRILLING FLUID TYPE
DFD .                   18.2 : DRILLING FLUID DENSITY
DFV .                     40 : DRILLING FLUID VISCOSITY
DFPH.                      9 : DRILLING FLUID PH
DFL .                    5.6 : DRILLING FLUID LOSS
MSS .       CIRCULATION TANK : MUD SAMPLE SOURCE
RMS .OHMM               1.14 : RESISTIVITY MUD SAMPLE
MST .DEGF                 90 : MUD SAMPLE TEMPERATURE
RMF .OHMM              0.969 : RESISTIVITY MUD FILTRATE SAMPLE
MFST.DEGF                 90 : MUD FILTRATE SAMPLE TEMPERATURE
RMC .OHMM              1.311 : RESISTIVITY MUD CAKE
MCST.DEGF                 90 : MUD CAKE SAMPLE TEMPERATURE
MFSS.             CALCULATED : MUD FILTRATE SAMPLE SOURCE
MCSS.             CALCULATED : MUD CAKE SAMPLE SOURCE
RMB .OHMM              0.278 : RESISTIVITY MUD AT BHT
TCS .HRS                2200 : TIME CIRCULATED STOPPED
TLAB.HRS                 445 : TIME LOGGER AT BOTTOM
LUN .                   8400 : LOGGING UNIT NUMBER
LUL .                   6450 : LOGGING UNIT LOCATION
ENGI.                SKRBICH : RECORDING ENGINEER
WITN.          BLANKE WEAVER : WITNESSED BY
CLNT.                A2DTECH : CLIENT CODE
ORIG.         1" 2" 5" PRINT : ORIGIN OF DATA
UWI .         42289312660000 : UNIQUE WELL ID
DICO. A2D Technologies, Inc. : DIGITIZING COMPANY
~Other -----------------------------------------------------
~ASCII -----------------------------------------------------
# ...
 6250.00000    5.16730    8.19620    9.46280   10.27400   11.73000    -999.25    -999.25   13.69270    -999.25   85.25150    1.44270    0.01310    2.58470    0.07330    -999.25    0.07330   11.73000    -999.25    0.01310    -999.25    -999.25    -999.25    -999.25    -999.25    -999.25    -999.25    -999.25   17.27100    -999.25   17.27100    -999.25    -999.25    -999.25    -999.25    9.46280    0.05360    0.05360    5.87340    -999.25    5.87340    5.87340    -999.25    -999.25    -999.25  -84.87120  -27.19010    5.16730    -999.25 2709.98100
 6300.00000    5.31020   11.43620    9.64210    9.06250    8.70040    -999.25    -999.25   13.57180    -999.25  114.93720    1.32180    0.00940    2.63390    0.04450    -999.25    0.04450    8.70040    -999.25    0.00940    -999.25    -999.25    -999.25    -999.25    -999.25    -999.25    -999.25    -999.25   17.48090    -999.25   17.48090    -999.25    -999.25    -999.25    -999.25    9.64210    0.04860    0.04860    5.42460    -999.25    5.42460    5.42460    -999.25    -999.25    -999.25  -85.75780  -29.27530    5.31020    -999.25 2751.80690
 6350.00000    3.89040    4.78180    6.91960   11.64430   13.84150    -999.25    -999.25   13.86190    -999.25   72.24650    1.61190    0.02810    2.53760    0.10080    -999.25    0.10080   13.84150    -999.25    0.02810    -999.25    -999.25    -999.25    -999.25    -999.25    -999.25    -999.25    -999.25   20.01160    -999.25   20.01160    -999.25    -999.25    -999.25    -999.25    6.91960    0.07170    0.07170    6.17070    -999.25    6.17070    6.17070    -999.25    -999.25    -999.25  -80.83860  -25.55470    3.89040    -999.25 2787.89090
 6400.00000    3.14210    4.63010    4.21890    3.67700    3.16160    -999.25    -999.25   13.19830    -999.25  316.29550    0.94830    0.01660    2.61660    0.05460    -999.25    0.05460    3.16160    -999.25    0.01660    -999.25    -999.25    -999.25    -999.25    -999.25    -999.25    -999.25    -999.25   24.36650    -999.25   24.36650    -999.25    -999.25    -999.25    -999.25    4.21890    0.05680    0.05680    5.65460    -999.25    5.65460    5.65460    -999.25    -999.25    -999.25  -68.96320  -14.87790    3.14210    -999.25 2776.22050
 6450.00000    5.64810    8.69270    8.88470    8.97700    9.12240    -999.25    -999.25   13.19140    -999.25  109.62030    0.94140    0.00240    2.65990    0.02930    -999.25    0.02930    9.12240    -999.25    0.00240    -999.25    -999.25    -999.25    -999.25    -999.25    -999.25    -999.25    -999.25   19.10890    -999.25   19.10890    -999.25    -999.25    -999.25    -999.25    8.88470    0.05090    0.05090    5.27090    -999.25    5.27090    5.27090    -999.25    -999.25    -999.25  -76.06520  -23.17840    5.64810    -999.25 2784.90380
 6500.00000    6.40390   13.03080   11.97180   10.58090    9.26250    -999.25    -999.25   13.15670    -999.25  107.96220    0.90670    0.00600    2.59610    0.06660    -999.25    0.06660    9.26250    -999.25    0.00600    -999.25    -999.25    -999.25    -999.25    -999.25    -999.25    -999.25    -999.25   25.97140    -999.25   25.97140    -999.25    -999.25    -999.25    -999.25   11.97180    0.08360    0.08360    5.90920    -999.25    5.90920    5.90920    -999.25    -999.25    -999.25  -70.91400  -19.22580    6.40390    -999.25 2839.41460
 6550.00000    8.39920   16.15480   14.31310   11.75360   11.13480    -999.25    -999.25   12.79400    -999.25   89.80850    0.54400    0.00200    2.56690    0.08370    -999.25    0.08370   11.13480    -999.25    0.00200    -999.25    -999.25    -999.25    -999.25    -999.25    -999.25    -999.25    -999.25   22.78420    -999.25   22.78420    -999.25    -999.25    -999.25    -999.25   14.31310    0.06570    0.06570    5.84300    -999.25    5.84300    5.84300    -999.25    -999.25    -999.25  -70.21490  -19.72530    8.39920    -999.25 2832.70410
 6600.00000    5.50280    8.01900    6.27650    5.59520    5.20300    -999.25    -999.25   12.53670    -999.25  192.19680    0.28670    0.01720    2.62600    0.04910    -999.25    0.04910    5.20300    -999.25    0.01720    -999.25    -999.25    -999.25    -999.25    -999.25    -999.25    -999.25    -999.25   30.88700    -999.25   30.88700    -999.25    -999.25    -999.25    -999.25    6.27650    0.06180    0.06180    6.14160    -999.25    6.14160    6.14160    -999.25    -999.25    -999.25  -61.00420  -11.71320    5.50280    -999.25 2860.41410
 6650.00000    8.65420   19.76770   16.16730   15.58260   15.12270    -999.25    -999.25   12.63330    -999.25   66.12580    0.38330    0.00790    2.64520    0.03790    -999.25    0.03790   15.12270    -999.25    0.00790    -999.25    -999.25    -999.25    -999.25    -999.25    -999.25    -999.25    -999.25   32.75360    -999.25   32.75360    -999.25    -999.25    -999.25    -999.25   16.16730    0.03200    0.03200    5.50880    -999.25    5.50880    5.50880    -999.25    -999.25    -999.25  -72.00960  -23.91710    8.65420    -999.25 2863.41460
 6700.00000   10.45300   22.62370   25.51730   26.51100   28.09880    -999.25    -999.25   12.63070    -999.25   35.58870    0.38070   -0.00510    2.65100    0.03450    -999.25    0.03450   28.09880    -999.25   -0.00510    -999.25    -999.25    -999.25    -999.25    -999.25    -999.25    -999.25    -999.25   25.10060    -999.25   25.10060    -999.25    -999.25    -999.25    -999.25   25.51730    0.01690    0.01690    5.41440    -999.25    5.41440    5.41440    -999.25    -999.25    -999.25  -75.23860  -28.34470   10.45300    -999.25 2901.31230
 6750.00000   13.98410   34.80350   34.00180   32.36170   29.04690    -999.25    -999.25   12.83610    -999.25   34.42710    0.58610    0.00480    2.67360    0.02130    -999.25    0.02130   29.04690    -999.25    0.00480    -999.25    -999.25    -999.25    -999.25    -999.25    -999.25    -999.25    -999.25   31.75380    -999.25   31.75380    -999.25    -999.25    -999.25    -999.25   34.00180    0.02790    0.02790    5.02200    -999.25    5.02200    5.02200    -999.25    -999.25    -999.25  -76.37460  -30.67930   13.98410    -999.25 2917.14600
 6800.00000    6.35190    9.46540    9.72860   10.00860   10.31570    -999.25    -999.25   12.80380    -999.25   96.93960    0.55380   -0.00700    2.64930    0.03550    -999.25    0.03550   10.31570    -999.25   -0.00700    -999.25    -999.25    -999.25    -999.25    -999.25    -999.25    -999.25    -999.25   43.64450    -999.25   43.64450    -999.25    -999.25    -999.25    -999.25    9.72860    0.04320    0.04320    5.20120    -999.25    5.20120    5.20120    -999.25    -999.25    -999.25  -76.86680  -32.37010    6.35190    -999.25 2971.08450
 6850.00000    4.72410    6.82340    6.30990    5.99780    5.90890    -999.25    -999.25   12.99400    -999.25  169.23620    0.74400    0.00770    2.67990    0.01760    -999.25    0.01760    5.90890    -999.25    0.00770    -999.25    -999.25    -999.25    -999.25    -999.25    -999.25    -999.25    -999.25   38.79060    -999.25   38.79060    -999.25    -999.25    -999.25    -999.25    6.30990    0.10450    0.10450    4.61280    -999.25    4.61280    4.61280    -999.25    -999.25    -999.25  -71.23130  -27.93320    4.72410    -999.25 2948.64620
 6900.00000    5.98810    9.00440    7.03490    6.65640    6.20530    -999.25    -999.25   13.26140    -999.25  161.15260    1.01140    0.00040    2.65360    0.03300    -999.25    0.03300    6.20530    -999.25    0.00040    -999.25    -999.25    -999.25    -999.25    -999.25    -999.25    -999.25    -999.25   39.46550    -999.25   39.46550    -999.25    -999.25    -999.25    -999.25    7.03490    0.07580    0.07580    5.17440    -999.25    5.17440    5.17440    -999.25    -999.25    -999.25  -69.27240  -27.17280    5.98810    -999.25 2951.43040
 6950.00000    1.82490    3.29690    2.45640    2.16680    2.06530    -999.25    -999.25   14.15230    -999.25  484.19120    1.90230   -0.00070    2.11050    0.35060    -999.25    0.35060    2.06530    -999.25   -0.00070    -999.25    -999.25    -999.25    -999.25    -999.25    -999.25    -999.25    -999.25   57.82790    -999.25   57.82790    -999.25    -999.25    -999.25    -999.25    2.45640    0.34900    0.34900    7.91700    -999.25    7.91700    7.91700    -999.25    -999.25    -999.25  -74.14870  -33.24770    1.82490    -999.25 2972.11040
