~Version ---------------------------------------------------
VERS. 2.0 : CWLS log ASCII Standard -VERSION 2.0
WRAP.  NO : ONE LINE PER DEPTH STEP
~Well ------------------------------------------------------
STRT.F                    2500.0 : START DEPTH
STOP.F                   10100.0 : STOP DEPTH
STEP.F                  50.00000 : STEP LENGTH
NULL.                    -999.25 : NULL VALUE
COMP. CHAMPLIN PETROLEUM COMPANY : COMPANY
WELL.          HERMAN SCHULTZ #1 : WELL
FLD .                   GIDDINGS : FIELD
LOC .                            : LOCATION
CNTY.                   BURLESON : COUNTY
STAT.                      TEXAS : STATE
CTRY.   UNITED STATES OF AMERICA : COUNTRY
SRVC.                            : SERVICE COMPANY
DATE.                            : LOGDATE
API .             42051316590000 : API NUMBER
UWI .             42051316590000 : UNIQUE WELL ID
SLAT.WGS84         30.3586797556 : SURFACE LATITUDE
SLON.WGS84        -96.6025693505 : SURFACE LONGITUDE
~Curve Information -----------------------------------------
DEPT.F                 : 
DT  .US/F 60 520 00 00 : INTERVAL TRANSIT TIME
DTL .US/F 60 523 00 00 : ACOUSTIC TRANSIT TIME SLOWNESS, LONG SPACING
CALD.IN   45 280 60 00 : CALIPER FROM DENSITY LOG
RHOB.G/C3 45 350 01 00 : BULK DENSITY
DRHO.G/C3 45 356 01 00 : DENSITY CORRECTION
DCAL.IN   07 280 30 00 : DIFFERENTIAL CALIPER
NPHI.DEC  42 890 03 00 : NEUTRON POROSITY SANDSTONE
SPR .MV   07 010 01 00 : SPONTANEOUS POTENTIAL FROM RES. LOG
GRR .GAPI 07 310 01 00 : GAMMA RAY
RILM.OHMM 07 120 44 00 : RED. INDUCTION LOG MEDIUM
RILD.OHMM 07 120 46 00 : RES. INDUCTION LOG DEEP
RFOC.OHMM 07 220 01 00 : RES. FOCUSED LOG
~Params ----------------------------------------------------
EKB .F                  294.0 : Kelly bushing
EGL .F                  276.0 : Ground level
EDF .F                  293.0 : Drilling floor
EPD .F                  276.0 : Permanent datum
TD  .F                10080.0 : Total depth
DATE.             14-OCT-1981 : Date logged
CLNT.                 A2DTECH : Client Code
SL  . 1695' FSEL & 4700' FSWL : Surface Location
PD  .                      GL : Permanent Datum
LMF .                      KB : Log Measured From
DMF .                      KB : Drilling Measured From
DAPD.F                     18 : Feet Above Permanent Datum
DD  .F                  10080 : Depth driller
DL  .F                  10079 : Depth logger
BLI .F                  10073 : Bottom log interval
TLI .F                   9159 : Top log interval
CS1 .IN                     7 : Casing size
CBD1.              7" @ 9170' : Casing driller 1
CBL1.F                   9159 : Casing logger 1
BS1 .IN                 6.125 : Bit size
BSD1.F                  10080 : Depth drilled with bit1
DFT .                   BENEX : Type fluid in hole
DFD .                     9.3 : Density
DFV .                      40 : Viscosity
DFPH.                     9.0 : pH
DFL .                     9.0 : Fluid loss
MSS .                    TANK : Source of sample
RMS .OHMM                0.67 : Rm
RMF .OHMM                0.47 : Rmf
RMC .OHMM                 1.0 : Rmc
MFSS.                    CALC : Source Rmf.
MCSS.                    CALC : Source Rmc.
RMB .OHMM               0.305 : Rm. at BHT
BHT .F                    223 : BHT.
TCS .HRS                 1900 : Time Circ. stopped
TLAB.HRS                   15 : Time logger at bottom
LUN .                    8262 : Logging unit number
LUL .                 BRENHAM : Logging unit location
ENGI.     GILLILAND/PRIESTLEY : Recorded By
WITN.              DALE VODAK : Witnessed by
ORIG.                5" PRINT : Origin of data
UWI .          42051316590000 : Unique Well ID
DICO.  A2D TECHNOLOGIES, INC. : Digitizing Company
~Other -----------------------------------------------------
~ASCII -----------------------------------------------------
# ...
 8100.00000    -999.25    -999.25    -999.25    2.60000    0.02000    1.65100    0.13100  -34.62200   36.48800    4.06000    4.26000    3.81700
 8150.00000    -999.25    -999.25    -999.25    -999.25    -999.25    -999.25    -999.25  -35.53000   35.23700    4.58800    4.24500    4.14700
 8200.00000    -999.25    -999.25    -999.25    -999.25    -999.25    -999.25    -999.25  -30.40100   42.76200    3.48200    3.34400    3.42800
 8250.00000    -999.25    -999.25    -999.25    -999.25    -999.25    -999.25    -999.25  -26.33900   64.09200    2.24300    2.18200    2.66600
 8300.00000    -999.25    -999.25    -999.25    -999.25    -999.25    -999.25    -999.25  -27.81400   53.40400    3.04500    3.10000    2.85700
 8350.00000    -999.25    -999.25    -999.25    -999.25    -999.25    -999.25    -999.25  -26.55200   62.56300    2.14000    2.04200    2.40400
 8400.00000    -999.25    -999.25    -999.25    -999.25    -999.25    -999.25    -999.25  -26.51400   58.66800    3.06400    2.89500    2.98000
 8450.00000    -999.25    -999.25    -999.25    -999.25    -999.25    -999.25    -999.25  -25.29200   59.75400    2.69300    2.51100    2.81000
 8500.00000    -999.25    -999.25    -999.25    -999.25    -999.25    -999.25    -999.25  -24.80100   70.05500    3.06100    3.08900    2.38800
 8550.00000    -999.25    -999.25    -999.25    -999.25    -999.25    -999.25    -999.25  -19.35600   60.51600    2.44600    2.38500    2.78700
 8600.00000    -999.25    -999.25    -999.25    -999.25    -999.25    -999.25    -999.25  -18.71900   59.37000    2.59100    2.54600    2.83400
 8650.00000    -999.25    -999.25    -999.25    -999.25    -999.25    -999.25    -999.25  -21.71800   77.59600    1.60100    1.57200    2.02500
 8700.00000    -999.25    -999.25    -999.25    -999.25    -999.25    -999.25    -999.25  -17.96900   73.10400    1.80000    1.77900    2.15800
 8750.00000    -999.25    -999.25    -999.25    -999.25    -999.25    -999.25    -999.25  -15.11500   71.92800    2.03700    2.00000    2.32300
 8800.00000    -999.25    -999.25    -999.25    -999.25    -999.25    -999.25    -999.25  -15.83500   76.21200    1.79200    1.75700    2.14300
 8850.00000    -999.25    -999.25    -999.25    -999.25    -999.25    -999.25    -999.25  -13.72200   65.88700    2.15800    2.11800    2.46900
 8900.00000    -999.25    -999.25    -999.25    -999.25    -999.25    -999.25    -999.25  -14.43100   72.02700    1.81200    1.78000    2.16100
 8950.00000    -999.25    -999.25    -999.25    -999.25    -999.25    -999.25    -999.25  -14.12500   73.16500    1.75700    1.72500    2.08000
 9000.00000    -999.25    -999.25    -999.25    -999.25    -999.25    -999.25    -999.25  -12.49900   77.44900    1.95400    1.91900    2.18200
 9050.00000    -999.25    -999.25    -999.25    -999.25    -999.25    -999.25    -999.25  -12.37200   74.82500    1.76200    1.82800    2.17800
 9100.00000    -999.25    -999.25    -999.25    -999.25    -999.25    -999.25    -999.25  -10.17800   77.07700    1.79500    1.89200    2.29700
 9150.00000   42.68900   63.60600    6.19700    2.39400    -999.25    -999.25    0.32300  -10.16700   73.40800    2.13500    2.20100    2.50000
 9200.00000   65.12600   65.63100    7.09400    2.59200    0.20100    -999.25    0.08600  -16.40000   45.28500   12.22100   10.86700   20.07300
 9250.00000   61.74300   62.21100    6.93700    2.61600    0.09700    -999.25    0.06800  -16.98700   43.47100   19.01600   18.50000   28.22500
 9300.00000   64.30200   65.19900    6.53900    2.60900    0.02400    -999.25    0.10500  -18.83500   39.59300   20.86600   18.65600   18.50100
 9350.00000   61.50000   62.23000    6.56700    2.49900    0.01000    -999.25    0.09100  -30.00400   57.26800   27.52700   23.48300   40.66300
 9400.00000   62.03700   61.23300    7.37000    2.38500    0.13000    -999.25    0.08600  -19.14400   25.25100   16.73900   25.76400   21.42400
 9450.00000   68.98400   67.59000    6.54900    2.73400    0.00700    -999.25    0.21900   -9.00300   56.09000   18.64300   15.18900   37.91500
 9500.00000   98.86300   99.86100   12.87100    2.49200    0.15300    -999.25    0.32500   -2.25600   91.09800    1.88500    2.07900    2.81300
 9550.00000   97.81100   98.52200   14.63100    2.46100    0.14000    -999.25    0.37500   -3.63800   86.54300    3.06400    4.03500    5.31300
 9600.00000   96.57400   97.76200   11.03100    2.51700    0.16400    -999.25    0.34100   -1.45700   97.78100    2.28500    2.02800    3.36800
 9650.00000   78.14700   78.96100    6.71400    2.56700    0.03200    -999.25    0.23800   -0.32700   77.93100   10.11900    8.48200   17.03400
 9700.00000   90.79800   92.20100   11.46700    2.08300    0.09000    -999.25    0.32400   -0.57700   86.89400    4.48500    5.77000    9.55700
 9750.00000   59.61300   60.61800    7.12700    2.66800    0.01800    -999.25    0.03800   -1.76800   20.22400   36.81000   32.82500   75.33600
 9800.00000   50.85200   51.37700    7.03400    2.69500    0.04200    -999.25    0.01700  -14.92100   18.13400   35.48400   56.16100   53.54600
 9850.00000   51.30800   52.01700    7.09000    2.72500    0.02700    -999.25    0.01900   -1.85500   20.20000   68.43500   92.12500  143.95200
 9900.00000   50.45800   51.14300    6.65000    2.71500    0.02700    -999.25    0.01400   -0.89900   15.42300  144.77800   94.69500  165.67400
 9950.00000   53.62000   53.73900    6.40300    2.71500    0.02000    -999.25    0.02800    1.86900   22.99800   43.82000   39.97900   46.47700
 10000.00000   64.64000   65.25300    6.54700    2.64400    0.02500    -999.25    0.09800   11.01400   67.89000    8.97100    9.21100   11.37700
 10050.00000    -999.25    -999.25    6.11900    2.71900    0.14000    -999.25    0.02100  -87.88400    -999.25   11.41700   24.28300   40.53700
 10100.00000    -999.25    -999.25    -999.25    -999.25    -999.25    -999.25    -999.25 -110.94900    -999.25    -999.25    -999.25    -999.25
