~Version ---------------------------------------------------
VERS. 2.0 : CWLS log ASCII Standard -VERSION 2.0
WRAP. YES : Multiple lines per depth step
~Well ------------------------------------------------------
STRT.ft                   3900.0 : START DEPTH
STOP.ft                   8100.0 : STOP DEPTH
STEP.ft                 50.00000 : STEP LENGTH
NULL.                    -999.25 : NULL VALUE
COMP. CHAMPLIN PETROLEUM COMPANY : COMPANY
WELL.   HENRY J. KUCHERA UNIT #1 : WELL
FLD .                   GIDDINGS : FIELD
LOC .                            : LOCATION
CNTY.                   BURLESON : COUNTY
STAT.                      TEXAS : STATE
CTRY.   UNITED STATES OF AMERICA : COUNTRY
SRVC.               Schlumberger : SERVICE COMPANY
DATE.                27-Aug-1980 : LOGDATE
API .             42051309040000 : API NUMBER
UWI .             42051309040000 : UNIQUE WELL ID
SLAT.WGS84         30.4711564964 : SURFACE LATITUDE
SLON.WGS84        -96.6819221784 : SURFACE LONGITUDE
~Curve Information -----------------------------------------
DEPT    .ft    : Depth Curve
CALWS   .IN    : CALIPER [DCALED + BITS]
CONDWS  .MMHO  : CONDUCIVITY [1000/DRESWS]
DCALED  .IN    : DIFFERENTIAL CALIPER FROM DIL-SFL-CNFD LOG
DCORWS  .G/C3  : DENSITY CORRECTION [DRHOED]
DENWS   .G/C3  : FORMATION BULK DENSITY [CALCULATED FROM DPOWS, M=2.71 F=1]
DPHILSED.V/V   : DENSITY POROSITY LIMESTONE [M=2.71 F=1.0] FROM DIL-SFL-CNFD LOG
DPHISSED.V/V   : DENSITY POROSITY SANDSTONE [M=2.65 F=1.0] FROM DIL-SFL-CNFD LOG
DPOWS   .V/V   : DENSITY POROSITY LIMESTONE  [DPHISSED  CONVERTED TO LIMESTONE MATRIX M=2.71 F=1.0 & SPL. TO DPHILSED @ 6290']
DRESWS  .OHMM  : DEEP RESISTIVITY [ILDED]
DRHOED  .G/C3  : BULK DENSITY CORRECTION FROM DIL-SFL-CNFD LOG
GRRED   .GAPI  : GAMMA RAY FROM DIL-SFL-CNFD LOG
GRWS    .GAPI  : GAMMA RAY [GRRED] CSG < 3904'
ILDED   .OHMM  : DEEP INDUCTION FROM DIL-SFL-CNFD LOG
ILMED   .OHMM  : MEDIUM INDUCTION FROM DIL-SFL-CNFD LOG
MRESWS  .OHMM  : MEDIUM RESISTIVITY [ILMED]
NPHILSED.V/V   : NEUTRON POROSITY LIMESTONE FROM DIL-SFL-CNFD LOG
NPHISSED.V/V   : NEUTRON POROSITY SANDSTONE FROM DIL-SFL-CNFD LOG
NPOWS   .V/V   : NEUTRON POROSITY LIMESTONE [NPHISSED MATRIX CONVERSION FOR LIMESTONE & SPL. TO NPHILSED @ 6290']
SFLUED  .OHMM  : SHALLOW FOCUSED RESISTIVITY FROM DIL-SFL-CNFD LOG
SPRED   .MV    : SPONTANEOUS POTENTIAL FROM DIL-SFL-CNFD LOG
SPWS    .MV    : SPONTANEOUS POTENTIAL [BASELINE 0MV, SPRED]
SRESWS  .OHMM  : SHALLOW RESISTIVITY [SFLUED]
~Params ----------------------------------------------------
PD  .                     GL : PERMANENT DATUM
EPD .FT                  316 : ELEVATION PERMANENT DATUM
LMF .                     KB : LOG MEASURED FROM
DAPD.FT                   14 : FEET ABOVE PERMANENT DATUM
DMF .                     KB : DRILLING MEASURED FROM
EKB .FT                  330 : KELLY BUSHING
EDF .FT                  329 : DRILLING FLOOR
EGL .FT                  316 : GROUND LEVEL
DATE.               08/27/80 : RUN DATE
RUN .                      1 : RUN NUMBER
DD  .FT                 8135 : DEPTH DRILLER
DL  .FT                 8132 : DEPTH LOGGER
BLI .FT                 8126 : BOTTOM LOG INTERVAL
TLI .FT                 3904 : TOP LOG INTERVAL
CS  .IN                9.625 : CASING SIZE
CBD .FT                 3910 : CASING BOTTOM DRILLER
CBL .FT                 3904 : CASING BOTTOM LOGGER
BS  .IN                 8.75 : BIT SIZE
BSD .FT                 8135 : BIT SIZE AT DEPTH
DFT .                 BEN EX : DRILLING FLUID TYPE
DFD .                    9.8 : DRILLING FLUID DENSITY
DFV .                     50 : DRILLING FLUID VISCOSITY
DFPH.                    9.5 : DRILLING FLUID PH
DFL .                      6 : DRILLING FLUID LOSS
MSS .                   TANK : MUD SAMPLE SOURCE
RMS .OHMM               1.72 : RESISTIVITY MUD SAMPLE
MST .DEGF                 98 : MUD SAMPLE TEMPERATURE
RMF .OHMM               1.31 : RESISTIVITY MUD FILTRATE SAMPLE
MFST.DEGF                 98 : MUD FILTRATE SAMPLE TEMPERATURE
RMC .OHMM               2.62 : RESISTIVITY MUD CAKE
MCST.DEGF                 98 : MUD CAKE SAMPLE TEMPERATURE
MFSS.                      M : MUD FILTRATE SAMPLE SOURCE
MCSS.                      C : MUD CAKE SAMPLE SOURCE
RMB .OHMM               0.86 : RESISTIVITY MUD AT BHT
TCS .HRS                1500 : TIME CIRCULATED STOPPED
TLAB.HRS                2130 : TIME LOGGER AT BOTTOM
LUL .                BRENHAM : LOGGING UNIT LOCATION
ENGI.               GILLLAND : RECORDING ENGINEER
WITN.                  DRAKE : WITNESSED BY
CLNT.                A2DTECH : CLIENT CODE
ORIG.            2" 5" PRINT : ORIGIN OF DATA
UWI .         42051309040000 : UNIQUE WELL ID
DICO. A2D Technologies, Inc. : DIGITIZING COMPANY
~Other -----------------------------------------------------
~ASCII -----------------------------------------------------
 3900.00000    -999.25    -999.25    -999.25    -999.25    -999.25    -999.25    -999.25    -999.25    -999.25    -999.25   51.83970   51.83970    -999.25    -999.25    -999.25    -999.25    0.44350    0.40160    -999.25    -999.25    -999.25    -999.25
 3950.00000   12.08980  270.89260    3.33980    0.03770    2.29520    -999.25    0.21510    0.24260    3.69150    0.03770   76.01480   76.01480    3.69150    3.85500    3.85500    -999.25    0.36920    0.32580    3.36770  -34.30000  -16.98320    3.36770
 4000.00000   10.38270  287.03460    1.63270    0.02920    2.33090    -999.25    0.19340    0.22170    3.48390    0.02920   99.76060   99.76060    3.48390    3.73560    3.73560    -999.25    0.27790    0.23390    4.50380  -34.82260  -17.21110    4.50380
 4050.00000    8.79340  206.47930    0.04340    0.00290    2.21670    -999.25    0.26260    0.28850    4.84310    0.00290   72.28080   72.28080    4.84310    6.96790    6.96790    -999.25    0.30870    0.26480   11.03230  -48.38140  -30.47520   11.03230
 4100.00000    9.27730  361.54600    0.52730    0.03400    2.35790    -999.25    0.17700    0.20590    2.76590    0.03400  110.99890  110.99890    2.76590    2.90600    2.90600    -999.25    0.20390    0.16040    2.93770  -23.09080   -4.88990    2.93770
 4150.00000    9.39490  367.98530    0.64490    0.02960    2.38150    -999.25    0.16270    0.19210    2.71750    0.02960  100.18520  100.18520    2.71750    2.76950    2.76950    -999.25    0.29640    0.25240    2.89960  -22.53590   -4.06020    2.89960
 4200.00000   10.11270  379.56430    1.36270    0.03050    2.42560    -999.25    0.13600    0.16630    2.63460    0.03050  102.21140  102.21140    2.63460    2.69430    2.69430    -999.25    0.24130    0.19740    2.76750  -22.11560   -3.84110    2.76750
 4250.00000    9.72360  378.24340    0.97360    0.01780    2.38420    -999.25    0.16110    0.19050    2.64380    0.01780   92.47290   92.47290    2.64380    2.71370    2.71370    -999.25    0.22980    0.18600    3.19790  -23.75140   -5.67820    3.19790
 4300.00000    9.53800  361.82070    0.78800   -0.00240    2.38010    -999.25    0.16350    0.19290    2.76380   -0.00240   99.49920   99.49920    2.76380    2.83930    2.83930    -999.25    0.25100    0.20710    3.03430  -28.54670  -10.67470    3.03430
 4350.00000    9.75370  379.93920    1.00370    0.01320    2.41860    -999.25    0.14020    0.17040    2.63200    0.01320   99.11460   99.11460    2.63200    2.70290    2.70290    -999.25    0.25160    0.20770    2.55020  -21.82290   -4.15220    2.55020
 4400.00000   10.36890  469.85860    1.61890    0.09850    2.37620    -999.25    0.16590    0.19520    2.12830    0.09850  101.21420  101.21420    2.12830    2.18290    2.18290    -999.25    0.05130    0.01700    2.26900  -22.28900   -4.81950    2.26900
 4450.00000   12.25030  580.82130    3.50030    0.08290    2.41790    -999.25    0.14060    0.17080    1.72170    0.08290  110.75780  110.75780    1.72170    1.76890    1.76890    -999.25    0.26220    0.21820    1.81030  -21.64810   -4.37990    1.81030
 4500.00000   12.17770  498.75310    3.42770    0.04120    2.43690    -999.25    0.12910    0.15970    2.00500    0.04120   99.94720   99.94720    2.00500    2.07080    2.07080    -999.25    0.20020    0.15680    2.13680  -21.74510   -4.67820    2.13680
 4550.00000   12.56150  536.56700    3.81150    0.01380    2.43760    -999.25    0.12870    0.15930    1.86370    0.01380  108.32010  108.32010    1.86370    1.90500    1.90500    -999.25    0.20950    0.16590    1.95810  -21.28560   -4.41990    1.95810
 4600.00000   12.93620  648.84510    4.18620    0.01750    2.41370    -999.25    0.14320    0.17330    1.54120    0.01750  108.18370  108.18370    1.54120    1.58000    1.58000    -999.25    0.19740    0.15400    1.64220  -20.96520   -4.30080    1.64220
 4650.00000   13.25420  652.69890    4.50420    0.03960    2.40080    -999.25    0.15100    0.18080    1.53210    0.03960  112.33640  112.33640    1.53210    1.56090    1.56090    -999.25    0.17090    0.12790    1.61610  -22.42410   -5.96090    1.61610
 4700.00000   14.26550  697.59330    5.51550    0.10100    2.37830    -999.25    0.16470    0.19400    1.43350    0.10100  104.73810  104.73810    1.43350    1.46370    1.46370    -999.25    0.11000    0.06810    1.49180  -21.98360   -5.72170    1.49180
 4750.00000   13.65360  733.94500    4.90360    0.02330    2.34000    -999.25    0.18790    0.21640    1.36250    0.02330  112.38020  112.38020    1.36250    1.40800    1.40800    -999.25    0.31950    0.27560    1.55400  -20.77800   -4.71730    1.55400
 4800.00000   10.12300  611.20960    1.37300    0.10090    2.35480    -999.25    0.17890    0.20770    1.63610    0.10090  105.75910  105.75910    1.63610    1.68930    1.68930    -999.25    0.13750    0.09510    1.78550  -19.83440   -3.97500    1.78550
 4850.00000   10.65950  760.34060    1.90950    0.10080    2.26450    -999.25    0.23360    0.26050    1.31520    0.10080   94.63070   94.63070    1.31520    1.36550    1.36550    -999.25    0.17630    0.13320    1.56320  -19.89140   -4.23330    1.56320
 4900.00000   12.85880 1328.55060    4.10880    0.09560    2.11730    -999.25    0.32280    0.34660    0.75270    0.09560   90.15260   90.15260    0.75270    0.78100    0.78100    -999.25    0.18010    0.13700    0.90130  -18.12160   -2.66470    0.90130
 4950.00000   10.42790  511.40430    1.67790    0.07570    2.33360    -999.25    0.19170    0.22010    1.95540    0.07570   95.53920   95.53920    1.95540    2.00090    2.00090    -999.25    0.14840    0.10590    2.09320  -23.69610   -8.44050    2.09320
 5000.00000   10.48740  608.53160    1.73740    0.09970    2.36410    -999.25    0.17330    0.20230    1.64330    0.09970   86.46510   86.46510    1.64330    1.69730    1.69730    -999.25    0.21920    0.17550    1.77690  -21.69400   -6.63960    1.77690
 5050.00000   10.68100  705.76610    1.93100    0.07320    2.11270    -999.25    0.32560    0.34930    1.41690    0.07320   80.88590   80.88590    1.41690    1.52220    1.52220    -999.25    0.26290    0.21890    1.44440  -24.31580   -9.46270    1.44440
 5100.00000   11.97930  843.02820    3.22930    0.10120    2.26590    -999.25    0.23280    0.25970    1.18620    0.10120   96.78090   96.78090    1.18620    1.23920    1.23920    -999.25    0.40720    0.36450    1.39800  -20.42350   -5.77160    1.39800
 5150.00000   12.55680  889.91720    3.80680    0.10220    2.15200    -999.25    0.30180    0.32630    1.12370    0.10220   84.36730   84.36730    1.12370    1.16210    1.16210    -999.25    0.41930    0.37680    1.25290  -20.38020   -5.92960    1.25290
 5200.00000   12.56410  931.01200    3.81410    0.09950    2.19530    -999.25    0.27560    0.30100    1.07410    0.09950   85.34560   85.34560    1.07410    1.11660    1.11660    -999.25    0.39910    0.35620    1.23590  -20.16330   -5.91400    1.23590
 5250.00000   10.47660  723.64140    1.72660    0.10010    2.34590    -999.25    0.18430    0.21290    1.38190    0.10010   89.49770   89.49770    1.38190    1.41290    1.41290    -999.25    0.35880    0.31530    1.49160  -19.03850   -4.99040    1.49160
 5300.00000   12.18550  997.70530    3.43550    0.09720    2.26230    -999.25    0.23500    0.26180    1.00230    0.09720   87.66940   87.66940    1.00230    1.03760    1.03760    -999.25    0.44270    0.40080    1.13930  -19.26380   -5.41700    1.13930
 5350.00000   11.87170  852.07910    3.12170    0.09960    2.24250    -999.25    0.24700    0.27340    1.17360    0.09960   89.07620   89.07620    1.17360    1.21410    1.21410    -999.25    0.38240    0.33920    1.30680  -19.89860   -6.25300    1.30680
 5400.00000   12.70720  914.16030    3.95720    0.09940    2.18210    -999.25    0.28360    0.30870    1.09390    0.09940   91.89020   91.89020    1.09390    1.12700    1.12700    -999.25    0.43750    0.39550    1.18100  -19.77510   -6.33080    1.18100
 5450.00000    9.19970  279.81420    0.44970    0.00130    2.55850    -999.25    0.05550    0.08860    3.57380    0.00130   59.38080   59.38080    3.57380    3.79630    3.79630    -999.25    0.22330    0.17960    4.13430  -18.42350   -5.18040    4.13430
