~Version ---------------------------------------------------
VERS. 2.0 : CWLS log ASCII Standard -VERSION 2.0
WRAP.  NO : ONE LINE PER DEPTH STEP
~Well ------------------------------------------------------
STRT.F                             300.0 : START DEPTH
STOP.F                           21950.0 : STOP DEPTH
STEP.F                          50.00000 : STEP LENGTH
NULL.                            -999.25 : NULL VALUE
COMP. PAN AMERICAN PETROLEUM CORPORATION : COMPANY
WELL.                  A. M. FOERSTER #1 : WELL
FLD .                            WILDCAT : FIELD
LOC .                                    : LOCATION
CNTY.                           LA SALLE : COUNTY
STAT.                              TEXAS : STATE
CTRY.           UNITED STATES OF AMERICA : COUNTRY
SRVC.                       Schlumberger : SERVICE COMPANY
DATE.                        20-Aug-1964 : LOGDATE
API .                     42283002040000 : API NUMBER
UWI .                     42283002040000 : UNIQUE WELL ID
SLAT.WGS84                 28.3371650608 : SURFACE LATITUDE
SLON.WGS84                -98.9649233845 : SURFACE LONGITUDE
~Curve Information -----------------------------------------
DEPT .F                 : 
ASN  .OHMM 05 041 16 00 : AMPLIFIED SHORT NORMAL RESISTIVITY
CILD .MMHO 05 110 46 00 : INDUCTION DEEP CONDUCTIVITY
SPR  .MV   05 010 01 00 : SPONTANEOUS POTENTIAL FROM RESISTIVITY
ILD  .OHMM 05 120 46 00 : INDUCTION DEEP RESISTIVITY
DT   .US/F 60 520 31 00 : DELTA-T (INTERVAL TRANSIT TIME)
CALS .IN   60 280 50 00 : CALIPER
GRN1 .GAPI 35 310 01 00 : GAMMA RAY
GRN2 .GAPI 35 310 01 00 : GAMMA RAY
GRN3 .GAPI 35 310 01 00 : GAMMA RAY
NEUT .NAPI 35 330 01 00 : NEUTRON
NEUT1.NAPI 35 330 01 00 : NEUTRON
~Params ----------------------------------------------------
PD  .                     GL : PERMANENT DATUM
EPD .F                   445 : ELEVATION PERMANENT DATUM
LMF .                     KB : LOG MEASURED FROM
DAPD.F                  28.5 : FEET ABOVE PERMANENT DATUM
DMF .                     KB : DRILLING MEASURED FROM
EKB .F                 473.5 : KELLING BUSHING
EDF .F                   471 : DRILLING FLOOR
EGL .F                   445 : GROUND LEVEL
DATE.               08/20/64 : RUN DATE
RUN .                     11 : RUN NUMBER
DD  .F                 21995 : DEPTH DRILLER
DL  .F                 21992 : DEPTH LOGGER
BLI .F                 21991 : BOTTOM LOG INTERVAL
TLI .F                 20005 : TOP LOG INTERVAL
CS  .IN                9.625 : CASING SIZE
CBD .F                 15993 : CASING BOTTOM DRILLER
CBL .F                 15993 : CASING BOTTOM LOGGER
BS  .IN                  8.5 : BIT SIZE
BSD .F                 21995 : BIT SIZE AT DEPTH
DFT .    XP 20 O E SPER CAUS : DRILLING FLUID TYPE
DFD .                   18.4 : DRILLING FLUID DENSITY
DFV .                     54 : DRILLING FLUID VISCOSITY
DFPH.                    8.9 : DRILLING FLUID PH
DFL .                      4 : DRILLING FLUID LOSS
MSS .                MUD PIT : MUD SAMPLE SOURCE
RMS .OHMM               0.15 : RESISTIVITY MUD SAMPLE
MST .F                   120 : MUD SAMPLE TEMPERATURE
RMF .OHMM              0.089 : RESISTIVITY MUD FILTRATE SAMPLE
MFST.F                    75 : MUD FILTRATE SAMPLE TEMPERATURE
RMC .OHMM               0.32 : RESISTIVITY MUD CAKE
MCST.F                    75 : MUD CAKE SAMPLE TEMPERATURE
MFSS.                      M : MUD FILTRATE SAMPLE SOURCE
MCSS.                      M : MUD CAKE SAMPLE SOURCE
RMB .OHMM              0.046 : RESISTIVITY MUD AT BHT
TCS .HRS                  10 : TIME CURCULATED STOPPED
LUN .                   4526 : LOGGING UNIT NUMBER
LUL .                    KEN : LOGGING UNIT LOCATION
ENGI.                  HARSH : RECORDING ENGINEER
WITN.          FREEMAN WALSH : WITNESSED BY
CLNT.                A2DTECH : CLIENT CODE
ORIG.               1" PRINT : ORIGIN OF DATA
UWI .         42283002040000 : UNIQUE WELL ID
DICO. A2D Technologies, Inc. : DIGITIZING COMPANY
~Other -----------------------------------------------------
~ASCII -----------------------------------------------------
# ...
 18450.00000    3.44300  247.21000  -18.84000    5.27030   76.40990    9.76960    -999.25    -999.25  189.25410    -999.25  851.89870
 18500.00000    3.86650  257.93680  -17.61040    4.24110   71.99830    8.91920    -999.25    -999.25  191.16560    -999.25  878.10880
 18550.00000    4.06080  198.10310  -23.88230    7.62670   67.97290    9.05390    -999.25    -999.25  170.06260    -999.25 1005.58060
 18600.00000    5.06370  235.06930  -16.49750    5.25130   70.79830    8.69210    -999.25    -999.25  178.16910    -999.25  782.79780
 18650.00000    5.20460  258.36870  -17.58570    5.60500   73.83700    8.33530    -999.25    -999.25  172.92520    -999.25  981.20810
 18700.00000    4.25020  287.92560  -20.41730    4.06750   74.85410    8.82290    -999.25    -999.25  169.99070    -999.25  899.47810
 18750.00000    4.69090  280.69210  -21.23630    4.12950   70.87890    8.45510    -999.25    -999.25  151.34210    -999.25 1074.67940
 18800.00000    4.22670  247.76780  -20.64280    5.88410   71.55820    8.24740    -999.25    -999.25  154.89210    -999.25  869.64560
 18850.00000    5.56030  247.15830  -21.16240    5.55550   69.49890    7.42560    -999.25    -999.25  165.17440    -999.25  924.53780
 18900.00000    7.16470  124.74820  -23.54690    9.07740   68.89970    7.25640    -999.25    -999.25  119.15530    -999.25 1021.18230
 18950.00000    3.43300  314.48580  -24.26720    6.20020   68.71070   11.18960    -999.25    -999.25  159.16340    -999.25  932.95700
 19000.00000    4.15560  174.85120  -37.50000   34.97020   67.79360   11.28590    -999.25    -999.25  170.14920    -999.25 1276.55650
 19050.00000    3.31840  309.95480  -34.43680    5.46880   76.70910   11.05990    -999.25    -999.25   45.07990    -999.25 1179.66710
 19100.00000    3.81160  192.58280  -32.66370    5.72920   70.21150   10.58080    -999.25    -999.25   44.68550    -999.25 1284.54500
 19150.00000    5.14940  133.74260  -29.26600    7.62650   68.57140   10.74550    -999.25    -999.25   45.97640    -999.25 1325.12370
 19200.00000   11.06130   14.13720  -31.54780   55.18100   55.40760    9.39820    -999.25    -999.25   46.96550    -999.25 1727.40750
 19250.00000    6.37520  144.09240  -26.00450    6.02680   64.30580    9.94990    -999.25    -999.25   53.34410    -999.25 1438.80530
 19300.00000    6.02370   72.54460  -28.29860   10.64580   60.67310    9.20850    -999.25    -999.25   43.84680    -999.25 1910.52670
 19350.00000    3.76910  231.67500  -23.44990    4.16670   72.91800   10.21570    -999.25    -999.25   59.88850    -999.25 1567.14720
 19400.00000    6.36770  122.76720  -20.38690    9.67260   62.73750    9.32340    -999.25    -999.25   43.14860    -999.25 1657.69870
 19450.00000    5.88940   47.51840  -24.96280   15.69950   61.54080    9.42400    -999.25    -999.25   20.63190    -999.25 1773.70830
 19500.00000    4.89320   99.95190  -33.45730    9.52520   65.29310    9.41320    -999.25    -999.25   28.55500    -999.25 1700.78080
 19550.00000    5.02000  202.00890  -26.69910    4.88500   68.69110    9.35330    -999.25    -999.25   32.35740    -999.25 1715.81410
 19600.00000    7.11170   43.15480  -31.25000   22.12710   63.36140    9.42810    -999.25    -999.25   35.46850    -999.25 1831.51670
 19650.00000    4.37460  197.54460  -26.71130    5.27060   67.38090    9.98210    -999.25    -999.25   75.08670    -999.25 1235.31530
 19700.00000    4.45440  212.54980  -24.47920    4.68750   71.81310   10.62570    -999.25    -999.25   78.61390    -999.25 1368.64870
 19750.00000    3.87630  193.21530  -29.14190    4.72470   63.71570   10.05690    -999.25    -999.25   87.25230    -999.25 1457.94310
 19800.00000    3.96710  186.01190  -28.37130    5.17760   71.05460   10.14250    -999.25    -999.25   95.37390    -999.25 1214.49450
 19850.00000    4.52890  158.21250  -31.42360    7.06850   63.40260    9.59290    -999.25    -999.25   95.85390    -999.25 1230.80250
 19900.00000    6.22820  110.24230  -20.81450    9.92080   64.02390    7.79740    -999.25    -999.25   38.81980    -999.25 1687.26720
 19950.00000    4.77820   95.23680  -17.06410   11.13560   62.57180    7.32110    -999.25    -999.25   58.85940    -999.25 1269.35300
 20000.00000    4.15550  162.08350  -18.22280   11.90480   63.25370    8.41740    -999.25    -999.25   49.43240    -999.25 1260.94090
 20050.00000    3.99590  192.15030  -15.47460    6.32420   63.67160    8.04580    -999.25    -999.25   69.69040    -999.25 1204.99600
 20100.00000    7.29450   52.95900  -18.92700   22.24980   53.43290    8.93910    -999.25    -999.25   26.32210    -999.25 1298.38950
 20150.00000   32.58590    6.51060  -13.63640   58.41830   51.70150    9.24320    -999.25    -999.25   12.90560    -999.25 2035.17580
 20200.00000   21.52470   31.02430  -17.35450   35.00190   51.40800    9.57350    -999.25    -999.25   30.39590    -999.25 1833.51350
 20250.00000   21.51750   25.41840  -18.35570   33.56780   40.05980    7.33630    -999.25    -999.25   20.43040    -999.25 2050.03000
 20300.00000   18.37570   19.34520  -19.37410   47.26600   51.76680    7.39980    -999.25    -999.25   19.92180    -999.25 1986.66670
 20350.00000   21.38410   42.53470  -23.91950   20.49850   53.28660    7.70160    -999.25    -999.25   17.37370    -999.25 1756.33630
 20400.00000   17.54860   61.01190  -34.51500   17.20220   52.98500    8.17500    -999.25    -999.25   14.11120    -999.25 1913.98660
 20450.00000   11.09870   50.76790  -35.43220   17.13620   54.89560    8.99830    -999.25    -999.25   17.12840    -999.25 1871.95100
 20500.00000   19.46680   33.11010  -39.76650   34.18810   79.97020    7.69680    -999.25    -999.25   18.08330    -999.25 2164.64380
 20550.00000   10.29640   63.66640  -45.21880   14.65770    -999.25    8.15370    -999.25    -999.25   12.28830    -999.25 2208.58840
 20600.00000   23.24090   31.99400  -54.77040   31.77700   48.35810    8.47880    -999.25    -999.25   18.36290    -999.25 2282.76270
 20650.00000    9.93570   42.28980  -60.13410   22.24710   40.02980    8.62760    -999.25    -999.25   25.97300    -999.25 2093.27000
 20700.00000   24.00600   17.11080  -71.53550   42.11310   49.63480    8.01890    -999.25    -999.25    5.28250    -999.25 1165.76490
 20750.00000    2.57120  235.49110  -66.09540    4.71190   59.01490    6.46550    -999.25    -999.25   20.48130    -999.25  692.37880
 20800.00000    1.52470  444.98010  -69.97250    2.97620   61.19400    7.53150    -999.25    -999.25   34.66070    -999.25  730.55930
 20850.00000    3.09440  451.45090  -66.84000    2.34350   63.22380    8.35940    -999.25    -999.25   31.04630    -999.25  858.93770
 20900.00000    8.40090   36.08630  -66.86510   19.64280   51.32810    6.40750    -999.25    -999.25   15.47680    -999.25 1328.32310
 20950.00000    7.51870   71.61460  -66.24440    9.03880   40.17920    7.77180    -999.25    -999.25   28.72930    -999.25 1098.04720
 21000.00000    6.21820  141.36900  -62.52130    7.86080   61.01490    8.58260    -999.25    -999.25   23.54060    -999.25 1104.01200
 21050.00000    4.84300  147.31000  -69.38670    7.36920   60.61930    8.14710    -999.25    -999.25   23.35460    -999.25 1086.11780
 21100.00000    6.66650   95.23750  -60.72980   12.40080   55.52540    7.63660    -999.25    -999.25   19.92530    -999.25 1349.80070
 21150.00000    6.76640  107.29240  -63.45010    7.98790   60.38810    6.73570    -999.25    -999.25   30.58300    -999.25 1158.89640
 21200.00000    6.55700  107.14290  -88.37700   10.11910   57.72400    7.93690    -999.25    -999.25   28.45140    -999.25 1197.07680
 21250.00000    6.51720  134.67260  -68.07000    8.81750   55.59520    8.35120    -999.25    -999.25   36.32880    -999.25 1092.91970
 21300.00000    5.34110  112.08940  -86.06560    7.98680   58.62690    9.43840    -999.25    -999.25   26.87660    -999.25 1055.37210
 21350.00000    6.48230  131.68910  -85.80480    8.70700   58.04480    9.61860    -999.25    -999.25   24.83680    -999.25 1077.74710
 21400.00000    7.98210   65.23060  -75.40980   15.47490   53.52250    9.69370    -999.25    -999.25   11.49180    -999.25 1187.53170
