~Version ---------------------------------------------------
VERS. 2.0 : CWLS log ASCII Standard -VERSION 2.0
WRAP.  NO : ONE LINE PER DEPTH STEP
~Well ------------------------------------------------------
STRT.F                        2000.0 : START DEPTH
STOP.F                       10200.0 : STOP DEPTH
STEP.F                      50.00000 : STEP LENGTH
NULL.                        -999.25 : NULL VALUE
COMP. UNION PACIFIC RESORCES COMPANY : COMPANY
WELL.             PILOT FISH UNIT #1 : WELL
FLD .                       GIDDINGS : FIELD
LOC .                                : LOCATION
CNTY.                            LEE : COUNTY
STAT.                          TEXAS : STATE
CTRY.       UNITED STATES OF AMERICA : COUNTRY
SRVC.                        Unknown : SERVICE COMPANY
DATE.                    02-Jan-1999 : LOGDATE
API .                 42287325030000 : API NUMBER
UWI .                 42287325030000 : UNIQUE WELL ID
SLAT.WGS84              30.101748567 : SURFACE LATITUDE
SLON.WGS84            -96.8997687586 : SURFACE LONGITUDE
~Curve Information -----------------------------------------
DEPT.F                 : 
RILM.OHMM 07 120 44 00 : RAW MEDIUM INDUCTION
RILD.OHMM 07 120 46 00 : ILD
GR  .GAPI 45 310 01 00 : GAMMA RAY
CALI.IN   45 280 60 00 : CALIPER
PE  .B/E  45 358 01 00 : 
ZCOR.G/C3 45 356 01 00 : DENSITY CORRECTION
CNCF.DEC  42 890 03 00 : NEUTRON POROSITY SAND
PORZ.DEC  45 890 12 00 : 
~Params ----------------------------------------------------
EKB .F                 398.0 : KELLY BUSHING
EGL .F                   373 : ELEVATION GROUND LEVEL
EDF .F                   397 : ELEVATION DERRICK FLOOR
EPD .F                   373 : ELEVATION PERMANENT DATUM
TD  .F               10250.0 : TOTAL DEPTH
DATE.            12-JAN-2000 : DATE LOGGED
CLNT.                A2DTECH : CLIENT CODE
SL  . 392' FSEL & 2572' FSWL : SURFACE LOCATION
PD  .                     GL : PERMANENT DATUM
LMF .                     KB : LOG MEASURED FROM
DMF .                     KB : DRILLING MEASURED FROM
DAPD.F                    25 : FEET ABOVE PERMANENT DATUM
DD  .F                 10250 : DEPTH DRILLER
DL  .F                 10225 : DEPTH LOGGER
BLI .F                 10223 : BOTTOM LOG INTERVAL
TLI .F                  2023 : TOP LOG INTERVAL
CS1 .IN                9.625 : CASING SIZE
CBD1.         9.625" @ 2025' : CASING DRILLER 1
CBL1.F                  2025 : CASING LOGGER 1
BS1 .IN                 8.75 : BIT SIZE
BSD1.F                 10250 : DEPTH DRILLED WITH BIT1
DFT .            WATER BASED : TYPE FLUID IN HOLE
DFD .                     10 : DENSITY
DFV .                     43 : VISCOSITY
DFPH.                    8.8 : PH
DFL .                    6.4 : FLUID LOSS
MSS .               FLOWLINE : SOURCE OF SAMPLE
RMS .OHMM               1.72 : RM
RMF .OHMM               1.25 : RMF
RMC .OHMM               2.15 : RMC
MFSS.                   MEAS : SOURCE RMF.
MCSS.                   CALC : SOURCE RMC.
RMB .OHMM               0.54 : RM. AT BHT
BHT .F                   238 : BHT.
TCS .HRS                   7 : TIME CIRC. STOPPED
LUN .                HL 6547 : LOGGING UNIT NUMBER
LUL .               VICTORIA : LOGGING UNIT LOCATION
ENGI.               S. SMART : RECORDED BY
WITN.           J. NORTHCOTT : WITNESSED BY
ORIG.            1" 5" PRINT : ORIGIN OF DATA
UWI .         42287325030000 : UNIQUE WELL ID
DICO. A2D TECHNOLOGIES, INC. : DIGITIZING COMPANY
~Other -----------------------------------------------------
~ASCII -----------------------------------------------------
# ...
 6000.00000    2.16400    2.17100   89.52200    -999.25    -999.25    -999.25    -999.25    -999.25
 6050.00000    1.88500    1.95300   91.52900    -999.25    -999.25    -999.25    -999.25    -999.25
 6100.00000    1.87800    1.88500   91.51500    -999.25    -999.25    -999.25    -999.25    -999.25
 6150.00000    1.77400    1.72200   95.33900    -999.25    -999.25    -999.25    -999.25    -999.25
 6200.00000    1.65300    1.69300   92.70700    -999.25    -999.25    -999.25    -999.25    -999.25
 6250.00000    1.80400    1.80400   89.41500    -999.25    -999.25    -999.25    -999.25    -999.25
 6300.00000    1.57400    1.65900   94.91200    -999.25    -999.25    -999.25    -999.25    -999.25
 6350.00000    1.43300    1.40100   88.98500    -999.25    -999.25    -999.25    -999.25    -999.25
 6400.00000    1.45400    1.48800   98.07300    -999.25    -999.25    -999.25    -999.25    -999.25
 6450.00000    1.38300    1.35700   84.88100    -999.25    -999.25    -999.25    -999.25    -999.25
 6500.00000    2.20300    2.21200   75.65400    -999.25    -999.25    -999.25    -999.25    -999.25
 6550.00000    1.49900    1.49900   71.19400    -999.25    -999.25    -999.25    -999.25    -999.25
 6600.00000    1.93700    1.93700   72.70400    -999.25    -999.25    -999.25    -999.25    -999.25
 6650.00000    1.03000    1.03400   90.76800    -999.25    -999.25    -999.25    -999.25    -999.25
 6700.00000    2.19400    2.16900   59.82500    -999.25    -999.25    -999.25    -999.25    -999.25
 6750.00000    2.31200    2.32300   59.61300    -999.25    -999.25    -999.25    -999.25    -999.25
 6800.00000    2.24200    2.24300   71.79700    -999.25    -999.25    -999.25    -999.25    -999.25
 6850.00000    1.66300    1.66300   74.65000    -999.25    -999.25    -999.25    -999.25    -999.25
 6900.00000    1.33300    1.34700   78.66900    -999.25    -999.25    -999.25    -999.25    -999.25
 6950.00000    1.50500    1.52600   77.59600    -999.25    -999.25    -999.25    -999.25    -999.25
 7000.00000    1.10700    1.10700   86.10100    -999.25    -999.25    -999.25    -999.25    -999.25
 7050.00000    1.43800    1.43800   83.62400    -999.25    -999.25    -999.25    -999.25    -999.25
 7100.00000    2.12900    2.12700   90.34100    -999.25    -999.25    -999.25    -999.25    -999.25
 7150.00000    1.94800    2.00100   88.62400    -999.25    -999.25    -999.25    -999.25    -999.25
 7200.00000    1.62800    1.61100   89.31200    -999.25    -999.25    -999.25    -999.25    -999.25
 7250.00000    1.44500    1.49500   85.73500    -999.25    -999.25    -999.25    -999.25    -999.25
 7300.00000    1.63600    1.63500  102.51700    -999.25    -999.25    -999.25    -999.25    -999.25
 7350.00000    1.66700    1.66600   91.86000    -999.25    -999.25    -999.25    -999.25    -999.25
 7400.00000    1.79900    1.81800   91.24100    -999.25    -999.25    -999.25    -999.25    -999.25
 7450.00000    1.40700    1.40400  101.67500    -999.25    -999.25    -999.25    -999.25    -999.25
 7500.00000    1.68400    1.70300  109.73600    -999.25    -999.25    -999.25    -999.25    -999.25
 7550.00000    1.53400    1.53400   88.96500    -999.25    -999.25    -999.25    -999.25    -999.25
 7600.00000    1.46400    1.46400   87.59200    -999.25    -999.25    -999.25    -999.25    -999.25
 7650.00000    1.60500    1.60300   95.54300    -999.25    -999.25    -999.25    -999.25    -999.25
 7700.00000    1.91300    1.87700   89.79700    -999.25    -999.25    -999.25    -999.25    -999.25
 7750.00000    1.74200    1.74200   92.68800    -999.25    -999.25    -999.25    -999.25    -999.25
 7800.00000    2.27800    2.15600   95.72700    -999.25    -999.25    -999.25    -999.25    -999.25
 7850.00000    1.73700    1.77700  102.04200    -999.25    -999.25    -999.25    -999.25    -999.25
 7900.00000    2.07600    2.07600   81.48600    -999.25    -999.25    -999.25    -999.25    -999.25
 7950.00000    6.31800    6.56700   30.87900    -999.25    -999.25    -999.25    -999.25    -999.25
 8000.00000    4.80000    4.06100   53.80900    -999.25    -999.25    -999.25    -999.25    -999.25
 8050.00000    3.11600    3.28300   84.27000    -999.25    -999.25    -999.25    -999.25    -999.25
 8100.00000    2.63900    2.67500   85.87100    -999.25    -999.25    -999.25    -999.25    -999.25
 8150.00000    3.01500    2.77400   90.97800    -999.25    -999.25    -999.25    -999.25    -999.25
 8200.00000    2.61500    2.44600   92.37500    -999.25    -999.25    -999.25    -999.25    -999.25
 8250.00000    2.77800    2.63600   82.87400    -999.25    -999.25    -999.25    -999.25    -999.25
 8300.00000    2.98500    2.91600   86.43900    -999.25    -999.25    -999.25    -999.25    -999.25
 8350.00000    8.15400    7.70200   35.56600    -999.25    -999.25    -999.25    -999.25    -999.25
 8400.00000    9.36800    9.32000   32.69400    -999.25    -999.25    -999.25    -999.25    -999.25
 8450.00000   11.38000   12.70900   29.15800    -999.25    -999.25    -999.25    -999.25    -999.25
 8500.00000   11.39200   11.39200   24.18800    -999.25    -999.25    -999.25    -999.25    -999.25
 8550.00000   12.82200   12.14300   21.48500    -999.25    -999.25    -999.25    -999.25    -999.25
 8600.00000   12.53900   11.52200   23.00200    -999.25    -999.25    -999.25    -999.25    -999.25
 8650.00000   13.51700   16.27800   24.73400    -999.25    -999.25    -999.25    -999.25    -999.25
 8700.00000   10.27500   10.41900   29.90300    -999.25    -999.25    -999.25    -999.25    -999.25
 8750.00000    6.06600    6.19900   48.60800    -999.25    -999.25    -999.25    -999.25    -999.25
 8800.00000    7.07200    7.09300   26.48500    -999.25    -999.25    -999.25    -999.25    -999.25
 8850.00000    9.25700    9.24300   35.08400    -999.25    -999.25    -999.25    -999.25    -999.25
 8900.00000   10.77700   11.32700   36.24800    9.83500    5.39000    0.01900    0.07700    0.04900
 8950.00000   15.95700   16.42200   34.73000   10.32900    5.23900    0.04800    0.08000    0.04300
 9000.00000   24.10400   20.02100   27.69300   10.57200    5.43300    0.05000    0.08000    0.07000
 9050.00000   50.74700   54.01300   25.51000    9.67100    5.51700    0.08500    0.08300    0.11900
 9100.00000    3.61400    3.94800   89.97300   13.34600    3.99700    0.11300    0.32700    0.12400
 9150.00000    3.21600    4.01500   73.13200   15.10300    3.21100    0.18100    0.50400    0.34600
 9200.00000    9.69000    9.41900   38.71100   11.77900    4.89000    0.01200    0.13100   -0.01600
 9250.00000   20.22500   26.05600   24.86900   11.57800    4.55000    0.03200    0.05100    0.01600
 9300.00000   42.82900   48.40600   20.69300   10.75000    5.23600    0.01900    0.03900    0.03400
 9350.00000   24.30300   27.53000   30.45100   10.29200    5.38900    0.01900    0.05400    0.00900
 9400.00000   69.26400   59.96000   18.61600    9.80600    5.94600   -0.00300    0.02500    0.02700
 9450.00000   71.51400   67.62900   21.37400    9.91300    5.71300    0.04100    0.04600    0.02900
 9500.00000   44.71200   48.96700   42.76000   10.03000    5.54400    0.02300    0.05500    0.01600
 9550.00000    7.26300    5.80800   21.03500   10.89600    4.80100    0.11600    0.04400    0.04300
 9600.00000   14.57700   10.39500   20.16500   11.24400    5.63700    0.11000    0.04400    0.04200
 9650.00000   10.68600    6.71500   16.28500   11.05500    5.09500    0.18600    0.08500    0.09000
 9700.00000    7.56800    5.51700   16.67000   10.99800    5.08100    0.17200    0.09400    0.07100
 9750.00000    7.31500    5.04200   13.06500    9.95400    5.41900    0.13500    0.06700    0.08000
 9800.00000    7.16800    4.68900   16.28800   11.70500    5.48700    0.09700    0.07900    0.06600
 9850.00000    2.73400    2.03400   11.89700    9.23000    3.33600    0.03200    0.21500    0.20700
 9900.00000   61.03400   70.10200   54.96200   10.03200    5.82500    0.02300    0.03800    0.02500
 9950.00000   89.92000   80.67700   32.88800    9.87400    6.79800   -0.01800    0.04500   -0.01100
