~Version ---------------------------------------------------
VERS. 2.0 : CWLS log ASCII Standard -VERSION 2.0
WRAP.  NO : One line per depth step
~Well ------------------------------------------------------
STRT.FT                 2350.0 : START DEPTH
STOP.FT                 8250.0 : STOP DEPTH
STEP.FT               50.00000 : STEP LENGTH
NULL.                  -999.25 : NULL VALUE
COMP.        IKE LOVELADY INC. : COMPANY
WELL.           RUTH BOWERS #1 : WELL
FLD .                   STRAIT : FIELD
LOC .                          : LOCATION
CNTY.                   DIMMIT : COUNTY
STAT.                    TEXAS : STATE
CTRY. UNITED STATES OF AMERICA : COUNTRY
SRVC.                          : SERVICE COMPANY
DATE.                          : LOGDATE
API .           42127317180000 : API NUMBER
UWI .           42127317180000 : UNIQUE WELL ID
SLAT.WGS84       28.5460115215 : SURFACE LATITUDE
SLON.WGS84      -99.5917438073 : SURFACE LONGITUDE
~Curve Information -----------------------------------------
DEPT  .FT    : DEPTH
CILDED.MMHO  : CONDUCTIVITY FROM RESISTIVITY LOG
ILDED .OHMM  : INDUCTION LOG DEEP RESISTIVITY
ALL8ED.OHMM  : AVG. LATEROLOG-8 RESISTIVITY
SPED  .MV    : SPONTANEOUS POTENTIAL [BASELINE 0 MV] FROM RESISTIVITY LOG
NPHIED.V/V   : NEUTRON POROSITY SANDSTONE FROM DENSITY LOG DEPTH ADJUSTED TO ALL8ED
CALDED.IN    : CALIPER FROM DENSITY LOG DEPTH ADJUSTED TO ALL8ED
CORRED.G/C3  : DENSITY CORRECTION FROM DENSITY LOG DEPTH ADJUSTED TO ALL8ED
GRDED .GAPI  : GAMMA RAY FROM DENSITY LOG DEPTH ADJUSTED TO ALL8ED
RHOBED.G/C3  : BULK DENSITY FROM DENSITY LOG DEPTH ADJUSTED TO ALL8ED
CALWS .IN    : CALIPER [CALDED]
CONDWS.MMHO  : CONDUCTIVITY [CILDED]
DCORWS.G/C3  : DENSITY CORRECTION [DRHOED]
DENWS .G/C3  : BULK DENSITY [RHOBED]
DRESWS.OHMM  : DEEP RESISTIVITY [2350 ILDED, 7200 1000/CILDED] [IF DRESWS<1;1000/CILDED]
GRWS  .GAPI  : GAMMA RAY [GRDED]
NPOWS .V/V   : NEUTRON POROSITY LIMESTONE [NPHIED]
SPWS  .MV    : SPONTANEOUS POTENTIAL [SPED]
SRESWS.OHMM  : SHALLOW RESISTIVITY [ALL8ED]
DPOWS .V/V   : DENSITY POROSITY [M=2.71 F=1.0] [CALCULATED FROM RHOBED]
~Params ----------------------------------------------------
EKB .F                 486.0 : Kelly bushing
EGL .F                 474.0 : Ground level
EDF .F                 485.0 : Drilling floor
EPD .F                 474.0 : Permanent datum
TD  .F                8268.0 : Total depth
CLNT.                A2DTECH : Client Code
SL  .   1980' FEL & 660' FSL : Surface Location
PD  .                     GL : Permanent Datum
LMF .                     KB : Log Measured From
DMF .                     KB : Drilling Measured From
DAPD.F                    12 : Feet Above Permanent Datum
DATE.            07-JUL-1978 : Date Logged [DD-MMM-YYYY]
DD  .F                  8268 : Depth driller
DL  .F                  8260 : Depth logger
BLI .F                  8259 : Bottom log interval
TLI .F                  7950 : Top log interval
CS1 .IN                7.625 : Casing size
CBD1.         7.625" @ 7180' : Casing driller 1
BS1 .IN                  6.5 : Bit size
BSD1.F                  8268 : Depth drilled with bit1
DFT .              LIGNOSULF : Type fluid in hole
DFD .                    9.5 : Density
DFV .                     47 : Viscosity
DFPH.                     10 : pH
DFL .                    5.8 : Fluid loss
MSS .              CIRC TANK : Source of sample
RMS .OHMM               0.64 : Rm
RMF .OHMM               0.53 : Rmf
MFSS.                   MEAS : Source Rmf.
RMC .OHMM                0.5 : Rmc
MCSS.                   CALC : Source Rmc.
RMB .OHMM                0.3 : Rm. at BHT
BHT .F                   172 : BHT.
TCS .HRS                 900 : Time Circ. stopped
TLAB.HRS                1730 : Time logger at bottom
LUN .                   7769 : Logging unit number
LUL .                 LAREDO : Logging unit location
ENGI.          RENFROW/FOGAL : Recorded By
WITN.                GRIFFEN : Witnessed by
ORIG.        2.5" & 1" PRINT : Origin of data
UWI .         42127317180000 : Unique Well ID
DICO. A2D TECHNOLOGIES, INC. : Digitizing Company
~Other -----------------------------------------------------
~ASCII -----------------------------------------------------
# ...
 4200.00000  173.40850    4.22890    5.07510   -1.23930    0.22840   11.77380    0.00750   69.37260    2.64700   11.77380  173.40850    0.00750    2.64700    4.22890   69.37260    0.22840   -1.23930    5.07510    0.03680
 4250.00000  135.47900    6.94030    7.39520   -1.54540    0.19150   11.22540    0.00090   65.01560    2.58960   11.22540  135.47900    0.00090    2.58960    6.94030   65.01560    0.19150   -1.54540    7.39520    0.07040
 4300.00000  223.05390    4.52740    4.55090   -3.04570    0.25850   11.44860    0.06020   80.86380    2.60730   11.44860  223.05390    0.06020    2.60730    4.52740   80.86380    0.25850   -3.04570    4.55090    0.06010
 4350.00000  195.35930    5.00000   10.02670  -49.47130    0.23260   10.61470    0.05150   37.82140    2.42830   10.61470  195.35930    0.05150    2.42830    5.00000   37.82140    0.23260  -49.47130   10.02670    0.16470
 4400.00000  361.27740    2.58710    2.71440   -3.95660    0.36700   11.64640    0.02120   88.04250    2.47370   11.64640  361.27740    0.02120    2.47370    2.58710   88.04250    0.36700   -3.95660    2.71440    0.13820
 4450.00000  341.67830    2.92300    3.04640   -5.58120    0.49800   12.07770    0.08660  104.73070    2.15180   12.07770  341.67830    0.08660    2.15180    2.92300  104.73070    0.49800   -5.58120    3.04640    0.32640
 4500.00000  188.61970    5.14930    6.20260  -12.28100    0.27160   11.12240    0.01680   52.18750    2.55840   11.12240  188.61970    0.01680    2.55840    5.14930   52.18750    0.27160  -12.28100    6.20260    0.08870
 4550.00000  197.97840    5.18660    7.29040  -17.63640    0.23430   11.01990   -0.00120   45.75130    2.44150   11.01990  197.97840   -0.00120    2.44150    5.18660   45.75130    0.23430  -17.63640    7.29040    0.15700
 4600.00000  342.81440    2.53730    3.41320   -1.30080    0.32310   11.13890    0.00950   91.13940    2.42290   11.13890  342.81440    0.00950    2.42290    2.53730   91.13940    0.32310   -1.30080    3.41320    0.16790
 4650.00000  579.97300    1.45520    1.79640   -2.80110    0.34460   12.81820    0.01810   93.35710    2.41840   12.81820  579.97300    0.01810    2.41840    1.45520   93.35710    0.34460   -2.80110    1.79640    0.17050
 4700.00000  451.34730    2.01490    2.89420   -3.90320    0.33770   13.23390    0.16900   68.39260    2.35150   13.23390  451.34730    0.16900    2.35150    2.01490   68.39260    0.33770   -3.90320    2.89420    0.20960
 4750.00000  261.60180    3.79350    3.94710   -2.76650    0.26020   11.44760    0.02460   82.17710    2.48130   11.44760  261.60180    0.02460    2.48130    3.79350   82.17710    0.26020   -2.76650    3.94710    0.13370
 4800.00000  208.95170    4.02990    5.26950   -1.92860    0.21130   11.00120    0.01500   85.74930    2.55080   11.00120  208.95170    0.01500    2.55080    4.02990   85.74930    0.21130   -1.92860    5.26950    0.09310
 4850.00000  310.00340    2.94780    3.51050   -1.91030    0.27170   13.16200    0.22210   82.85550    2.37960   13.16200  310.00340    0.22210    2.37960    2.94780   82.85550    0.27170   -1.91030    3.51050    0.19320
 4900.00000  330.33870    2.88560    3.25850   -0.09980    0.30190   13.28880    0.05970   79.95470    2.46740   13.28880  330.33870    0.05970    2.46740    2.88560   79.95470    0.30190   -0.09980    3.25850    0.14190
 4950.00000  269.46110    2.87310    3.32590   -1.32410    0.27060   13.88780    0.23220   86.86380    2.37070   13.88780  269.46110    0.23220    2.37070    2.87310   86.86380    0.27060   -1.32410    3.32590    0.19840
 5000.00000  327.34570    2.68660    2.99400   -1.55330    0.33490   14.56790    0.09830   96.46170    2.41130   14.56790  327.34570    0.09830    2.41130    2.68660   96.46170    0.33490   -1.55330    2.99400    0.17470
 5050.00000  304.01660    3.32090    3.41320   -0.71290    0.28560   14.51610    0.18250   85.33480    2.37910   14.51610  304.01660    0.18250    2.37910    3.32090   85.33480    0.28560   -0.71290    3.41320    0.19350
 5100.00000  400.44910    2.46270    2.75450   -0.71830    0.37270   14.39780    0.16950   97.38790    2.28740   14.39780  400.44910    0.16950    2.28740    2.46270   97.38790    0.37270   -0.71830    2.75450    0.24710
 5150.00000  236.15330    3.99250    4.48100   -4.59140    0.24270   11.27010    0.00250   70.14130    2.44960   11.27010  236.15330    0.00250    2.44960    3.99250   70.14130    0.24270   -4.59140    4.48100    0.15230
 5200.00000  315.86830    3.13430    4.06630   -2.69540    0.31200   13.80120    0.15220   89.92080    2.43790   13.80120  315.86830    0.15220    2.43790    3.13430   89.92080    0.31200   -2.69540    4.06630    0.15910
 5250.00000  253.86730    3.50720    4.04830   -2.73920    0.25680   13.81420    0.17860   82.64250    2.40200   13.81420  253.86730    0.17860    2.40200    3.50720   82.64250    0.25680   -2.73920    4.04830    0.18010
 5300.00000  247.75450    3.75620    4.08860   -2.78310    0.21510   11.69450    0.00310   82.16960    2.50600   11.69450  247.75450    0.00310    2.50600    3.75620   82.16960    0.21510   -2.78310    4.08860    0.11930
 5350.00000  277.88170    3.50750    3.74000   -3.27500    0.24980   14.74580    0.21180   85.57880    2.36770   14.74580  277.88170    0.21180    2.36770    3.50750   85.57880    0.24980   -3.27500    3.74000    0.20020
 5400.00000  250.00000    4.17910    4.05190   -4.06520    0.23370   11.92360    0.00890   74.12710    2.51210   11.92360  250.00000    0.00890    2.51210    4.17910   74.12710    0.23370   -4.06520    4.05190    0.11570
 5450.00000  235.82090    4.21480    4.32140   -3.73610    0.23420   12.92000    0.03550   78.86370    2.47190   12.92000  235.82090    0.03550    2.47190    4.21480   78.86370    0.23420   -3.73610    4.32140    0.13920
 5500.00000  232.83580    4.17910    4.26150   -4.00400    0.23670   13.02470    0.04140   79.91520    2.45470   13.02470  232.83580    0.04140    2.45470    4.17910   79.91520    0.23670   -4.00400    4.26150    0.14930
 5550.00000  236.31900    3.70650    3.91720   -2.77940    0.28540   14.85450    0.18110   84.84680    2.48040   14.85450  236.31900    0.18110    2.48040    3.70650   84.84680    0.28540   -2.77940    3.91720    0.13430
 5600.00000  332.83580    2.83580    3.04390   -2.74870    0.35100   15.68130    0.14580   82.17150    2.40070   15.68130  332.83580    0.14580    2.40070    2.83580   82.17150    0.35100   -2.74870    3.04390    0.18090
 5650.00000  303.97950    3.10950    3.57780   -2.19570    0.29870   13.24850    0.06460   82.61610    2.38960   13.24850  303.97950    0.06460    2.38960    3.10950   82.61610    0.29870   -2.19570    3.57780    0.18740
 5700.00000  383.58210    2.53730    2.70460   -2.73730    0.42570   15.70390    0.20930   75.49880    2.12410   15.70390  383.58210    0.20930    2.12410    2.53730   75.49880    0.42570   -2.73730    2.70460    0.34260
 5750.00000  297.01670    3.35820    3.96710   -1.38820    0.20960   13.26420    0.00500   79.50890    2.56690   13.26420  297.01670    0.00500    2.56690    3.35820   79.50890    0.20960   -1.38820    3.96710    0.08370
 5800.00000  155.98530    6.86570    7.72460   -2.02930    0.13400   12.04980   -0.00720   46.02680    2.60990   12.04980  155.98530   -0.00720    2.60990    6.86570   46.02680    0.13400   -2.02930    7.72460    0.05850
 5850.00000  132.63790    6.79080    7.44500   -2.40730    0.14560   12.38640   -0.00280   53.15880    2.61180   12.38640  132.63790   -0.00280    2.61180    6.79080   53.15880    0.14560   -2.40730    7.44500    0.05740
 5900.00000   93.89090    9.40300    9.46110   -7.48410    0.11710   11.74800   -0.00020   58.32040    2.59630   11.74800   93.89090   -0.00020    2.59630    9.40300   58.32040    0.11710   -7.48410    9.46110    0.06650
 5950.00000   99.85100    9.92540   10.36420   -6.98770    0.13780   11.99930   -0.01240   44.69640    2.59190   11.99930   99.85100   -0.01240    2.59190    9.92540   44.69640    0.13780   -6.98770   10.36420    0.06910
 6000.00000  180.32790    5.37310    5.90820   -1.31890    0.21130   12.72840    0.03210   56.30360    2.45800   12.72840  180.32790    0.03210    2.45800    5.37310   56.30360    0.21130   -1.31890    5.90820    0.14740
