~Version ---------------------------------------------------
VERS. 2.0 : CWLS log ASCII Standard -VERSION 2.0
WRAP. YES : Multiple lines per depth step
~Well ------------------------------------------------------
STRT.FT                 3300.0 : START DEPTH
STOP.FT                 7900.0 : STOP DEPTH
STEP.FT               50.00000 : STEP LENGTH
NULL.                  -999.25 : NULL VALUE
COMP. AMOCO PRODUCTION COMPANY : COMPANY
WELL.    VINCE COURT UNIT A #1 : WELL
FLD .             CALDWELL, NE : FIELD
LOC .                          : LOCATION
CNTY.                   BRAZOS : COUNTY
STAT.                    TEXAS : STATE
CTRY. UNITED STATES OF AMERICA : COUNTRY
SRVC.                    Welex : SERVICE COMPANY
DATE.              19-Dec-1984 : LOGDATE
API .           42041312500000 : API NUMBER
UWI .           42041312500000 : UNIQUE WELL ID
SLAT.WGS84       30.6670683471 : SURFACE LATITUDE
SLON.WGS84      -96.5218651415 : SURFACE LONGITUDE
~Curve Information -----------------------------------------
DEPT    .FT        : DEPTH
CALDED  .IN        : CALIPER FROM DENSITY LOG (ADJ TO RES.)
CALWS   .IN        : CALIPER (CALDED)
CONDWS  .MMHO      : CONDUCTIVITY (1000/DRESWS)
CORRED  .G/C3      : DENSITY CORRECTION (ADJ TO RES.)
DCORWS  .G/C3      : DENSITY CORRECTION (CORRED)
DENWS   .G/C3      : BULK DENSITY  (RHOBED LS)
DPHILSED.V/V       : DENSITY POROSITY LIMESTONE (ADJ TO RES.)
DPHISSED.V/V       : DENSITY POROSITY  SANDSTONE (ADJ TO RES.)
DPOWS   .V/V       : DENSITY POROSITY (M=2.71 F=1 FROM DENWS)
DRESWS  .OHMM      : DEEP RESISTIVITY (ILDED)
GRDED   .GAPI      : GAMMA RAY FROM DENSITY LOG (ADJ TO RES.)
GRRED   .GAPI      : GAMMA RAY FROM RESISTIVITY LOG
GRTED   .GAPI      : GAMMA RAY TDT LOG (ADJ TO RES.)
GRWS    .GAPI      : GAMMA RAY (GRDED)
ILDED   .OHMM      : DEEP INDUCTION RESISTIVITY
ILMED   .OHMM      : MEDIUM INDUCTION RESISTIVITY
MRESWS  .OHMM      : MEDIUM RESISTIVITY (ILMED)
NPHILSED.V/V       : NEUTRON POROSITY LIMESTONE (ADJ TO RES.)
NPHISSED.V/V       : NEUTRON POROSITY SANDSTONE (ADJ TO RES.)
NPOWS   .V/V       : NEUTRON POROSITY LIMESTONE (NPHISSED CONVERTED TO LIMESTONE/NPHILSED)
RATIOED .UNITLESS  : RATIO (ADJ TO RES.)
RHOBED  .G/C3      : BULK DENSITY (ADJ TO RES.)
SGUARDED.OHMM      : SHORT GUARD LOG RESISTIVITY
SIGMED  .CU        : NEUTRON CAPTURE CROSS SECTION (ADJ TO RES.)
SPRED   .MV        : SPONTANEOUS POTENTIAL FROM RESISTIVITY
SPWS    .MV        : SPONTANEOUS POTENTIAL BASELINE 0 MV (SPRED)
SRESWS  .OHMM      : SHALLOW RESISTIVITY (SGUARDED)
TENDED  .LBF       : TENSION FROM DENSITY LOG (ADJ TO RES.)
TENRED  .LBF       : TENSION FROM RESISTIVITY LOG
TENTED  .LBF       : TENSION TDT LOG (ADJ TO RES.)
~Params ----------------------------------------------------
PD  .                     GL : PERMANENT DATUM
EPD .F                   247 : ELEVATION PERMANENT DATUM
LMF .                    TKB : LOG MEASURED FROM
DAPD.F                    21 : FEET ABOVE PERMANENT DATUM
DMF .                    TKB : DRILLING MEASURED FROM
EKB .F                   268 : KELLING BUSHING
EDF .F                   267 : DRILLING FLOOR
EGL .F                   247 : GROUND LEVEL
DATE.             12-19-1984 : RUN DATE
RUN .                      1 : RUN NUMBER
DD  .F                  7940 : DEPTH DRILLER
DL  .F                  7941 : DEPTH LOGGER
BLI .F                  7939 : BOTTOM LOG INTERVAL
TLI .F                  3279 : TOP LOG INTERVAL
CS  .IN                8.625 : CASING SIZE
CBD .F                  3269 : CASING BOTTOM DRILLER
CBL .F                  3379 : CASING BOTTOM LOGGER
BS  .IN                7.875 : BIT SIZE
BSD .F                  7940 : BIT SIZE AT DEPTH
DFT .            POLYMER MUD : DRILLING FLUID TYPE
DFD .                    9.3 : DRILLING FLUID DENSITY
DFV .                     38 : DRILLING FLUID VISCOSITY
DFPH.                    9.4 : DRILLING FLUID PH
DFL .                    7.8 : DRILLING FLUID LOSS
MSS .               FLOWLINE : MUD SAMPLE SOURCE
RMS .OHMM               3.65 : RESISTIVITY MUD SAMPLE
MST .F                    75 : MUD SAMPLE TEMPERATURE
RMF .OHMM               4.29 : RESISTIVITY MUD FILTRATE SAMPLE
MFST.F                    75 : MUD FILTRATE SAMPLE TEMPERATURE
RMC .OHMM                3.9 : RESISTIVITY MUD CAKE
MCST.F                    75 : MUD CAKE SAMPLE TEMPERATURE
MFSS.                   MEAS : MUD FILTRATE SAMPLE SOURCE
MCSS.                   MEAS : MUD CAKE SAMPLE SOURCE
RMB .OHMM                1.4 : RESISTIVITY MUD AT BHT
TCS .HRS                   3 : TIME CURCULATED STOPPED
TLAB.HRS                2210 : TIME LOGGER AT BOTTOM
LUN .                   1905 : LOGGING UNIT NUMBER
LUL .                  BRYAN : LOGGING UNIT LOCATION
ENGI.                MCENERY : RECORDING ENGINEER
WITN.              BOUCKAERT : WITNESSED BY
CLNT.                A2DTECH : CLIENT CODE
ORIG.               5" PRINT : ORIGIN OF DATA
UWI .         42041312500000 : UNIQUE WELL ID
DICO. A2D Technologies, Inc. : DIGITIZING COMPANY
~Other -----------------------------------------------------
~ASCII -----------------------------------------------------
# ...
 4500.00000    9.08670    9.08670  499.50050    0.04370    0.04370    2.38440    -999.25    0.16850    0.19040    2.00200   87.32430   89.06500    -999.25   87.32430    2.00200    2.07800    2.07800    -999.25    0.32090    0.38200    -999.25    2.38440    2.23640    -999.25  -60.43810   -5.16780    2.23640 1568.58150 1353.45970    -999.25
 4550.00000    9.04170    9.04170  501.22800    0.07220    0.07220    2.44910    -999.25    0.13480    0.15260    1.99510   77.32660   66.46940    -999.25   77.32660    1.99510    2.02210    2.02210    -999.25    0.30250    0.36900    -999.25    2.44910    3.28220    -999.25  -62.65190   -7.49210    3.28220 1578.24440 1379.55750    -999.25
 4600.00000    9.46780    9.46780  624.33670    0.10120    0.10120    2.36370    -999.25    0.17130    0.20250    1.60170   85.95510   91.61600    -999.25   85.95510    1.60170    1.64240    1.64240    -999.25    0.33090    0.38850    -999.25    2.36370    1.72440    -999.25  -65.68340  -10.63420    1.72440 1580.12430 1381.84520    -999.25
 4650.00000    9.74940    9.74940  710.83310    0.16310    0.16310    2.30660    -999.25    0.20940    0.23590    1.40680   86.54950   90.53290    -999.25   86.54950    1.40680    1.42630    1.42630    -999.25    0.36660    0.41090    -999.25    2.30660    1.59760    -999.25  -59.53950   -4.60090    1.59760 1590.05530 1403.20360    -999.25
 4700.00000    9.56930    9.56930  781.31110    0.09370    0.09370    2.24980    -999.25    0.22170    0.26910    1.27990   92.41330   81.32040    -999.25   92.41330    1.27990    1.29860    1.29860    -999.25    0.38950    0.42410    -999.25    2.24980    1.48580    -999.25  -62.66930   -7.84120    1.48580 1612.34570 1414.49990    -999.25
 4750.00000   10.34050   10.34050  967.39870    0.06380    0.06380    2.17320    -999.25    0.26240    0.31390    1.03370   97.28420  105.17490    -999.25   97.28420    1.03370    1.06950    1.06950    -999.25    0.42560    0.44320    -999.25    2.17320    1.17620    -999.25  -59.21140   -4.49390    1.17620 1619.77120 1426.01180    -999.25
 4800.00000   10.03980   10.03980  972.66800    0.08440    0.08440    2.30210    -999.25    0.20290    0.23850    1.02810   93.12340   86.51410    -999.25   93.12340    1.02810    1.05670    1.05670    -999.25    0.35450    0.40370    -999.25    2.30210    1.22160    -999.25  -59.71730   -5.11030    1.22160 1621.53250 1432.13290    -999.25
 4850.00000    9.76500    9.76500  994.43120    0.07300    0.07300    2.28350    -999.25    0.22470    0.24940    1.00560   98.10940  113.13840    -999.25   98.10940    1.00560    1.01900    1.01900    -999.25    0.44010    0.45030    -999.25    2.28350    1.12420    -999.25  -58.73060   -4.23420    1.12420 1649.27210 1454.10450    -999.25
 4900.00000    9.95510    9.95510  963.48400    0.11240    0.11240    2.31340    -999.25    0.20040    0.23190    1.03790   92.93160  103.10140    -999.25   92.93160    1.03790    1.05340    1.05340    -999.25    0.36690    0.41110    -999.25    2.31340    1.16580    -999.25  -57.12800   -2.74210    1.16580 1666.60940 1466.19320    -999.25
 4950.00000    9.32010    9.32010  614.51480    0.07220    0.07220    2.41730    -999.25    0.15390    0.17120    1.62730   83.21480   88.47350    -999.25   83.21480    1.62730    1.64890    1.64890    -999.25    0.32310    0.38340    -999.25    2.41730    1.83720    -999.25  -60.38950   -6.11420    1.83720 1663.42710 1470.31300    -999.25
 5000.00000    9.19040    9.19040  661.68200    0.05780    0.05780    2.39380    -999.25    0.14890    0.18490    1.51130   79.59860   79.79750    -999.25   79.59860    1.51130    1.53140    1.53140    -999.25    0.31510    0.37800    -999.25    2.39380    1.76460    -999.25  -58.80840   -4.64370    1.76460 1705.62500 1481.01940    -999.25
 5050.00000    8.78440    8.78440  550.32750   -0.00270   -0.00270    2.46260    -999.25    0.11080    0.14470    1.81710   77.31440   74.40800    -999.25   77.31440    1.81710    1.84240    1.84240    -999.25    0.30510    0.37080    -999.25    2.46260    2.18660    -999.25  -57.93980   -3.88560    2.18660 1710.39700 1494.14870    -999.25
 5100.00000    8.61310    8.61310  565.73880    0.03040    0.03040    2.44030    -999.25    0.12830    0.15770    1.76760   83.87910   91.57920    -999.25   83.87910    1.76760    1.79220    1.79220    -999.25    0.28820    0.35860    -999.25    2.44030    1.96530    -999.25  -56.85010   -2.94140    1.96530 1738.16530 1497.07730    -999.25
 5150.00000    9.52480    9.52480  647.08170    0.13590    0.13590    2.33590    -999.25    0.19220    0.21880    1.54540   84.38420   92.62480    -999.25   84.38420    1.54540    1.56590    1.56590    -999.25    0.31230    0.37600    -999.25    2.33590    1.66060    -999.25  -58.99300   -5.26340    1.66060 1725.11020 1505.44690    -999.25
 5200.00000   10.26700   10.26700  990.68750    0.03940    0.03940    2.17140    -999.25    0.29880    0.31500    1.00940  122.82050  126.69010    -999.25  122.82050    1.00940    1.02360    1.02360    -999.25    0.36100    0.40760    -999.25    2.17140    0.95150    -999.25  -54.68950   -1.13890    0.95150 1728.76770 1551.01840    -999.25
 5250.00000   10.15950   10.15950 1189.90950    0.04420    0.04420    2.15810    -999.25    0.30400    0.32270    0.84040  132.24130  150.25690    -999.25  132.24130    0.84040    0.88060    0.88060    -999.25    0.36730    0.41130    -999.25    2.15810    0.53840    -999.25  -59.24820   -5.87670    0.53840 1728.78160 1557.06300    -999.25
 5300.00000    9.88830    9.88830  914.16040    0.04450    0.04450    2.18770    -999.25    0.27960    0.30540    1.09390  113.55280  125.72170    -999.25  113.55280    1.09390    1.10860    1.10860    -999.25    0.36200    0.40810    -999.25    2.18770    0.87720    -999.25  -54.58770   -1.39520    0.87720 1740.41920 1550.86160    -999.25
 5350.00000   10.19830   10.19830  852.66030    0.06730    0.06730    2.23940    -999.25    0.26360    0.27520    1.17280  100.55380  114.56720    -999.25  100.55380    1.17280    1.18760    1.18760    -999.25    0.33040    0.38820    -999.25    2.23940    0.99960    -999.25  -57.79250   -4.77910    0.99960 1759.41330 1558.20510    -999.25
 5400.00000    9.75070    9.75070  667.64590    0.10390    0.10390    2.42950    -999.25    0.12940    0.16400    1.49780   97.89320   96.35150    -999.25   97.89320    1.49780    1.51800    1.51800    -999.25    0.32540    0.38490    -999.25    2.42950    1.51950    -999.25  -59.74800   -6.91360    1.51950 1775.79380 1560.66160    -999.25
 5450.00000    9.77020    9.77020  755.23000    0.10860    0.10860    2.32350    -999.25    0.17590    0.22600    1.32410   89.62430   76.01750    -999.25   89.62430    1.32410    1.34710    1.34710    -999.25    0.31470    0.37770    -999.25    2.32350    1.56400    -999.25  -58.94530   -6.29000    1.56400 1794.59970 1583.24780    -999.25
 5500.00000    9.48610    9.48610  615.27100    0.13260    0.13260    2.41930    -999.25    0.14580    0.17000    1.62530   92.10560   81.27570    -999.25   92.10560    1.62530    1.64710    1.64710    -999.25    0.31130    0.37530    -999.25    2.41930    1.72930    -999.25  -64.87920  -12.40290    1.72930 1808.99220 1604.39340    -999.25
 5550.00000    9.47380    9.47380  664.76100    0.17100    0.17100    2.44630    -999.25    0.12080    0.15420    1.50430   82.22210   82.62800    -999.25   82.22210    1.50430    1.55950    1.55950    -999.25    0.30380    0.36990    -999.25    2.44630    1.63370    -999.25  -60.62240   -8.32520    1.63370 1829.54520 1611.85210    -999.25
 5600.00000    9.95340    9.95340  732.27890    0.11290    0.11290    2.42130    -999.25    0.13100    0.16880    1.36560  100.17000   93.60760    -999.25  100.17000    1.36560    1.42460    1.42460    -999.25    0.30260    0.36900    -999.25    2.42130    1.50370    -999.25  -61.60220   -9.48400    1.50370 1832.37100 1623.52040    -999.25
 5650.00000   10.11270   10.11270  693.38510    0.09750    0.09750    2.37640    -999.25    0.16400    0.19510    1.44220   92.18940   98.93290    -999.25   92.18940    1.44220    1.47330    1.47330    -999.25    0.34220    0.39600    -999.25    2.37640    1.59180    -999.25  -61.61830   -9.67920    1.59180 1849.75330 1630.07760    -999.25
