~Version ---------------------------------------------------
VERS. 2.0 : CWLS log ASCII Standard -VERSION 2.0
WRAP. YES : Multiple lines per depth step
~Well ------------------------------------------------------
STRT.FT                  2550.0 : START DEPTH
STOP.FT                 14350.0 : STOP DEPTH
STEP.FT                50.00000 : STEP LENGTH
NULL.                   -999.25 : NULL VALUE
COMP. GENERAL CRUDE OIL COMPANY : COMPANY
WELL.    A G HENKES GAS UNIT #1 : WELL
FLD .                   WILDCAT : FIELD
LOC .                           : LOCATION
CNTY.                    LAVACA : COUNTY
STAT.                     TEXAS : STATE
CTRY.  UNITED STATES OF AMERICA : COUNTRY
SRVC.                   Unknown : SERVICE COMPANY
DATE.               29-Aug-1977 : LOGDATE
API .            42285307220000 : API NUMBER
UWI .            42285307220000 : UNIQUE WELL ID
SLAT.WGS84        29.3839239903 : SURFACE LATITUDE
SLON.WGS84       -96.9359395822 : SURFACE LONGITUDE
~Curve Information -----------------------------------------
DEPT  .FT    : DEPTH
SPED  .MV    : SPONTANEOUS POTENTIAL FROM DIL/SONIC LOG
CALRED.IN    : CALIPER FROM DIL/SONIC LOG
ILDED .OHMM  : INDUCTION LOG DEEP RESISTIVITY FROM DIL/SONIC LOG
ILMED .OHMM  : INDUCTION LOG MEDIUM RESISTIVITY FROM DIL/SONIC LOG
LL8ED .OHMM  : LATEROLOG 8 INCH FROM DIL/SONIC LOG
CILDED.MMHO  : CONDUCTIVITY FROM DIL/SONIC LOG
CALDED.IN    : CALIPER FROM CN/FD LOG
GRDED .GAPI  : GAMMA RAY FROM CN/FD LOG
DRHOED.G/C3  : DENSITY CORRECTION FROM CN/FD LOG
RHOBED.G/C3  : BULK DENSITY FROM CN/FD LOG
NPHIED.V/V   : NEUTRON POROSITY LIMETONE FROM CN/FD LOG
DTED  .US/F  : DELTA TIME FROM DIL/SONIC LOG
DPHIED.V/V   : DENSITY POROSITY [M=2.68, F=1.0] FROM CN/FD LOG
SPWS  .MV    : SPONTANEOUS POTENTIAL [BASELINE 0 MV]
CALWS .IN    : CALIPER [2520 CALRED, 9690.5 CALDED]
CONDWS.MMHO  : CONDUCTIVITY [CILDED]
DCORWS.G/C3  : DENSITY CORRECTION [DRHOED]
DENWS .G/C3  : BULK DENSITY [RHOBED]
DPOWS .V/V   : DENSITY POROSITY [M=2.68, F=1.0] [DPHIED]
DRESWS.OHMM  : DEEP RESISTIVITY [ILDED]
DTWS  .US/F  : DELTA TIME [DTED]
GRWS  .GAPI  : GAMMA RAY [GRDED]
MRESWS.OHMM  : MEDIUM RESISTIVITY [ILMED]
NPOWS .V/V   : NEUTRON POROSITY LIMETONE [NPHIED]
SRESWS.OHMM  : SHALLOW RESISTIVITY [LL8ED]
~Params ----------------------------------------------------
EKB .F                 278.0 : Kelly bushing
EGL .F                 260.0 : Ground level
EDF .F                 277.0 : Drilling floor
EPD .F                 260.0 : Permanent datum
TD  .F               14505.0 : Total depth
DATE.            29-AUG-1977 : Date logged
CLNT.                A2DTECH : Client Code
DAPD.F                    18 : Feet Above Permanent Datum
DD  .F                 14505 : Depth driller
DL  .F                 14401 : Depth logger
BLI .F                 14394 : Bottom log interval
TLI .F                 13663 : Top log interval
CS1 .IN                    7 : Casing size
CBD1.             7" @ 3646' : Casing driller 1
CBL1.F                 13663 : Casing logger 1
BS1 .IN                    6 : Bit size
BSD1.F                 14505 : Depth drilled with bit1
DFT .                CLS-LIG : Type fluid in hole
DFD .                   11.6 : Density
DFV .                     45 : Viscosity
DFPH.                     11 : pH
DFL .                    3.8 : Fluid loss
MSS .              CIRC. PIT : Source of sample
RMS .OHMM              0.865 : Rm
RMF .OHMM               0.57 : Rmf
RMC .OHMM                1.3 : Rmc
MFSS.                   MEAS : Source Rmf.
MCSS.                   CALC : Source Rmc.
TCS .HRS                 330 : Time Circ. stopped
TLAB.HRS                 530 : Time logger at bottom
LUN .                   8005 : Logging unit number
LUL .                   VICT : Logging unit location
ORIG.            2" 5" PRINT : Origin of data
UWI .         42285307220000 : Unique Well ID
DICO. A2D TECHNOLOGIES, INC. : Digitizing Company
SL  .  3700' FWL & 1000' FNL : Surface Location
PD  .                     GL : Permanent Datum
LMF .                     KB : Log Measured From
DMF .                     KB : Drilling Measured From
~Other -----------------------------------------------------
~ASCII -----------------------------------------------------
# ...
 6750.00000  -90.88680   12.04830    1.49590    2.01010    4.32860  683.63270    -999.25    -999.25    -999.25    -999.25    -999.25   86.14550    -999.25  -49.98250   12.04830  683.63270    -999.25    -999.25    -999.25    1.49590   86.14550    -999.25    2.01010    -999.25    4.32860
 6800.00000  -57.73120   12.33530    2.34470    2.46250    3.87460  441.11780    -999.25    -999.25    -999.25    -999.25    -999.25   83.13350    -999.25  -16.10180   12.33530  441.11780    -999.25    -999.25    -999.25    2.34470   83.13350    -999.25    2.46250    -999.25    3.87460
 6850.00000  -45.32770   12.66760    2.21180    2.20410    2.75970  444.61520    -999.25    -999.25    -999.25    -999.25    -999.25   88.28830    -999.25   -2.97320   12.66760  444.61520    -999.25    -999.25    -999.25    2.21180   88.28830    -999.25    2.20410    -999.25    2.75970
 6900.00000  -42.45640   12.97000    2.26670    2.31360    2.74070  440.11970    -999.25    -999.25    -999.25    -999.25    -999.25   85.88670    -999.25    0.62310   12.97000  440.11970    -999.25    -999.25    -999.25    2.26670   85.88670    -999.25    2.31360    -999.25    2.74070
 6950.00000  -44.45590   12.81230    2.37980    2.36220    3.32720  421.40330    -999.25    -999.25    -999.25    -999.25    -999.25   86.39220    -999.25   -1.62620   12.81230  421.40330    -999.25    -999.25    -999.25    2.37980   86.39220    -999.25    2.36220    -999.25    3.32720
 7000.00000  -55.62920   12.23420    2.06380    2.31350    2.89680  497.00600    -999.25    -999.25    -999.25    -999.25    -999.25   85.58700    -999.25  -13.57440   12.23420  497.00600    -999.25    -999.25    -999.25    2.06380   85.58700    -999.25    2.31350    -999.25    2.89680
 7050.00000  -87.11150   12.19670    1.52820    1.91870    6.93260  657.68460    -999.25    -999.25    -999.25    -999.25    -999.25   84.08550    -999.25  -45.83160   12.19670  657.68460    -999.25    -999.25    -999.25    1.52820   84.08550    -999.25    1.91870    -999.25    6.93260
 7100.00000  -69.46830   12.33930    2.00690    2.15800    3.32720  511.97600    -999.25    -999.25    -999.25    -999.25    -999.25   80.77970    -999.25  -28.96330   12.33930  511.97600    -999.25    -999.25    -999.25    2.00690   80.77970    -999.25    2.15800    -999.25    3.32720
 7150.00000  -44.24600   12.68470    2.72950    2.65570    3.82850  371.25750    -999.25    -999.25    -999.25    -999.25    -999.25   87.08610    -999.25   -4.51590   12.68470  371.25750    -999.25    -999.25    -999.25    2.72950   87.08610    -999.25    2.65570    -999.25    3.82850
 7200.00000  -90.55100   12.32430    1.74520    2.18800    4.24940  589.82040    -999.25    -999.25    -999.25    -999.25    -999.25   84.23500    -999.25  -51.59570   12.32430  589.82040    -999.25    -999.25    -999.25    1.74520   84.23500    -999.25    2.18800    -999.25    4.24940
 7250.00000  -46.73480   13.00000    2.67640    2.63740    2.92550  395.20960    -999.25    -999.25    -999.25    -999.25    -999.25   87.08880    -999.25   -8.55440   13.00000  395.20960    -999.25    -999.25    -999.25    2.67640   87.08880    -999.25    2.63740    -999.25    2.92550
 7300.00000  -50.88160   12.63750    2.54950    2.58290    3.33620  408.18360    -999.25    -999.25    -999.25    -999.25    -999.25   85.43540    -999.25  -13.47610   12.63750  408.18360    -999.25    -999.25    -999.25    2.54950   85.43540    -999.25    2.58290    -999.25    3.33620
 7350.00000  -42.04130   13.95170    1.61310    1.61410    2.17300  598.80240    -999.25    -999.25    -999.25    -999.25    -999.25  102.40240    -999.25   -5.41070   13.95170  598.80240    -999.25    -999.25    -999.25    1.61310  102.40240    -999.25    1.61410    -999.25    2.17300
 7400.00000  -41.37910   12.96250    2.44550    2.21840    3.07050  412.17560    -999.25    -999.25    -999.25    -999.25    -999.25   84.83520    -999.25   -5.52340   12.96250  412.17560    -999.25    -999.25    -999.25    2.44550   84.83520    -999.25    2.21840    -999.25    3.07050
 7450.00000  -63.26810   13.21740    2.06510    2.05600    3.40610  494.75970    -999.25    -999.25    -999.25    -999.25    -999.25   73.87510    -999.25  -28.18720   13.21740  494.75970    -999.25    -999.25    -999.25    2.06510   73.87510    -999.25    2.05600    -999.25    3.40610
 7500.00000  -37.48220   13.54720    1.93880    1.97250    2.37750  534.93020    -999.25    -999.25    -999.25    -999.25    -999.25   95.18020    -999.25   -3.17620   13.54720  534.93020    -999.25    -999.25    -999.25    1.93880   95.18020    -999.25    1.97250    -999.25    2.37750
 7550.00000  -44.67770   13.47230    2.48580    2.44400    3.02830  435.63100    -999.25    -999.25    -999.25    -999.25    -999.25   83.28360    -999.25  -11.14660   13.47230  435.63100    -999.25    -999.25    -999.25    2.48580   83.28360    -999.25    2.44400    -999.25    3.02830
 7600.00000  -40.47980   12.82750    2.61510    2.51680    3.99180  393.21360    -999.25    -999.25    -999.25    -999.25    -999.25   83.73620    -999.25   -7.72360   12.82750  393.21360    -999.25    -999.25    -999.25    2.61510   83.73620    -999.25    2.51680    -999.25    3.99180
 7650.00000  -39.88010   13.00000    2.50920    2.55550    3.37870  390.21950    -999.25    -999.25    -999.25    -999.25    -999.25   84.18680    -999.25   -7.89880   13.00000  390.21950    -999.25    -999.25    -999.25    2.50920   84.18680    -999.25    2.55550    -999.25    3.37870
 7700.00000  -43.77790   12.75570    2.68770    2.66360    3.99150  384.23160    -999.25    -999.25    -999.25    -999.25    -999.25   82.68240    -999.25  -12.57140   12.75570  384.23160    -999.25    -999.25    -999.25    2.68770   82.68240    -999.25    2.66360    -999.25    3.99150
 7750.00000  -71.83230   12.14960    2.00700    2.72990    4.58640  498.50300    -999.25    -999.25    -999.25    -999.25    -999.25   84.79160    -999.25  -41.23750   12.14960  498.50300    -999.25    -999.25    -999.25    2.00700   84.79160    -999.25    2.72990    -999.25    4.58640
 7800.00000  -48.61590   12.08410    2.42390    2.58310    3.77600  431.13770    -999.25    -999.25    -999.25    -999.25    -999.25   80.12110    -999.25  -17.77550   12.08410  431.13770    -999.25    -999.25    -999.25    2.42390   80.12110    -999.25    2.58310    -999.25    3.77600
 7850.00000  -66.86850   12.21920    1.53880    2.14300    3.38260  645.20960    -999.25    -999.25    -999.25    -999.25    -999.25   87.80390    -999.25  -35.78260   12.21920  645.20960    -999.25    -999.25    -999.25    1.53880   87.80390    -999.25    2.14300    -999.25    3.38260
 7900.00000  -71.43970   12.25980    2.47500    3.09180    5.68160  407.18560    -999.25    -999.25    -999.25    -999.25    -999.25   82.48240    -999.25  -40.10830   12.25980  407.18560    -999.25    -999.25    -999.25    2.47500   82.48240    -999.25    3.09180    -999.25    5.68160
 7950.00000 -137.31510   12.00900    0.82040    1.19070    8.13990 1145.22310    -999.25    -999.25    -999.25    -999.25    -999.25   81.57890    -999.25 -105.73810   12.00900 1145.22310    -999.25    -999.25    -999.25    0.82040   81.57890    -999.25    1.19070    -999.25    8.13990
 8000.00000 -109.96210   12.03900    1.14760    1.60300    6.55730  893.87150    -999.25    -999.25    -999.25    -999.25    -999.25   84.43610    -999.25  -78.13960   12.03900  893.87150    -999.25    -999.25    -999.25    1.14760   84.43610    -999.25    1.60300    -999.25    6.55730
 8050.00000 -104.37200   11.83630    1.23920    1.82800    4.64780  866.96560    -999.25    -999.25    -999.25    -999.25    -999.25   81.27820    -999.25  -72.30400   11.83630  866.96560    -999.25    -999.25    -999.25    1.23920   81.27820    -999.25    1.82800    -999.25    4.64780
 8100.00000  -86.94790   12.30930    1.54970    1.90550   18.79850  694.65270    -999.25    -999.25    -999.25    -999.25    -999.25   76.12780    -999.25  -54.63430   12.30930  694.65270    -999.25    -999.25    -999.25    1.54970   76.12780    -999.25    1.90550    -999.25   18.79850
