~Version ---------------------------------------------------
VERS. 2.0 : CWLS log ASCII Standard -VERSION 2.0
WRAP. YES : MULTIPLE LINES PER DEPTH STEP
~Well ------------------------------------------------------
STRT.FT                  1500.0 : START DEPTH
STOP.FT                  8000.0 : STOP DEPTH
STEP.FT                50.00000 : STEP LENGTH
NULL.                   -999.25 : NULL VALUE
COMP.  AMOCO PRODUCTION COMPANY : COMPANY
WELL.            LEON F CASH #1 : WELL
FLD . CALDWELL, N.E. GEORGETOWN : FIELD
LOC .                           : LOCATION
CNTY.                    BRAZOS : COUNTY
STAT.                     TEXAS : STATE
CTRY.  UNITED STATES OF AMERICA : COUNTRY
SRVC.             Dresser Atlas : SERVICE COMPANY
DATE.               17-Jul-1984 : LOGDATE
API .            42041311700000 : API NUMBER
UWI .            42041311700000 : UNIQUE WELL ID
SLAT.WGS84        30.6324896391 : SURFACE LATITUDE
SLON.WGS84       -96.5352157138 : SURFACE LONGITUDE
~Curve Information -----------------------------------------
DEPT    .FT        : DEPTH FEET
CALDED  .IN        : CALIPER FROM DENSITY LOG [ADJ TO GRRED]
CALWS   .IN        : CALIPER [CALDED]
CNCED   .V/V       : NEUTRON POROSITY SANDSTONE FROM DENSITY LOG [ADJ TO GRRED]
CNCLSED .V/V       : NEUTRON POROSITY LIMESTONE FROM DENSITY LOG [ADJ TO GRRED]
CONDWS  .MMHO      : CONDUCTIVITY [1000/DRESWS]
CORRED  .G/C3      : DENSITY CORRECTION FROM DENSITY LOG [ADJ TO GRRED]
DCORWS  .G/C3      : DENSITY CORRECTION [CORRED]
DENED   .G/C3      : BULK DENSITY FROM DENSITY LOG [ADJ TO GRRED]
DENWS   .G/C3      : BULK DENSITY [M=2.65 F=1.0] [DENED]
DPOWS   .V/V       : DENSITY POROSITY [M=2.65 F=1.0] [SPL PORDED <7162.5F> PORDLSED]
DRESWS  .OHMM      : DEEP RESISTIVITY [RILDED]
GRDED   .GAPI      : GAMMA RAY FROM DENSITY LOG [ADJ TO GRRED]
GRRED   .GAPI      : GAMMA RAY FROM RESISTIVITY LOG
GRTED   .GAPI      : GAMMA RAY FROM TDT LOG [ADJ TO GRRED]
GRWS    .GAPI      : GAMMA RAY [GRRED, CSG ABOVE 1500F]
MRESWS  .OHMM      : MEDIUM RESISTIVITY [RILMED]
NPOWS   .V/V       : NEUTRON POROSITY [SPL CNCED <7155F> CNCLSED, CSG ABOVE 1500F]
PORDED  .V/V       : DENSITY POROSITY [M=2.65 F=1.0] FROM DENSITY LOG [ADJ TO GRRED]
PORDLSED.V/        : DENSITY POROSITY [M=2.71 F=1.0] FROM DENSITY LOG [ADJ TO GRRED]
RATIOED .UNITLESS  : RATIO FROM TDT LOG [ADJ TO GRRED]
RFOCED  .OHMM      : FOCUSED RESISTIVITY
RILDED  .OHMM      : INDUCTION LOG DEEP RESISTIVITY
RILMED  .OHMM      : INDUCTION LOG MEDIUM RESISTIVITY
SIGMED  .CU        : NEUTRON CAPTURE CROSS SECTION FROM TDT LOG [ADJ TO GRRED]
SPRED   .MV        : SPONTANEOUS POTENTIAL FROM RESISTIVITY LOG
SPWS    .MV        : SPONTANEOUS POTENTIAL [BASELINE 0 MV] [SPRED]
SRESWS  .OHMM      : SHALLOW RESISTIVITY [RFOCED]
TENDED  .LBF       : TENSION FROM DENSITY LOG [ADJ TO GRRED]
TENRED  .LBF       : TENSION FROM RESISTIVITY LOG
TENTED  .LBF       : TENSION FROM TDT LOG [ADJ TO GRRED]
~Params ----------------------------------------------------
PD  .                     GL : PERMANENT DATUM
EPD .FT                244.7 : ELEVATION PERMANENT DATUM
LMF .                     KB : LOG MEASURED FROM
DAPD.FT                23.58 : FEET ABOVE PERMANENT DATUM
DMF .                     KB : DRILLING MEASURED FROM
EKB .FT               268.29 : KELLY BUSHING
EDF .FT               267.28 : DRILLING FLOOR
EGL .FT                244.7 : GROUND LEVEL
DATE.               07/17/84 : RUN DATE
RUN .                      1 : RUN NUMBER
DD  .FT                 8835 : DEPTH DRILLER
DL  .FT                 8824 : DEPTH LOGGER
BLI .FT                 8822 : BOTTOM LOG INTERVAL
TLI .FT                 1500 : TOP LOG INTERVAL
CS  .IN                8.625 : CASING SIZE
CBD .FT                 1500 : CASING BOTTOM DRILLER
CBL .FT                 1500 : CASING BOTTOM LOGGER
BS  .IN                7.875 : BIT SIZE
BSD .FT                 8825 : BIT SIZE AT DEPTH
DFT .                 LO SOL : DRILLING FLUID TYPE
DFD .                    9.2 : DRILLING FLUID DENSITY
DFV .                     47 : DRILLING FLUID VISCOSITY
DFPH.                    8.9 : DRILLING FLUID PH
DFL .                    9.2 : DRILLING FLUID LOSS
MSS .               FLOWLINE : MUD SAMPLE SOURCE
RMS .OHMM               3.38 : RESISTIVITY MUD SAMPLE
MST .DEGF                 75 : MUD SAMPLE TEMPERATURE
RMF .OHMM               2.74 : RESISTIVITY MUD FILTRATE SAMPLE
MFST.DEGF                 75 : MUD FILTRATE SAMPLE TEMPERATURE
RMC .OHMM               4.23 : RESISTIVITY MUD CAKE
MCST.DEGF                 75 : MUD CAKE SAMPLE TEMPERATURE
MFSS.               MEASURED : MUD FILTRATE SAMPLE SOURCE
MCSS.             CALCULATED : MUD CAKE SAMPLE SOURCE
RMB .OHMM               1.33 : RESISTIVITY MUD AT BHT
TCS .HRS                   5 : TIME CIRCULATED STOPPED
LUN .                HL 6300 : LOGGING UNIT NUMBER
LUL .                  BRYAN : LOGGING UNIT LOCATION
ENGI.                 WRIGHT : RECORDING ENGINEER
WITN.               DEPAOLIS : WITNESSED BY
CLNT.                A2DTECH : CLIENT CODE
ORIG.            2" 5" PRINT : ORIGIN OF DATA
UWI .         42041311700000 : UNIQUE WELL ID
DICO. A2D Technologies, Inc. : DIGITIZING COMPANY
~Other -----------------------------------------------------
~ASCII -----------------------------------------------------
 1500.00000    9.89420    9.89420    0.40050    -999.25    -999.25    -999.25    -999.25    -999.25    -999.25    -999.25    -999.25   49.82070   57.16470    -999.25   57.16470    -999.25    0.40050    -999.25    -999.25    -999.25    -999.25    -999.25    -999.25    -999.25    -999.25    -999.25    -999.25   22.93540    7.38150    -999.25
 1550.00000   14.10470   14.10470    0.46740    -999.25  197.98060    0.05070    0.05070    2.06580    2.06540    0.35430    5.05100   47.18400   58.20460    -999.25   58.20460    4.75290    0.46740    0.35430    -999.25    -999.25    5.24730    5.05100    4.75290    -999.25  -66.56990   -7.90860    5.24730    7.46410   20.68380    -999.25
 1600.00000   15.51220   15.51220    0.50130    -999.25  124.05410    0.15280    0.15280    2.02240    2.02200    0.38060    8.06100   38.41620   53.33970    -999.25   53.33970    7.82890    0.50130    0.38060    -999.25    -999.25    6.21920    8.06100    7.82890    -999.25  -72.44800  -14.22300    6.21920    1.57460    9.86720    -999.25
 1650.00000   15.50480   15.50480    0.48950    -999.25   99.98500    0.14690    0.14690    2.00250    1.99740    0.39550   10.00150   40.62200   55.30010    -999.25   55.30010    9.86140    0.48950    0.39550    -999.25    -999.25    7.61160   10.00150    9.86140    -999.25  -73.76790  -15.97930    7.61160    6.56470   14.11880    -999.25
 1700.00000   11.75360   11.75360    0.41210    -999.25  114.53050    0.14710    0.14710    1.94700    1.93620    0.43260    8.73130   44.55570   51.97040    -999.25   51.97040    9.10160    0.41210    0.43260    -999.25    -999.25    7.58860    8.73130    9.10160    -999.25  -68.01730  -10.66510    7.58860    3.52900    6.45880    -999.25
 1750.00000   13.71340   13.71340    0.46520    -999.25  296.41930    0.06530    0.06530    2.05940    2.08590    0.34190    3.37360   57.17720   57.23680    -999.25   57.23680    3.05880    0.46520    0.34190    -999.25    -999.25    4.08410    3.37360    3.05880    -999.25  -60.37500   -3.45920    4.08410    3.49910    9.24150    -999.25
 1800.00000   13.89790   13.89790    0.40700    -999.25  112.75100   -0.01020   -0.01020    2.10790    2.10810    0.32840    8.86910   37.16770   51.59690    -999.25   51.59690    9.43750    0.40700    0.32840    -999.25    -999.25    7.81380    8.86910    9.43750    -999.25  -70.93970  -14.46020    7.81380    0.00000   10.76340    -999.25
 1850.00000   15.21660   15.21660    0.41160    -999.25  105.44300    0.00700    0.00700    1.99340    1.98180    0.40500    9.48380   38.95450   56.97690    -999.25   56.97690   10.53430    0.41160    0.40500    -999.25    -999.25    8.29020    9.48380   10.53430    -999.25  -72.70460  -16.66150    8.29020   11.26300   17.51140    -999.25
 1900.00000   13.44110   13.44110    0.43020    -999.25  193.19190    0.03880    0.03880    2.17680    2.17610    0.28720    5.17620   69.25310   79.89300    -999.25   79.89300    5.36850    0.43020    0.28720    -999.25    -999.25    5.67350    5.17620    5.36850    -999.25  -64.50340   -8.89670    5.67350    1.28760   12.44750    -999.25
 1950.00000   13.93680   13.93680    0.43480    -999.25  137.01450    0.02460    0.02460    2.03300    2.03220    0.37440    7.29850   49.25210   63.06300    -999.25   63.06300    7.88740    0.43480    0.37440    -999.25    -999.25    5.99770    7.29850    7.88740    -999.25  -67.54180  -12.37140    5.99770    3.34840   14.82930    -999.25
 2000.00000   14.11190   14.11190    0.39040    -999.25  102.49470   -0.01940   -0.01940    2.02080    2.01970    0.38200    9.75660   41.05450   49.94480    -999.25   49.94480   11.83480    0.39040    0.38200    -999.25    -999.25    9.23120    9.75660   11.83480    -999.25  -70.23460  -15.50060    9.23120    0.00000   16.40840    -999.25
 2050.00000   11.32910   11.32910    0.43280    -999.25  116.41040    0.07530    0.07530    2.07150    2.06900    0.35210    8.59030   51.94620   61.65560    -999.25   61.65560   10.32610    0.43280    0.35210    -999.25    -999.25    8.87180    8.59030   10.32610    -999.25  -68.18360  -14.04410    8.87180    9.16210   13.96120    -999.25
 2100.00000   10.51230   10.51230    0.41000    -999.25  232.31500    0.12270    0.12270    2.09630    2.08340    0.34340    4.30450   70.21320   75.15530    -999.25   75.15530    5.03490    0.41000    0.34340    -999.25    -999.25    4.49380    4.30450    5.03490    -999.25  -65.02760  -11.56780    4.49380   14.35930   11.71440    -999.25
 2150.00000   10.62320   10.62320    0.39810    -999.25  163.82160    0.11590    0.11590    2.13900    2.13980    0.30920    6.10420   63.64980   68.02840    -999.25   68.02840    5.86710    0.39810    0.30920    -999.25    -999.25    5.66780    6.10420    5.86710    -999.25  -65.73460  -12.95450    5.66780    7.06750    7.77510    -999.25
 2200.00000   10.88160   10.88160    0.39140    -999.25  127.91980    0.08170    0.08170    2.22120    2.23520    0.25140    7.81740   55.28050   69.44730    -999.25   69.44730    7.23410    0.39140    0.25140    -999.25    -999.25    5.97960    7.81740    7.23410    -999.25  -62.91790  -10.81760    5.97960    4.06270   15.19720    -999.25
 2250.00000   13.09060   13.09060    0.45850    -999.25  110.06430   -0.02060   -0.02060    1.53680    1.66150    0.59910    9.08560   47.66620   51.35900    -999.25   51.35900    8.55010    0.45850    0.59910    -999.25    -999.25    6.43650    9.08560    8.55010    -999.25  -59.76410   -8.34350    6.43650    9.90030   13.72160    -999.25
 2300.00000   12.25030   12.25030    0.60160    -999.25  209.48110    0.03920    0.03920    2.06050    2.16180    0.29590    4.77370   65.04620   80.22170    -999.25   80.22170    4.85070    0.60160    0.29590    -999.25    -999.25    4.33700    4.77370    4.85070    -999.25  -55.74240   -5.00150    4.33700    0.00000   21.27050    -999.25
 2350.00000   11.65590   11.65590    0.35750    -999.25  125.05780    0.07620    0.07620    2.14980    2.15250    0.30150    7.99630   58.19530   60.93830    -999.25   60.93830    6.21320    0.35750    0.30150    -999.25    -999.25    9.91460    7.99630    6.21320    -999.25  -60.30390  -10.24270    9.91460    0.00000   15.74230    -999.25
 2400.00000   10.40380   10.40380    0.35490    -999.25  111.25330    0.04560    0.04560    2.26160    2.24260    0.24690    8.98850   72.07510   70.79020    -999.25   70.79020    9.91040    0.35490    0.24690    -999.25    -999.25    9.21070    8.98850    9.91040    -999.25  -60.18640  -10.80490    9.21070    0.00000    2.77450    -999.25
 2450.00000   10.19160   10.19160    0.37760    -999.25   40.40810   -0.01790   -0.01790    2.07150    2.07050    0.35120   24.74750   45.73360   50.15510    -999.25   50.15510   23.01810    0.37760    0.35120    -999.25    -999.25   16.18930   24.74750   23.01810    -999.25  -55.34920   -6.64740   16.18930   10.15350    8.99090    -999.25
 2500.00000   12.42320   12.42320    0.44000    -999.25   41.79130    0.03980    0.03980    2.04400    2.04310    0.36780   23.92840   45.63470   56.20520    -999.25   56.20520   20.29600    0.44000    0.36780    -999.25    -999.25   15.85770   23.92840   20.29600    -999.25  -58.35200  -10.32990   15.85770   13.54880   10.37390    -999.25
 2550.00000   10.79530   10.79530    0.40600    -999.25   36.60510    0.07160    0.07160    2.07210    2.07250    0.35000   27.31860   44.32270   53.62810    -999.25   53.62810   22.79890    0.40600    0.35000    -999.25    -999.25   17.35440   27.31860   22.79890    -999.25  -55.94690   -8.60450   17.35440    5.16820   15.34440    -999.25
 2600.00000   10.24160   10.24160    0.40450    -999.25   43.95220    0.11340    0.11340    2.13270    2.13290    0.31340   22.75200   58.15870   66.50310    -999.25   66.50310   22.26190    0.40450    0.31340    -999.25    -999.25   15.61820   22.75200   22.26190    -999.25  -57.34690  -10.68420   15.61820    9.20350   14.63960    -999.25
 2650.00000   12.14330   12.14330    0.34440    -999.25   35.29700   -0.02530   -0.02530    2.02750    2.02940    0.37610   28.33100   33.39980   40.75060    -999.25   40.75060   24.22780    0.34440    0.37610    -999.25    -999.25   17.99590   28.33100   24.22780    -999.25  -55.68240   -9.69940   17.99590    1.11210   16.15150    -999.25
