~Version ---------------------------------------------------
VERS. 2.0 : CWLS log ASCII Standard -VERSION 2.0
WRAP.  NO : ONE LINE PER DEPTH STEP
~Well ------------------------------------------------------
STRT.F                   300.0 : START DEPTH
STOP.F                 12950.0 : STOP DEPTH
STEP.F                50.00000 : STEP LENGTH
NULL.                  -999.25 : NULL VALUE
COMP.        ADOBE OIL COMPANY : COMPANY
WELL.            REAGAN R L #1 : WELL
FLD .             BALD PRAIRIE : FIELD
LOC .                          : LOCATION
CNTY.                ROBERTSON : COUNTY
STAT.                    TEXAS : STATE
CTRY. UNITED STATES OF AMERICA : COUNTRY
SRVC.             Schlumberger : SERVICE COMPANY
DATE.              20-Jan-1977 : LOGDATE
API .           42395300370000 : API NUMBER
UWI .           42395300370000 : UNIQUE WELL ID
SLAT.WGS84        31.250529485 : SURFACE LATITUDE
SLON.WGS84      -96.4607191376 : SURFACE LONGITUDE
~Curve Information -----------------------------------------
DEPT.F                 : 
CILD.MMHO 07 110 46 00 : CONDUCTIVITY INDUCTION LOG DEEP
CALD.IN   45 280 60 00 : CALIPER FROM DENSITY LOG
DRHO.G/C3 45 356 01 00 : DENSITY CORRECTION
RHOB.G/C3 45 350 01 00 : BULK DENSITY
GRD .GAPI 45 310 01 00 : GAMMA RAY FROM DENSITY LOG
DPHI.DEC  45 890 10 00 : DENSITY POROSITY LIMESTONE
NPHI.DEC  42 890 01 00 : NEUTRON POROSITY LIMESTONE
SPR .MV   07 010 01 00 : SPONTANEOUS POTENTIAL FROM RES.
ALL8.OHMM 07 221 08 00 : AMPLIFIED LATEROLOG-8
ILD .OHMM 07 120 46 00 : INDUCTION LOG DEEP
~Params ----------------------------------------------------
PD  .                     GL : PERMANENT DATUM
EPD .F                   469 : ELEVATION PERMANENT DATUM
LMF .                     KB : LOG MEASURED FROM
DAPD.F                    20 : FEET ABOVE PERMANENT DATUM
DMF .                     KB : DRILLING MEASURED FROM
EKB .F                   489 : KELLING BUSHING
EDF .F                   488 : DRILLING FLOOR
EGL .F                   469 : GROUND LEVEL
DATE.              1-20-1977 : RUN DATE
RUN .                      1 : RUN NUMBER
DD  .F                 12948 : DEPTH DRILLER
DL  .F                 12954 : DEPTH LOGGER
BLI .F                 12948 : BOTTOM LOG INTERVAL
TLI .F                  4215 : TOP LOG INTERVAL
CS  .IN                9.625 : CASING SIZE
CBD .F                  4212 : CASING BOTTOM DRILLER
CBL .F                  4215 : CASING BOTTOM LOGGER
BS  .IN                 8.75 : BIT SIZE
BSD .F                 12948 : BIT SIZE AT DEPTH
DFT .                CLS/LCM : DRILLING FLUID TYPE
DFD .                   11.2 : DRILLING FLUID DENSITY
DFV .                     38 : DRILLING FLUID VISCOSITY
DFPH.                   11.0 : DRILLING FLUID PH
DFL .                   10.4 : DRILLING FLUID LOSS
MSS .               FLOWLINE : MUD SAMPLE SOURCE
RMS .OHMM               0.64 : RESISTIVITY MUD SAMPLE
MST .F                   104 : MUD SAMPLE TEMPERATURE
RMF .OHMM               0.66 : RESISTIVITY MUD FILTRATE SAMPLE
MFST.F                    66 : MUD FILTRATE SAMPLE TEMPERATURE
RMC .OHMM               0.91 : RESISTIVITY MUD CAKE
MCST.F                   104 : MUD CAKE SAMPLE TEMPERATURE
MFSS.                      M : MUD FILTRATE SAMPLE SOURCE
MCSS.                      C : MUD CAKE SAMPLE SOURCE
RMB .OHMM               0.25 : RESISTIVITY MUD AT BHT
TCS .HRS                1930 : TIME CURCULATED STOPPED
TLAB.HRS                1430 : TIME LOGGER AT BOTTOM
LUN .                   7720 : LOGGING UNIT NUMBER
LUL .                 PLEAS. : LOGGING UNIT LOCATION
ENGI.               BRENETTI : RECORDING ENGINEER
WITN.            DEFFENBANCH : WITNESSED BY
CLNT.                A2DTECH : CLIENT CODE
ORIG.               5" PRINT : ORIGIN OF DATA
UWI .         42395300370000 : UNIQUE WELL ID
DICO. A2D Technologies, Inc. : DIGITIZING COMPANY
~Other -----------------------------------------------------
~ASCII -----------------------------------------------------
# ...
 6900.00000  122.47370   11.02690    0.04020    2.71140   29.40100    0.02640    0.05370  -42.95670   15.71430    9.95870
 6950.00000   40.76500   10.86860   -0.00220    2.66840   32.76540    0.00490    0.01360  -51.82460   90.99380   27.69970
 7000.00000   34.84060   10.41880    0.00520    2.69760   31.83100    0.00940    0.01850  -52.56200  107.47340   29.68360
 7050.00000   39.28830   11.09340    0.00890    2.70770   28.83160   -0.01030    0.01450  -47.67060   83.61270   33.76290
 7100.00000   55.59670   11.40090    0.01860    2.66990   23.99420    0.02420    0.01540  -70.59800   56.79010   22.52580
 7150.00000   49.36960   11.82180    0.05140    2.67130   23.03770    0.01880    0.04210  -51.52810   49.27170   17.34390
 7200.00000   71.57740   10.86760    0.01490    2.68320   30.15620    0.00510    0.09380  -60.60410    8.08640   24.20720
 7250.00000  225.79800    9.67760    0.02760    2.38580   13.54910    0.19170    0.16470 -146.81540   15.49480    3.90440
 7300.00000  234.28120   10.97060    0.02160    2.48810   23.45060    0.09580    0.10500 -141.93970   17.01540    4.09940
 7350.00000  108.23090   10.41530   -0.00070    2.71510   22.74600   -0.02150    0.04120  -64.13050   20.54530    9.39440
 7400.00000  132.69090   10.22780    0.01490    2.68840   26.32160    0.02100    0.02830  -36.01290   16.49020   12.86750
 7450.00000   91.03100    9.96590    0.02410    2.69220   45.26220    0.02100    0.05950  -36.48890   34.78370   12.13770
 7500.00000  267.04280   13.26080    0.05690    2.15430   49.00880    0.24890    0.27120  -34.73020    8.39510    4.84470
 7550.00000  512.97260   13.92650    0.00300    1.86950   57.01920    0.49300    0.38270  -32.97210    3.16880    1.85300
 7600.00000  333.53040   11.91580    0.01490    2.43640   58.55830    0.25860    0.24320  -32.43020    4.75320    2.23600
 7650.00000  446.99770   16.13570    0.10660    2.07340   58.04310    0.33790    0.40720  -31.77800    3.15010    1.72260
 7700.00000   86.84180   10.36840    0.01040    2.69590   35.35430    0.01170    0.03140  -35.59270   53.79920   10.62100
 7750.00000  138.48310   11.63530   -0.04550    2.44380   49.93960    0.37070    0.27210  -32.90580   24.33230   20.12430
 7800.00000  488.51000   15.30770    0.00370    1.83990   55.61850    0.43790    0.31360  -17.94560   16.74930   22.19400
 7850.00000   25.20390   10.64340    0.00370    2.71440   30.61730   -0.01480    0.00560  -46.83710   95.65220   30.74430
 7900.00000   68.34640   10.63810    0.00000    2.67360   40.15330    0.01070    0.02380  -22.52320   41.35700   15.20690
 7950.00000   40.77090   10.04900   -0.00150    2.70070   40.36760    0.00220    0.01270  -17.33750   83.89860   32.43950
 8000.00000   67.45740    9.99320    0.01340    2.69070   28.84840    0.01660    0.02210  -66.38280   81.68100   16.55620
 8050.00000  172.74150    9.75000    0.00820    2.66540   64.19390    0.02820    0.11390  -22.91030   13.08090    9.75060
 8100.00000   52.63160    9.51060    0.00670    2.66770   39.47170    0.02060    0.02160  -23.14240    7.40740   23.20200
 8150.00000  107.49730    9.47270    0.00450    2.67730   49.32610    0.03310    0.06000  -18.88550   18.11840    6.83220
 8200.00000  500.39120   11.02000    0.01490    2.58090   54.41300    0.08280    0.16290  -41.56350    3.58260    1.92550
 8250.00000  333.13450    9.98500    0.01790    2.62240   56.85910    0.04790    0.12950  -51.53730    8.34180    2.81230
 8300.00000  291.07360   10.21110    0.03060    2.64540   59.48210    0.05020    0.15980  -23.60680    5.65840    3.09860
 8350.00000  285.39660   10.99020    0.03350    2.59570   69.42930    0.04970    0.13130  -18.92640    5.09260    3.32300
 8400.00000  186.04770    9.51460    0.02460    2.58610   44.27690    0.07300    0.05010  -40.32530   11.08990    5.23760
 8450.00000  147.51670    9.09080    0.05640    2.53860   30.32950    0.11800    0.05730  -50.19400   16.10180    7.22580
 8500.00000  249.51640   10.56470    0.06330    2.65580   76.32450    0.06310    0.13660  -15.55730    5.55560    4.03730
 8550.00000   95.62720    9.57910    0.02910    2.71070   72.81520    0.01870    0.08130  -25.89010   19.85580   10.37310
 8600.00000   58.78490    9.16500    0.03880    2.63430   64.66050    0.04030    0.06260  -32.27440   71.06890   13.37360
 8650.00000   90.42630    9.00810    0.08500    2.67580   45.44490    0.05330    0.04300  -33.32040   25.50890   11.58400
 8700.00000  121.51600    9.09800    0.03280    2.62540   39.58650    0.06490    0.04940  -43.42260   19.93830    8.50930
 8750.00000  127.50180    9.10850    0.04620    2.50000   33.04630    0.12360    0.05150  -69.11760   24.38270    8.25060
 8800.00000  119.34770    8.95610    0.00150    2.53260   42.92410    0.08420    0.03680  -80.10860   36.62550    8.88200
 8850.00000  111.92450    9.00140    0.00890    2.61810   47.02520    0.05280    0.07600  -37.38390   18.70320   10.86930
 8900.00000  228.95160   10.67590    0.05960    2.14670   80.34880    0.34570    0.30160  -14.93830    7.10570    3.57140
 8950.00000  106.45040    8.86770    0.02390    2.57060   33.08820    0.10250    0.04750  -51.62540   13.27180    8.83080
 9000.00000  108.08070    8.88830    0.01490    2.55500   24.33860    0.09810    0.02470  -79.02500   21.19550    8.44720
 9050.00000   73.53540    8.24720    0.02830    2.59360   23.01590    0.07570    0.02560  -82.52330   32.09880   13.52480
 9100.00000   68.64460    8.76480    0.03130    2.57540   20.18780    0.09130    0.02030  -85.40260   41.97630   14.13040
 9150.00000   75.61160    8.51730    0.03060    2.54830   31.36190    0.09310    0.02700  -74.13310   41.35800   14.31680
 9200.00000   77.75250    8.74440    0.02160    2.53340   22.27590    0.10120    0.02470  -74.44270   37.03700   13.60270
 9250.00000  199.69650    9.10770    0.08570    2.54090   28.34470    0.09940    0.09470  -57.04230   14.16610    6.84230
 9300.00000  106.29980    9.30110    0.04020    2.57580   26.10830    0.08370    0.03450  -66.82630   21.17340    9.23420
 9350.00000   53.22520    9.16850    0.04320    2.61010   24.23070    0.06000    0.01580  -73.79260   29.78500   18.93370
 9400.00000   79.31210    8.87090    0.04770    2.61260   21.83930    0.07970    0.01850  -69.67500   20.98770   14.28570
 9450.00000   71.90510    8.86340    0.02160    2.57330   45.19450    0.09270    0.09380  -66.42460   17.90120   13.77830
 9500.00000   82.28320    8.94440    0.05070    2.60300   27.35470    0.05040    0.02610  -86.14550   26.54820   13.08460
 9550.00000   56.33800    9.02570    0.05440    2.64970   43.67770    0.04920    0.04930  -59.53700   40.82990   20.46580
 9600.00000   68.94000    8.80880    0.02680    2.61710   26.91180    0.03870    0.02120  -80.94430   35.80250   15.93320
 9650.00000  122.31280    9.06470    0.02310    2.66600   59.81660    0.03000    0.06040  -39.84520   16.63690    8.04350
 9700.00000   51.64700    8.94120    0.00230    2.56300   49.63300    0.09000    0.05640  -59.89160   45.06170   18.66390
 9750.00000   41.06920    8.68460    0.03580    2.57070   63.84540    0.08910    0.10050  -41.79570   70.58000   15.86190
 9800.00000   38.88190    8.97100    0.07880    2.59710   30.68710    0.05370    0.01800  -53.82370   58.64200   22.04920
 9850.00000   64.04630    8.84720    0.01710    2.65570   78.47140    0.00360    0.15620  -47.64800   28.67380   13.83570
 9900.00000  103.63580    8.93500    0.00670    2.59790   34.33150    0.05690    0.03630  -69.79880   24.32650   12.42240
 9950.00000   37.51040    8.76470    0.01490    2.55190   27.22210    0.09130    0.01760  -72.72430  140.02060   29.24300
 10000.00000   60.68210    8.63420    0.01040    2.62380   30.72860    0.04880    0.01050  -52.86350   35.30860   18.48690
 10050.00000   57.96530    8.70650    0.03950    2.48800   62.34190    0.16860    0.08310  -48.74220   19.25930   15.49190
 10100.00000   82.26260    8.82110    0.02830    2.57410   21.42850    0.06850    0.01760  -58.16560   22.34570   12.44720
 10150.00000  102.74390    8.95580    0.04020    2.56520   23.44240    0.09000    0.03900  -88.33230   24.69140    9.68940
