~Version ---------------------------------------------------
VERS. 2.0 : CWLS log ASCII Standard -VERSION 2.0
WRAP. YES : MULTIPLE LINES PER DEPTH STEP
~Well ------------------------------------------------------
STRT.FT                        2500.0 : START DEPTH
STOP.FT                       18000.0 : STOP DEPTH
STEP.FT                      50.00000 : STEP LENGTH
NULL.                         -999.25 : NULL VALUE
COMP. UNION PACIFIC RESOURCES COMPANY : COMPANY
WELL.       UPR T-BAR-X KING COBRA #1 : WELL
FLD .                         WILDCAT : FIELD
LOC .                                 : LOCATION
CNTY.                            LEON : COUNTY
STAT.                           TEXAS : STATE
CTRY.        UNITED STATES OF AMERICA : COUNTRY
SRVC.                    Schlumberger : SERVICE COMPANY
DATE.                     05-Nov-1997 : LOGDATE
API .                  42289312660000 : API NUMBER
UWI .                  42289312660000 : UNIQUE WELL ID
SLAT.WGS84              31.2008912115 : SURFACE LATITUDE
SLON.WGS84             -96.2874133979 : SURFACE LONGITUDE
~Curve Information -----------------------------------------
DEPT    .FT    : DEPTH FEET
AT10ED  .OHMM  : 10 INCH RESISTIVITY TWO FOOT RESOLUTION FROM AIT LOG
AT20ED  .OHMM  : 20 INCH RESISTIVITY TWO FOOT RESOLUTION FROM AIT LOG
AT30ED  .OHMM  : 30 INCH RESISTIVITY TWO FOOT RESOLUTION FROM AIT LOG
AT60ED  .OHMM  : 60 INCH RESISTIVITY TWO FOOT RESOLUTION FROM AIT LOG
AT90ED  .OHMM  : 90 INCH RESISTIVITY TWO FOOT RESOLUTION FROM AIT LOG
CALDED  .IN    : CALIPER FROM DENSITY LOG [DEP ADJ TO GRRED]
CALRED  .IN    : CALIPER FROM RESISTIVITY LOG
CALWS   .IN    : CALIPER [2484 CALICAL 15888 CALRED]
CGRDED  .GAPI  : GAMMA RAY FROM DENSITY LOG [DEP ADJ TO GRRED]
CONDWS  .MMHO  : CONDUCTIVITY [1000/DRESWS]
DCALED  .IN    : DIFFERENTIAL CALIPER FROM DENSITY LOG
DCORWS  .G/C3  : DENSITY CORRECTION [2484 DRHOED 9946 DRHED 15888.5 DRHOED]
DENWS   .G/C3  : BULK DENSITY [M=2.71 F=1.0] [CALCULATED FROM DPOWS]
DPHILSED.V/V   : DENSITY POROSITY [M=2.71 F=1.0] FROM DENSITY LOG [DEP ADJ TO GRRED]
DPOLSED .V/V   : DENSITY POROSITY HIGH RESOLUTION [M=2.71 F=1.0] FROM DENSITY LOG
DPOWS   .V/V   : DENSITY POROSITY [M=2.71 F=1.0] [2484 DPHILSED 9942 DPOLSED 15888 DPHILSED]
DRESWS  .OHMM  : DEEP RESISTIVITY [A2484 AT90ED 9948.5 IDPHED 15892 LLDED]
DRHED   .G/C3  : DENSITY CORRECTION
DRHOED  .G/C3  : DENSITY CORRECTION FROM DENSITY LOG [DEP ADJ TO GRRED]
DTCOED  .US/F  : DELTA TIME COMPRESSIONAL FROM SONIC LOG [DEP ADJ TO GRRED]
DTED    .US/F  : DELTA TIME FROM SONIC LOG
DTLED   .US/F  : DELTA TIME LONG SPACING FROM SONIC LOG
DTLFED  .US/F  : DELTA TIME LONG SPACING FAR DETECTOR FROM SONIC LOG
DTLNED  .US/F  : DELTA TIME LONG SPACING NEAR DETECTOR FROM SONIC LOG
DTSMED  .US/F  : DELTA TIME SHEAR WAVE FROM SONIC LOG [DEP ADJ TO GRRED]
DTSWS   .US/F  : DELTA TIME SHEAR [DTSMED]
DTWS    .US/F  : DELTA TIME [2484 DTLNED 10155.5 DTLFED 10297.5 DTLNED 10506.5 DTLFED 10628.5 DTLNED 10694 DTLFED 10859 DTLNED 11620 DTLFED 13285.5 DTLNED 14723 DTLFED 15057 DTLNED 15798 DTLFED 15889.5 DTED 15912.5 DTCOED]
GRRED   .GAPI  : GAMMA RAY FROM RESISTIVITY LOG
GRSED   .GAPI  : GAMMA RAY FROM SONIC LOG [DEP ADJ TO GRRED]
GRWS    .GAPI  : GAMMA RAY [2484 GRRED 9881.5 GRREDNRM 9946 GRRED 15728.5 GRSEDNRM 15878 CGRDED 16070 GRRED]
IDPHED  .OHMM  : INDUCTION DEEP PHASE RESISTIVITY
IMPHED  .OHMM  : INDUCTION MEDIUM PHASE RESISTIVITY
LLDED   .OHMM  : LATEROLOG DEEP RESISTIVITY
LLSED   .OHMM  : LATEROLOG SHALLOW RESISTIVITY
MRESWS  .OHMM  : MEDIUM RESISTIVITY [2484 AT30ED 9949.5 IMPHED]
NPHILSED.V/V   : NEUTRON POROSITY LIMESTONE FROM DENSITY LOG [DEP ADJ TO GRRED]
NPOWS   .V/V   : NEUTRON POROSITY LIMESTONE [2484 NPHILSED 15780.5 NPHILNRM 15883.5 NPHILSED]
PEFED   .B/E   : PHOTOELECTRIC FACTOR FROM DENSITY LOG
PEFLED  .B/E   : PHOTOELECTRIC FACTOR FROM DENSITY LOG
PEFWS   .B/E   : PHOTOELECTRIC FACTOR [2484 PEFED 9952.5 PEFLED]
RESED   .OHMM  : SYNTHETIC RESISTIVITY
SFLUED  .OHMM  : SPHERICALLY FOCUSED LOG RESISTIVITY
SPHILSED.V/V   : SONIC POROSITY FROM SONIC LOG [DEP ADJ TO GRRED]
SPOWS   .V/V   : SONIC POROSITY [CAL FR DTWS; M= 47.6, F=189]
SPRED   .MV    : SPONTANEOUS POTENTIAL FROM RESISTIVITY LOG [SHIFTS ARE REMOVED]
SPWS    .MV    : SPONTANEOUS POTENTIAL [BASELINE 0 MV] [SPRED]
SRESWS  .OHMM  : SHALLOW RESISTIVITY [2484 AT10ED 9945.5 SFLUED 15891.5 LLSED]
TENDED  .LBF   : TENSION FROM DENSITY LOG [DEP ADJ TO GRRED]
TENRED  .LBF   : TENSION FROM RESISTIVITY LOG
~Params ----------------------------------------------------
PD  .                     GL : PERMANENT DATUM
EPD .FT                  348 : ELEVATION PERMANENT DATUM
LMF .                     KB : LOG MEASURED FROM
DAPD.FT                   28 : FEET ABOVE PERMANENT DATUM
DMF .                     KB : DRILLING MEASURED FROM
EKB .FT                  376 : KELLY BUSHING
EDF .FT                  374 : DRILLING FLOOR
EGL .FT                  348 : GROUND LEVEL
DATE.               11/05/97 : RUN DATE
RUN .                      3 : RUN NUMBER
DD  .FT                18038 : DEPTH DRILLER
DL  .FT                18024 : DEPTH LOGGER
BLI .FT                 1800 : BOTTOM LOG INTERVAL
TLI .FT                15888 : TOP LOG INTERVAL
CS  .IN                7.625 : CASING SIZE
CBD .FT                15888 : CASING BOTTOM DRILLER
CBL .FT                15888 : CASING BOTTOM LOGGER
BS  .IN                    6 : BIT SIZE
BSD .FT                18038 : BIT SIZE AT DEPTH
DFT .                POLYMER : DRILLING FLUID TYPE
DFD .                   18.2 : DRILLING FLUID DENSITY
DFV .                     40 : DRILLING FLUID VISCOSITY
DFPH.                      9 : DRILLING FLUID PH
DFL .                    5.6 : DRILLING FLUID LOSS
MSS .       CIRCULATION TANK : MUD SAMPLE SOURCE
RMS .OHMM               1.14 : RESISTIVITY MUD SAMPLE
MST .DEGF                 90 : MUD SAMPLE TEMPERATURE
RMF .OHMM              0.969 : RESISTIVITY MUD FILTRATE SAMPLE
MFST.DEGF                 90 : MUD FILTRATE SAMPLE TEMPERATURE
RMC .OHMM              1.311 : RESISTIVITY MUD CAKE
MCST.DEGF                 90 : MUD CAKE SAMPLE TEMPERATURE
MFSS.             CALCULATED : MUD FILTRATE SAMPLE SOURCE
MCSS.             CALCULATED : MUD CAKE SAMPLE SOURCE
RMB .OHMM              0.278 : RESISTIVITY MUD AT BHT
TCS .HRS                2200 : TIME CIRCULATED STOPPED
TLAB.HRS                 445 : TIME LOGGER AT BOTTOM
LUN .                   8400 : LOGGING UNIT NUMBER
LUL .                   6450 : LOGGING UNIT LOCATION
ENGI.                SKRBICH : RECORDING ENGINEER
WITN.          BLANKE WEAVER : WITNESSED BY
CLNT.                A2DTECH : CLIENT CODE
ORIG.         1" 2" 5" PRINT : ORIGIN OF DATA
UWI .         42289312660000 : UNIQUE WELL ID
DICO. A2D Technologies, Inc. : DIGITIZING COMPANY
~Other -----------------------------------------------------
~ASCII -----------------------------------------------------
# ...
 7000.00000    4.55650    6.94080    5.42220    5.17530    4.66190    -999.25    -999.25   12.78610    -999.25  214.50480    0.53610    0.00460    2.27670    0.25340    -999.25    0.25340    4.66190    -999.25    0.00460    -999.25    -999.25    -999.25    -999.25    -999.25    -999.25    -999.25    -999.25   32.82760    -999.25   32.82760    -999.25    -999.25    -999.25    -999.25    5.42220    0.16440    0.16440    6.81800    -999.25    6.81800    6.81800    -999.25    -999.25    -999.25  -71.45370  -31.75130    4.55650    -999.25 2977.56690
 7050.00000    7.36280   10.45320   12.03730   13.67520   16.44870    -999.25    -999.25   12.59040    -999.25   60.79510    0.34040    0.01160    2.69120    0.01100    -999.25    0.01100   16.44870    -999.25    0.01160    -999.25    -999.25    -999.25    -999.25    -999.25    -999.25    -999.25    -999.25   32.08070    -999.25   32.08070    -999.25    -999.25    -999.25    -999.25   12.03730    0.04550    0.04550    4.93220    -999.25    4.93220    4.93220    -999.25    -999.25    -999.25  -69.97140  -31.46760    7.36280    -999.25 2948.12500
 7100.00000    5.25410    7.29000    7.07440    6.53180    6.30840    -999.25    -999.25   12.63960    -999.25  158.51880    0.38960    0.01540    2.59580    0.06680    -999.25    0.06680    6.30840    -999.25    0.01540    -999.25    -999.25    -999.25    -999.25    -999.25    -999.25    -999.25    -999.25   33.72840    -999.25   33.72840    -999.25    -999.25    -999.25    -999.25    7.07440    0.10340    0.10340    4.82910    -999.25    4.82910    4.82910    -999.25    -999.25    -999.25  -53.24610  -15.91850    5.25410    -999.25 2974.93630
 7150.00000    0.85900    1.06550    1.13800    1.34060    1.44240    -999.25    -999.25   18.43510    -999.25  693.28900    6.18510   -0.01320    -999.25    -999.25    -999.25    -999.25    1.44240    -999.25   -0.01320    -999.25    -999.25    -999.25    -999.25    -999.25    -999.25    -999.25    -999.25   35.60960    -999.25   35.60960    -999.25    -999.25    -999.25    -999.25    1.13800    -999.25    -999.25    -999.25    -999.25    -999.25    -999.25    -999.25    -999.25    -999.25  -48.20480  -10.95940    0.85900    -999.25 2982.33520
 7200.00000    0.94610    1.33790    1.08240    0.89050    0.79880    -999.25    -999.25   15.32140    -999.25 1251.87780    3.07140    0.01570    -999.25    -999.25    -999.25    -999.25    0.79880    -999.25    0.01570    -999.25    -999.25    -999.25    -999.25    -999.25    -999.25    -999.25    -999.25   36.50970    -999.25   36.50970    -999.25    -999.25    -999.25    -999.25    1.08240    0.32910    0.32910    8.66480    -999.25    8.66480    8.66480    -999.25    -999.25    -999.25  -42.40920   -5.24610    0.94610    -999.25 2957.54100
 7250.00000    0.87790    1.30180    1.55790    1.84310    2.01850    -999.25    -999.25   16.58860    -999.25  495.41740    4.33860   -0.01120    -999.25    -999.25    -999.25    -999.25    2.01850    -999.25   -0.01120    -999.25    -999.25    -999.25    -999.25    -999.25    -999.25    -999.25    -999.25   35.19830    -999.25   35.19830    -999.25    -999.25    -999.25    -999.25    1.55790    0.34990    0.34990   10.03400    -999.25   10.03400   10.03400    -999.25    -999.25    -999.25  -43.95200   -6.87110    0.87790    -999.25 3018.11650
 7300.00000    2.68450    3.36930    4.03350    4.19530    4.42770    -999.25    -999.25   12.45590    -999.25  225.85090    0.20590    0.01050    2.50090    0.12230    -999.25    0.12230    4.42770    -999.25    0.01050    -999.25    -999.25    -999.25    -999.25    -999.25    -999.25    -999.25    -999.25   37.44750    -999.25   37.44750    -999.25    -999.25    -999.25    -999.25    4.03350    0.13820    0.13820    6.02650    -999.25    6.02650    6.02650    -999.25    -999.25    -999.25  -40.45310   -3.45440    2.68450    -999.25 3015.27860
 7350.00000    6.83630    9.80320    8.98230    8.57420    8.53430    -999.25    -999.25   12.45820    -999.25  117.17420    0.20820    0.00830    2.69320    0.00980    -999.25    0.00980    8.53430    -999.25    0.00830    -999.25    -999.25    -999.25    -999.25    -999.25    -999.25    -999.25    -999.25   25.82910    -999.25   25.82910    -999.25    -999.25    -999.25    -999.25    8.98230    0.03720    0.03720    5.11810    -999.25    5.11810    5.11810    -999.25    -999.25    -999.25  -45.78740   -9.45990    6.83630    -999.25 3070.76710
 7400.00000    8.76730   18.76180   13.95650   13.31900   13.11040    -999.25    -999.25   12.28700    -999.25   76.27530    0.03700    0.00980    2.69340    0.00970    -999.25    0.00970   13.11040    -999.25    0.00980    -999.25    -999.25    -999.25    -999.25    -999.25    -999.25    -999.25    -999.25   23.86790    -999.25   23.86790    -999.25    -999.25    -999.25    -999.25   13.95650    0.02560    0.02560    5.27460    -999.25    5.27460    5.27460    -999.25    -999.25    -999.25  -45.19210   -9.56680    8.76730    -999.25 3088.81810
 7450.00000    4.62720    4.61290    4.42260    4.28620    4.22000    -999.25    -999.25   12.31740    -999.25  236.96680    0.06740    0.00600    2.67100    0.02280    -999.25    0.02280    4.22000    -999.25    0.00600    -999.25    -999.25    -999.25    -999.25    -999.25    -999.25    -999.25    -999.25   34.75950    -999.25   34.75950    -999.25    -999.25    -999.25    -999.25    4.42260    0.10900    0.10900    4.82790    -999.25    4.82790    4.82790    -999.25    -999.25    -999.25  -35.78540   -0.70520    4.62720    -999.25 3063.30130
 7500.00000    4.83310    5.71170    5.41530    5.30580    5.27890    -999.25    -999.25   12.34930    -999.25  189.43340    0.09930    0.00730    2.65800    0.03040    -999.25    0.03040    5.27890    -999.25    0.00730    -999.25    -999.25    -999.25    -999.25    -999.25    -999.25    -999.25    -999.25   34.85560    -999.25   34.85560    -999.25    -999.25    -999.25    -999.25    5.41530    0.10360    0.10360    4.77480    -999.25    4.77480    4.77480    -999.25    -999.25    -999.25  -40.52610   -4.40290    4.83310    -999.25 3074.77640
 7550.00000    6.55760    8.20310    7.29930    7.12200    6.82020    -999.25    -999.25   12.29200    -999.25  146.62330    0.04200    0.00810    2.65850    0.03010    -999.25    0.03010    6.82020    -999.25    0.00810    -999.25    -999.25    -999.25    -999.25    -999.25    -999.25    -999.25    -999.25   33.34270    -999.25   33.34270    -999.25    -999.25    -999.25    -999.25    7.29930    0.08700    0.08700    4.82600    -999.25    4.82600    4.82600    -999.25    -999.25    -999.25  -41.68070   -4.51450    6.55760    -999.25 3095.61720
 7600.00000    6.13810   13.19130    8.19050    5.75950    4.52350    -999.25    -999.25   12.33090    -999.25  221.06780    0.08090    0.01300    2.66370    0.02710    -999.25    0.02710    4.52350    -999.25    0.01300    -999.25    -999.25    -999.25    -999.25    -999.25    -999.25    -999.25    -999.25   34.05120    -999.25   34.05120    -999.25    -999.25    -999.25    -999.25    8.19050    0.04480    0.04480    5.14380    -999.25    5.14380    5.14380    -999.25    -999.25    -999.25  -46.62870   -8.41960    6.13810    -999.25 3082.67290
 7650.00000    2.95490   10.75990    7.59610    3.84350    3.26990    -999.25    -999.25   14.23030    -999.25  305.81970    1.98030   -0.01380    2.10940    0.35120    -999.25    0.35120    3.26990    -999.25   -0.01380    -999.25    -999.25    -999.25    -999.25    -999.25    -999.25    -999.25    -999.25   25.04210    -999.25   25.04210    -999.25    -999.25    -999.25    -999.25    7.59610    0.35000    0.35000    8.48770    -999.25    8.48770    8.48770    -999.25    -999.25    -999.25  -52.65680  -11.55910    2.95490    -999.25 3126.89750
 7700.00000   14.91650   42.50220   60.66170   62.11070   61.18230    -999.25    -999.25   12.29190    -999.25   16.34460    0.04190    0.00140    2.68300    0.01580    -999.25    0.01580   61.18230    -999.25    0.00140    -999.25    -999.25    -999.25    -999.25    -999.25    -999.25    -999.25    -999.25   38.35460    -999.25   38.35460    -999.25    -999.25    -999.25    -999.25   60.66170    0.01150    0.01150    5.83850    -999.25    5.83850    5.83850    -999.25    -999.25    -999.25  -56.39550  -10.95910   14.91650    -999.25 3142.12130
