~Version ---------------------------------------------------
VERS. 2.0 : CWLS log ASCII Standard -VERSION 2.0
WRAP. YES : MULTIPLE LINES PER DEPTH STEP
~Well ------------------------------------------------------
STRT.FT                 3700.0 : START DEPTH
STOP.FT                11650.0 : STOP DEPTH
STEP.FT               50.00000 : STEP LENGTH
NULL.                  -999.25 : NULL VALUE
COMP.     LA SALLE ENERGY CORP : COMPANY
WELL.                   PAM #1 : WELL
FLD .                  WILDCAT : FIELD
LOC .                          : LOCATION
CNTY.                   GRIMES : COUNTY
STAT.                    TEXAS : STATE
CTRY. UNITED STATES OF AMERICA : COUNTRY
SRVC.             Schlumberger : SERVICE COMPANY
DATE.              15-May-1981 : LOGDATE
API .           42185302670000 : API NUMBER
UWI .           42185302670000 : UNIQUE WELL ID
SLAT.WGS84       30.7678132029 : SURFACE LATITUDE
SLON.WGS84      -95.8888588158 : SURFACE LONGITUDE
~Curve Information -----------------------------------------
DEPT    .FT    : DEPTH FEET
CALWS   .IN    : CALIPER [DCALED+8.75]
CONDWS  .MMHO  : CONDUCTIVITY [1000/DRESWS]
DCALRED .IN    : DIFFERENTIAL CALIPER FROM RES. LOG
DCORWS  .G/C3  : DENSITY CORRECTION [DRHOED]
DENWS   .G/C3  : BULK DENSITY [CALCULATED FROM DPOWS][M=2.65 F=1.0]<9830>[M=2.71 F=1.0]<10130>[M=2.68 F=1.0]<11075>[M=2.71 F=1.0] TO TD
DPHILSED.V/V   : DENSITY POROSITY [M=2.71 F=1.0] FROM DENSITY LOG
DPHISSED.V/V   : DENSITY POROSITY [M=2.65 F=1.0] FROM DENSITY LOG
DPOWS   .V/V   : DENSITY POROSITY SNADSTONE [DPHISSED]<9830>[DPHILSED]<10130>[DPHISSED]<11075>[DPHILSED] TO TD
DRESWS  .OHMM  : DEEP RESISTIVITY [ILDED]
DRHOED  .G/C3  : DENSITY CORRECTION FROM DENSITY LOG
GRRED   .GAPI  : GAMMA RAY FROM RESISTIVITY LOG
GRWS    .GAPI  : GAMMA RAY [GRRED]
ILDED   .OHMM  : INDUCTION LOG DEEP RESISTIVITY
ILMED   .OHMM  : INDUCTION LOG MEDIUM RESISTIVITY
MRESWS  .OHMM  : MEDIUM RESISTIVITY [ILMED]
NPHILSED.V/V   : NEUTRON POROSITY LIMESTONE FROM DENSITY LOG
NPHISSED.V/V   : NEUTRON POROSITY SANDSTONE FROM DENSITY LOG
NPOWS   .V/V   : NEUTRON POROSITY SANDSTONE [NPHISSED]<9830>[NPHILSED]<10130>[NPHISSED]<11075>[NPHILSED] TO TD
SFLUED  .OHMM  : SPHERICALLY FOCUSED LOG RESISTIVITY
SPRED   .MV    : SPONTANEOUS POTENTIAL FROM RESISTIVITY LOG
SPWS    .MV    : SPONTANEOUS POTENTIAL [BASELINE 0 MV] [SPRED]
SRESWS  .OHMM  : SHALLOW RESISTIVITY [SFLUED]
TENRED  .LBF   : TENSION FROM RESISTIVITY LOG
~Params ----------------------------------------------------
PD  .                     GL : PERMANENT DATUM
EPD .FT                  259 : ELEVATION PERMANENT DATUM
LMF .                    TKB : LOG MEASURED FROM
DAPD.FT                   13 : FEET ABOVE PERMANENT DATUM
DMF .                    TKB : DRILLING MEASURED FROM
EKB .FT                  272 : KELLY BUSHING
EDF .FT                  271 : DRILLING FLOOR
EGL .FT                  259 : GROUND LEVEL
DATE.               05/15/81 : RUN DATE
RUN .                      1 : RUN NUMBER
DD  .FT                11590 : DEPTH DRILLER
DL  .FT                11619 : DEPTH LOGGER
BLI .FT                11616 : BOTTOM LOG INTERVAL
TLI .FT                 3730 : TOP LOG INTERVAL
CS  .IN                9.625 : CASING SIZE
CBD .FT                 3819 : CASING BOTTOM DRILLER
CBL .FT                 3730 : CASING BOTTOM LOGGER
BS  .IN                 8.75 : BIT SIZE
BSD .FT                11590 : BIT SIZE AT DEPTH
DFT .                  GELEX : DRILLING FLUID TYPE
DFD .                    9.6 : DRILLING FLUID DENSITY
DFV .                     44 : DRILLING FLUID VISCOSITY
DFPH.                      9 : DRILLING FLUID PH
DFL .                    6.6 : DRILLING FLUID LOSS
MSS .               CIRC PIT : MUD SAMPLE SOURCE
RMS .OHMM                1.7 : RESISTIVITY MUD SAMPLE
MST .DEGF                 75 : MUD SAMPLE TEMPERATURE
RMF .OHMM               1.38 : RESISTIVITY MUD FILTRATE SAMPLE
MFST.DEGF                 75 : MUD FILTRATE SAMPLE TEMPERATURE
RMC .OHMM               2.04 : RESISTIVITY MUD CAKE
MCST.DEGF                 75 : MUD CAKE SAMPLE TEMPERATURE
MFSS.                      M : MUD FILTRATE SAMPLE SOURCE
MCSS.                      C : MUD CAKE SAMPLE SOURCE
RMB .OHMM              0.557 : RESISTIVITY MUD AT BHT
TCS .HRS                1300 : TIME CIRCULATED STOPPED
TLAB.HRS                2300 : TIME LOGGER AT BOTTOM
LUN .                   8066 : LOGGING UNIT NUMBER
LUL .                 DAYTON : LOGGING UNIT LOCATION
ENGI.               HARRISON : RECORDING ENGINEER
WITN.                  DUKES : WITNESSED BY
CLNT.                A2DTECH : CLIENT CODE
ORIG.            2" 5" PRINT : ORIGIN OF DATA
UWI .         42185302670000 : UNIQUE WELL ID
DICO. A2D Technologies, Inc. : DIGITIZING COMPANY
~Other -----------------------------------------------------
~ASCII -----------------------------------------------------
# ...
 6800.00000    9.39200  524.41130    0.64200    0.03290    2.47640    -999.25    0.10520    0.10520    1.90690    0.03290   96.95880   96.95880    1.90690    2.38010    2.38010    -999.25    0.24570    0.24570    5.80870  -36.69080  -35.13940    5.80870 3433.94240
 6850.00000    9.99410  506.81670    1.24410    0.00230    2.50150    -999.25    0.09000    0.09000    1.97310    0.00230   84.28960   84.28960    1.97310    2.05830    2.05830    -999.25    0.25750    0.25750    2.87930  -22.85620  -21.47780    2.87930 3516.10350
 6900.00000    9.39810  435.08530    0.64810    0.10170    2.56350    -999.25    0.05240    0.05240    2.29840    0.10170  112.36060  112.36060    2.29840    2.40000    2.40000    -999.25    0.27250    0.27250    2.81790   -8.27730   -7.07200    2.81790 3556.78930
 6950.00000   10.31730  385.87690    1.56730    0.01880    2.53830    -999.25    0.06770    0.06770    2.59150    0.01880  100.25380  100.25380    2.59150    2.87400    2.87400    -999.25    0.21960    0.21960    4.41190  -19.97770  -18.94540    4.41190 3590.35940
 7000.00000   11.39210  447.04720    2.64210    0.01450    2.52250    -999.25    0.07730    0.07730    2.23690    0.01450   86.78400   86.78400    2.23690    2.32930    2.32930    -999.25    0.22220    0.22220    2.77740  -14.30820  -13.44890    2.77740 3607.57180
 7050.00000   11.63010  467.09330    2.88010    0.09690    2.57060    -999.25    0.04810    0.04810    2.14090    0.09690   99.50740   99.50740    2.14090    2.22470    2.22470    -999.25    0.26040    0.26040    2.70760   -4.73600   -4.04980    2.70760 3568.06860
 7100.00000   11.73730  429.03720    2.98730    0.01240    2.56800    -999.25    0.04970    0.04970    2.33080    0.01240  100.64940  100.64940    2.33080    2.44580    2.44580    -999.25    0.24740    0.24740    2.94410   -9.14760   -8.63440    2.94410 3582.27080
 7150.00000   10.94760  463.97260    2.19760    0.05830    2.57560    -999.25    0.04510    0.04510    2.15530    0.05830   98.10840   98.10840    2.15530    2.26400    2.26400    -999.25    0.26950    0.26950    2.66680   -4.59610   -4.25590    2.66680 3594.20900
 7200.00000   10.75400  475.69210    2.00400    0.09820    2.56600    -999.25    0.05090    0.05090    2.10220    0.09820   96.68460   96.68460    2.10220    2.20540    2.20540    -999.25    0.25740    0.25740    2.79680   -3.87610   -3.61170    2.79680 3631.65580
 7250.00000   11.82680  513.79540    3.07680    0.07830    2.59180    -999.25    0.03530    0.03530    1.94630    0.07830   96.75910   96.75910    1.94630    2.04200    2.04200    -999.25    0.25450    0.25450    2.43750   -1.75470   -1.17720    2.43750 3668.03170
 7300.00000   12.42760  456.78790    3.67760    0.03850    2.72790    -999.25   -0.04720   -0.04720    2.18920    0.03850   82.76910   82.76910    2.18920    2.29660    2.29660    -999.25    0.24360    0.24360    2.91670   -5.19850   -4.30790    2.91670 3679.49540
 7350.00000   14.38690  591.92610    5.63690    0.07660    2.57150    -999.25    0.04760    0.04760    1.68940    0.07660   94.89690   94.89690    1.68940    1.74920    1.74920    -999.25    0.29490    0.29490    1.92380   -4.96960   -3.76590    1.92380 3670.60030
 7400.00000   15.17270  447.54740    6.42270    0.04520    2.65460    -999.25   -0.00280   -0.00280    2.23440    0.04520   88.55250   88.55250    2.23440    2.32840    2.32840    -999.25    0.22950    0.22950    2.67650   -2.83210   -1.31530    2.67650 3697.28860
 7450.00000   16.65340  545.64310    7.90340    0.05450    2.51500    -999.25    0.08180    0.08180    1.83270    0.05450  100.72140  100.72140    1.83270    1.86710    1.86710    -999.25    0.27530    0.27530    2.20640   -4.33620   -2.50630    2.20640 3678.83420
 7500.00000   16.78490  523.58760    8.03490    0.05280    2.60130    -999.25    0.02950    0.02950    1.90990    0.05280  106.26050  106.26050    1.90990    1.95510    1.95510    -999.25    0.27270    0.27270    2.28990   -3.01970   -0.87660    2.28990 3715.66650
 7550.00000   15.70120  542.91770    6.95120    0.07980    2.53420    -999.25    0.07020    0.07020    1.84190    0.07980   93.21560   93.21560    1.84190    1.90180    1.90180    -999.25    0.26090    0.26090    2.07870   -7.05800   -4.60180    2.07870 3715.00900
 7600.00000   15.04360  563.69780    6.29360    0.04740    2.58420    -999.25    0.03990    0.03990    1.77400    0.04740   91.83060   91.83060    1.77400    1.86130    1.86130    -999.25    0.26570    0.26570    2.19420   -6.82320   -4.05390    2.19420 3745.29710
 7650.00000   13.64570  555.86440    4.89570    0.04330    2.60230    -999.25    0.02890    0.02890    1.79900    0.04330   99.38970   99.38970    1.79900    1.85970    1.85970    -999.25    0.27580    0.27580    2.22470   -7.43180   -4.34940    2.22470 3773.44240
 7700.00000   13.97860  512.00660    5.22860    0.05440    2.58530    -999.25    0.03920    0.03920    1.95310    0.05440   92.91430   92.91430    1.95310    2.00260    2.00260    -999.25    0.27340    0.27340    2.44370  -10.04290   -6.64740    2.44370 3803.46630
 7750.00000   13.66480  488.94970    4.91480    0.01460    2.56730    -999.25    0.05010    0.05010    2.04520    0.01460  100.00210  100.00210    2.04520    2.15830    2.15830    -999.25    0.24840    0.24840    2.48060  -11.64500   -7.93640    2.48060 3814.71260
 7800.00000   13.43370  436.50970    4.68370    0.07110    2.57720    -999.25    0.04410    0.04410    2.29090    0.07110   92.26590   92.26590    2.29090    2.35150    2.35150    -999.25    0.25610    0.25610    3.14420  -13.16750   -9.14570    3.14420 3862.20190
 7850.00000   12.15210  410.23960    3.40210    0.04370    2.61040    -999.25    0.02400    0.02400    2.43760    0.04370   92.11610   92.11610    2.43760    2.53530    2.53530    -999.25    0.25010    0.25010    2.95540  -12.22910   -7.89420    2.95540 3839.72490
 7900.00000   12.11810  475.12710    3.36810    0.05960    2.60030    -999.25    0.03010    0.03010    2.10470    0.05960  102.55580  102.55580    2.10470    2.20800    2.20800    -999.25    0.27810    0.27810    2.60220  -10.08740   -5.43940    2.60220 3881.35840
 7950.00000   12.61590  414.92050    3.86590    0.03990    2.55730    -999.25    0.05620    0.05620    2.41010    0.03990   97.15430   97.15430    2.41010    2.53120    2.53120    -999.25    0.23530    0.23530    2.87150  -10.36240   -5.40130    2.87150 3943.46970
 8000.00000   13.00330  402.69000    4.25330    0.10150    2.62010    -999.25    0.01810    0.01810    2.48330    0.10150   93.51770   93.51770    2.48330    2.57800    2.57800    -999.25    0.25930    0.25930    2.73850  -14.80920   -9.53500    2.73850 3954.43360
 8050.00000   14.09450  410.82950    5.34450    0.10130    2.50450    -999.25    0.08820    0.08820    2.43410    0.10130   94.37160   94.37160    2.43410    2.51680    2.51680    -999.25    0.24270    0.24270    2.89190  -15.30480   -9.71740    2.89190 3962.05180
 8100.00000   15.97940  484.33190    7.22940    0.09880    2.49570    -999.25    0.09350    0.09350    2.06470    0.09880   94.34490   94.34490    2.06470    2.14470    2.14470    -999.25    0.25540    0.25540    2.46500  -16.89440  -10.99390    2.46500 3976.11010
 8150.00000   15.18330  383.15640    6.43330    0.09820    2.59440    -999.25    0.03370    0.03370    2.60990    0.09820   93.62120   93.62120    2.60990    2.69310    2.69310    -999.25    0.23350    0.23350    3.23130  -18.15870  -11.94510    3.23130 4001.15500
 8200.00000   15.10190  405.23570    6.35190    0.09320    2.62670    -999.25    0.01410    0.01410    2.46770    0.09320   92.38220   92.38220    2.46770    2.54650    2.54650    -999.25    0.23500    0.23500    2.97700  -18.62880  -12.10210    2.97700 3995.28690
 8250.00000   13.84460  435.38840    5.09460    0.05750    2.59410    -999.25    0.03390    0.03390    2.29680    0.05750  101.48520  101.48520    2.29680    2.37000    2.37000    -999.25    0.26450    0.26450    2.77970  -19.57340  -12.73360    2.77970 4048.12080
 8300.00000   11.96230  442.83060    3.21230    0.09810    2.67140    -999.25   -0.01300   -0.01300    2.25820    0.09810   79.96600   79.96600    2.25820    2.40810    2.40810    -999.25    0.23520    0.23520    2.75130  -17.16850  -10.01560    2.75130 4081.19800
