~Version ---------------------------------------------------
VERS.      2.0 : CWLS log ASCII Standard -VERSION 2.0
WRAP.      YES : Multiple lines per depth step
CREA. 07/19/18 : LAS Creation Date
~Well ------------------------------------------------------
STRT.FT                           3800.0 : START DEPTH
STOP.FT                          13600.0 : STOP DEPTH
STEP.FT                         50.00000 : STEP LENGTH
NULL.                            -999.25 : NULL VALUE
COMP. TEXSTAR NORTH AMERICA INCORPORATED : COMPANY
WELL.                  BERRY GAS UNIT #1 : WELL
FLD .                 SW KENEDY PROSPECT : FIELD
LOC .                                    : LOCATION
CNTY.                             KARNES : COUNTY
STAT.                              TEXAS : STATE
CTRY.           UNITED STATES OF AMERICA : COUNTRY
SRVC.                       Schlumberger : SERVICE COMPANY
DATE.                        16-Mar-1988 : LOGDATE
API .                     42255311960000 : API NUMBER
UWI .                     42255311960000 : UNIQUE WELL ID
SLAT.WGS84                 28.7645998907 : SURFACE LATITUDE
SLON.WGS84                -97.8956197689 : SURFACE LONGITUDE
~Curve Information -----------------------------------------
DEPT    .FT    : DEPTH FEET
CALWS   .IN    : CALIPER [DCALDED+BIT]
CONDWS  .MMHO  : DEEP CONDUCTIVITY [1000/DRESWS]
DCALDED .IN    : DIFFERENTIAL CALIPER FROM LDT-CNT LOG [DSH. TO RESISTIVITY]
DCORWS  .G/C3  : DENSITY CORRECTION [DRHOED]
DENWS   .G/C3  : BULK DENSITY [CALC. FROM DPOLSWS]
DPHILSED.V/V   : DENSITY POROSITY (LS) [M=2.71 F=1.00] FROM LDT-CNT LOG [DSH. TO RESISTIVITY]
DPOLSWS .V/V   : DENSITY POROSITY (LS) [M=2.71 F=1.00] [DPHILSED]
DRESWS  .OHMM  : DEEP RESISTIVITY [ILDED]
DRHOED  .G/C3  : DENSITY CORRECTION FROM LDT-CNT LOG [DSH. TO RESISTIVITY]
DTED    .US/F  : DELTA TIME FROM DISFL-SONIC LOG [DSH. TO RES LOG]
DTLED   .US/F  : DELTA TIME LONG SPACING FROM DISFL-SONIC LOG [DSH. TO RESISTIVITY]
DTWS    .US/F  : DELTA TIME COMPRESSIONAL [DTED]
GRDED   .GAPI  : GAMMA RAY FROM LDT-CNT LOG [DSH. TO RESISTIVITY]
GRRED   .GAPI  : GAMMA RAY FROM DISFL-SONIC LOG [DSH. TO RESISTIVITY]
GRWS    .GAPI  : GAMMA RAY [GRRED]
ILDED   .OHMM  : DEEP INDUCTION RESISTIVITY
ILMED   .OHMM  : MEDIUM INDUCTION RESISTIVITY
MRESWS  .OHMM  : MEDIUM RESISTIVITY [ILMED]
NPHILSED.V/V   : NEUTRON POROSITY LIMESTONE FROM LDT-CNT LOG [DSH. TO RESISTIVITY]
NPOLSWS .V/V   : NEUTRON POROSITY LIMESTONE [NPHILSED]
PEFED   .B/E   : PHOTOELECTRIC FACTOR FROM LDT-CNT LOG [DSH. TO RESISTIVITY]
PEFWS   .B/E   : PHOTOELECTRIC FACTOR [PEFED]
SFLUED  .OHMM  : SPHERICALLY FOCUSED LOG RESISTIVITY
SPHILSED.V/V   : SONIC POROSITY (LS) FROM DISFL-SONIC LOG [DSH. TO RESISTIVITY]
SPOLSWS .V/V   : SONIC POROSITY (LS) [SPHILSED]
SPRED   .MV    : SPONTANEOUS POTENTIAL FROM DISFL-SONIC LOG
SPWS    .MV    : SPONTANEOUS POTENTIAL [BASELINE 0 MV] [SPRED]
SRESWS  .OHMM  : SHALLOW RESISTIVITY [SFLUED]
TENDED  .LBF   : TENSION FROM LDT-CNT LOG [DSH. TO RES LOG]
TENRED  .LBF   : TENSION FROM DISFL-SONIC LOG
~Params ----------------------------------------------------
PD  .                     GL : PERMANENT DATUM
EPD .FT                399.7 : ELEVATION PERMANENT DATUM
LMF .                     KB : LOG MEASURED FROM
DAPD.FT                   13 : FEET ABOVE PERMANENT DATUM
DMF .                     KB : DRILLING MEASURED FROM
EKB .FT                412.7 : KELLY BUSHING
EDF .FT                411.7 : DRILLING FLOOR
EGL .FT                399.7 : GROUND LEVEL
DATE.               03/16/88 : RUN DATE
RUN .                      1 : RUN NUMBER
DD  .FT                13841 : DEPTH DRILLER
DL  .FT                13632 : DEPTH LOGGER
BLI .FT                13626 : BOTTOM LOG INTERVAL
TLI .FT                 3814 : TOP LOG INTERVAL
CS  .IN                8.625 : CASING SIZE
CBD .FT                 3815 : CASING BOTTOM DRILLER
CBL .FT                 3814 : CASING BOTTOM LOGGER
BS  .IN                  8.5 : BIT SIZE
BSD .FT                13841 : BIT SIZE AT DEPTH
DFT .              DURA HOLE : DRILLING FLUID TYPE
DFD .                   11.1 : DRILLING FLUID DENSITY
DFV .                     46 : DRILLING FLUID VISCOSITY
DFPH.                   10.5 : DRILLING FLUID PH
DFL .                      6 : DRILLING FLUID LOSS
MSS .               MUD TNAK : MUD SAMPLE SOURCE
RMS .OHMM              0.601 : RESISTIVITY MUD SAMPLE
MST .DEGF                110 : MUD SAMPLE TEMPERATURE
RMF .OHMM               0.81 : RESISTIVITY MUD FILTRATE SAMPLE
MFST.DEGF                 89 : MUD FILTRATE SAMPLE TEMPERATURE
RMC .OHMM                0.9 : RESISTIVITY MUD CAKE
MCST.DEGF                110 : MUD CAKE SAMPLE TEMPERATURE
MFSS.                   MEAS : MUD FILTRATE SAMPLE SOURCE
MCSS.                   CALC : MUD CAKE SAMPLE SOURCE
RMB .OHMM              0.236 : RESISTIVITY MUD AT BHT
TCS .HRS                2100 : TIME CIRCULATED STOPPED
TLAB.HRS                 612 : TIME LOGGER AT BOTTOM
LUN .                   8268 : LOGGING UNIT NUMBER
LUL .             PLEASANTON : LOGGING UNIT LOCATION
ENGI.                  WILKE : RECORDING ENGINEER
WITN.  REQUAETH  NOVAK GIBBS : WITNESSED BY
CLNT.                A2DTECH : CLIENT CODE
ORIG.               5" PRINT : ORIGIN OF DATA
UWI .         42255311960000 : UNIQUE WELL ID
DICO. A2D Technologies, Inc. : DIGITIZING COMPANY
~Other -----------------------------------------------------
GRDED GAPS 12180-12250' DUE TO STICKING TOOL.
LDT-CNT PULLED TIGHT AT SEVERAL DEPTHS FROM AROUND 13000' UP. THIS MAY AFFECT LOG QUALITY.
~ASCII -----------------------------------------------------
# ...
 12200.00000   14.39520  487.68590    5.89520    -999.25    -999.25    -999.25    -999.25    2.05050    -999.25   89.76980   89.03350   89.76980    -999.25   83.76820   83.76820    2.05050    2.03010    2.03010    -999.25    -999.25    -999.25    -999.25    2.34650    0.26520    0.26520    0.12990   -6.60010    2.34650 4187.31200 4074.82980
 12250.00000   12.56520  439.92790    4.06520    -999.25    -999.25    -999.25    -999.25    2.27310    -999.25   87.46910   87.81850   87.46910  108.70690  111.82130  111.82130    2.27310    2.22970    2.22970    -999.25    -999.25    -999.25    -999.25    2.53850    0.25830    0.25830    2.04540   -5.34040    2.53850 4842.27830 4102.33590
 12300.00000   14.04970  501.07730    5.54970    -999.25    -999.25    -999.25    -999.25    1.99570    -999.25   89.53560   89.70220   89.53560   84.24190   88.66740   88.66740    1.99570    1.94100    1.94100    -999.25    -999.25    -999.25    -999.25    2.26990    0.26890    0.26890    2.10950   -5.93210    2.26990 4237.01420 4159.77250
 12350.00000   11.67110  408.26320    3.17110    -999.25    -999.25    -999.25    -999.25    2.44940    -999.25   84.14050   83.76380   84.14050   86.37440   79.45680   79.45680    2.44940    2.41680    2.41680    -999.25    -999.25    -999.25    -999.25    3.07190    0.24570    0.24570    3.61980   -5.07760    3.07190 4443.47560 4126.10400
 12400.00000   11.30750  363.18730    2.80750    -999.25    -999.25    -999.25    -999.25    2.75340    -999.25   83.62120   84.21470   83.62120   84.01560   86.01830   86.01830    2.75340    2.83230    2.83230    -999.25    -999.25    -999.25    -999.25    2.89670    0.24360    0.24360    4.30700   -5.04620    2.89670 4294.38380 4067.86450
 12450.00000   10.09660  345.23230    1.59660    -999.25    -999.25    -999.25    -999.25    2.89660    -999.25   82.62630   82.94670   82.62630   92.74340   81.87490   81.87490    2.89660    2.96950    2.96950    -999.25    -999.25    -999.25    -999.25    3.38750    0.24370    0.24370    5.20720   -4.80180    3.38750 4316.55910 4158.89790
 12500.00000   10.16810  350.98800    1.66810    -999.25    -999.25    -999.25    -999.25    2.84910    -999.25   80.16310   80.32910   80.16310   78.11540   72.45440   72.45440    2.84910    2.86640    2.86640    -999.25    -999.25    -999.25    -999.25    3.71930    0.23250    0.23250    5.84490   -4.81990    3.71930 4316.70900 4178.69680
 12550.00000   10.69030  335.15430    2.19030    0.05960    2.61850    0.05350    0.05350    2.98370    0.05960   82.35450   82.52320   82.35450   85.58770   74.99010   74.99010    2.98370    2.96450    2.96450    0.18740    0.18740    4.16800    4.16800    3.56360    0.26470    0.26470    6.18350   -5.13710    3.56360 4347.10690 4172.17290
 12600.00000    9.56600   82.23890    1.06600    0.01030    2.66810    0.02450    0.02450   12.15970    0.01030   62.17430   62.37220   62.17430   45.97460   42.97690   42.97690   12.15970   13.78970   13.78970    0.04660    0.04660    5.21610    5.21610   17.26650    0.14660    0.14660   10.26840   -1.70800   17.26650 4342.33060 4094.07230
 12650.00000    9.83360  316.74640    1.33360    0.03100    2.62720    0.04840    0.04840    3.15710    0.03100   83.98690   84.87540   83.98690   78.55790   82.27140   82.27140    3.15710    3.54980    3.54980    0.22610    0.22610    4.76670    4.76670    3.32510    0.26640    0.26640    5.79920   -6.17720    3.32510 4574.31880 4133.69290
 12700.00000   12.79560  435.29360    4.29560    0.10000    2.54960    0.09380    0.09380    2.29730    0.10000   88.61970   88.78620   88.61970   88.00180   75.92160   75.92160    2.29730    2.36670    2.36670    0.20130    0.20130    7.05000    7.05000    2.85790    0.28930    0.28930    4.00290   -7.97350    2.85790 5185.87010 4245.77780
 12750.00000   11.68560  449.19590    3.18560    0.06830    2.38600    0.18950    0.18950    2.22620    0.06830   89.31940   89.08850   89.31940   82.28980   80.75310   80.75310    2.22620    2.07060    2.07060    0.22380    0.22380    6.90920    6.90920    2.56970    0.29310    0.29310    6.09440   -5.88200    2.56970 4395.76120 4178.85450
 12800.00000    9.85870   50.48060    1.35870    0.04760    2.52720    0.10690    0.10690   19.80960    0.04760   74.43340   74.82970   74.43340   44.23670   42.54800   42.54800   19.80960   20.10420   20.10420    0.11750    0.11750    4.94950    4.94950   31.25350    0.22740    0.22740   12.19760    0.22120   31.25350 4454.64310 4158.41650
 12850.00000    9.90490   42.02550    1.40490    0.09530    2.66610    0.02570    0.02570   23.79510    0.09530   73.50250   80.54340   73.50250   79.88440   52.02230   52.02230   23.79510   28.80390   28.80390    0.11030    0.11030    5.74920    5.74920   59.47720    0.21190    0.21190    9.84110   -1.93610   59.47720 4745.61620 4223.59380
 12900.00000   10.02980   36.57600    1.52980    0.06290    2.50450    0.12010    0.12010   27.34030    0.06290   76.98230   77.24050   76.98230   99.60070   99.19090   99.19090   27.34030   28.22710   28.22710    0.14360    0.14360    4.91640    4.91640   47.72490    0.23670    0.23670    6.27560   -4.63540   47.72490 4784.93580 4190.16750
 12950.00000   10.01330   30.89980    1.51330    0.04250    2.53610    0.10170    0.10170   32.36270    0.04250   70.36090   70.60710   70.36090   74.40130   74.19420   74.19420   32.36270   33.57340   33.57340    0.14450    0.14450    4.91140    4.91140   67.27830    0.20420    0.20420    0.40500   -9.63990   67.27830 4453.53760 4262.87210
 13000.00000   10.47700   38.19330    1.97700    0.02350    2.53130    0.10450    0.10450   26.18260    0.02350   75.78740   76.07910   75.78740   73.65190   75.63050   75.63050   26.18260   26.38850   26.38850    0.18760    0.18760    5.24640    5.24640   49.14190    0.23140    0.23140   -0.24450   -9.42320   49.14190 4463.21040 4234.21680
 13050.00000   10.98220    4.97240    2.48220    0.02460    2.68140    0.01670    0.01670  201.10930    0.02460   49.40080   49.56950   49.40080   50.74240   46.42220   46.42220  201.10930  143.52040  143.52040    0.00960    0.00960    7.29780    7.29780  498.74090    0.02300    0.02300  -28.76970  -38.16670  498.74090 4490.01000 4320.09620
 13100.00000    9.29570   10.56640    0.79570    0.09840    2.55950    0.08800    0.08800   94.64000    0.09840   52.59760   52.77430   52.59760   21.33760   20.62850   20.62850   94.64000  120.38400  120.38400    0.04900    0.04900    8.97300    8.97300  191.24760    0.05990    0.05990  -62.01050  -72.29040  191.24760 4525.62940 4293.85450
 13150.00000   10.19300    3.55200    1.69300    0.06330    2.71890   -0.00520   -0.00520  281.53540    0.06330   49.15420   49.57660   49.15420   30.38900   28.96460   28.96460  281.53540  169.80930  169.80930   -0.00250   -0.00250    6.14300    6.14300 1272.85240    0.01580    0.01580  -49.07680  -60.23960 1272.85240 4579.23190 4240.16750
 13200.00000   10.76280    6.37020    2.26280    0.03060    2.65920    0.02970    0.02970  156.98020    0.03060   50.11250   50.33190   50.11250   64.67300   57.07870   57.07870  156.98020  118.78480  118.78480    0.00200    0.00200    6.88500    6.88500  325.11950    0.03040    0.03040  -72.65310  -84.69880  325.11950 4567.50930 4249.58890
 13250.00000    8.32760   19.34320   -0.17240    0.10000    2.40240    0.17990    0.17990   51.69770    0.10000   57.80830   58.44700   57.80830   42.40380   42.36770   42.36770   51.69770   82.69190   82.69190    0.05780    0.05780   12.79410   12.79410   92.39830    0.11090    0.11090  -79.63230  -92.56090   92.39830 4682.55320 4347.56590
 13300.00000   10.25850   65.10080    1.75850    0.10000    2.54140    0.09860    0.09860   15.36080    0.10000   55.04410   55.22100   55.04410   33.68130   37.84590   37.84590   15.36080   17.09350   17.09350    0.03330    0.03330   10.18130   10.18130   55.26020    0.08390    0.08390  -71.11110  -84.92260   55.26020 4737.23000 4318.91360
 13350.00000    8.55040   71.93160    0.05040    0.10000    2.48670    0.13060    0.13060   13.90210    0.10000   59.67640   59.46740   59.67640   33.64340   27.17300   27.17300   13.90210   19.37010   19.37010    0.06380    0.06380   10.12520   10.12520   40.15830    0.12770    0.12770  -73.89610  -88.59050   40.15830 4739.43990 4309.71340
