~Version ---------------------------------------------------
VERS.      2.0 : CWLS log ASCII Standard -VERSION 2.0
WRAP.      YES : MULTIPLE LINES PER DEPTH STEP
CREA. 09/17/13 : LAS CREATION DATE
~Well ------------------------------------------------------
STRT.FT                   2000.0 : START DEPTH
STOP.FT                  11500.0 : STOP DEPTH
STEP.FT                 50.00000 : STEP LENGTH
NULL.                    -999.25 : NULL VALUE
COMP. LADD PETROLEUM CORPORATION : COMPANY
WELL.        LADD FITZSIMMONS #1 : WELL
FLD .                    WILDCAT : FIELD
LOC .                            : LOCATION
CNTY.                     DIMMIT : COUNTY
STAT.                      TEXAS : STATE
CTRY.   UNITED STATES OF AMERICA : COUNTRY
SRVC.               Schlumberger : SERVICE COMPANY
DATE.                19-Jan-1978 : LOGDATE
API .             42127315740000 : API NUMBER
UWI .             42127315740000 : UNIQUE WELL ID
SLAT.WGS84         28.2507010101 : SURFACE LATITUDE
SLON.WGS84       -100.0580378891 : SURFACE LONGITUDE
~Curve Information -----------------------------------------
DEPT    .FT    : DEPTH FEET
CALDED  .IN    : CALIPER FROM DENSITY LOG, DEPTH ADJUSTED WITH [SPRED]
CALWS   .IN    : CALIPER [CALDED]
CILDED  .MMHO  : CONDUCTIVITY FROM RESISTIVITY LOG
CONDWS  .MMHO  : CONDUCTIVITY [1000/DRESWS]
CORRED  .G/C3  : DENSITY CORRECTION FROM DENSITY LOG, DEPTH ADJUSTED WITH [SPRED]
DCORWS  .G/C3  : DENSITY CORRECTION [CORRED]
DENWS   .G/C3  : BULK DENSITY [M=2.71 F=1.0] [RHOBED]
DPHILSED.V/V   : DENSITY POROSITY [M=2.71 F=1.0] FROM DENSITY LOG, DEPTH ADJUSTED WITH [SPRED]
DPHISSED.V/V   : DENSITY POROSITY [M=2.65 F=1.0] FROM DENSITY LOG, DEPTH ADJUSTED WITH [SPRED]
DPOLSWS .V/V   : DEBSITY POROSITY LIMESTONE [CALCULATED FROM DENWS]
DRESWS  .OHMM  : DEEP RESISTIVITY [ILDED] IF DRESWS<1;1000/CONDWS
DTED    .US/F  : DELTA TIME FROM SONIC LOG
DTWS    .US/F  : DELTA TIME [DTED]
GRDED   .GAPI  : GAMMA RAY FROM DENSITY LOG, DEPTH ADJUSTED WITH [SPRED]
GRRED   .GAPI  : GAMMA RAY FROM RESISTIVITY LOG
GRWS    .GAPI  : GAMMA RAY [GRRED], SPLICED WITH [GRDED] FROM TOP TO 5160'
ILDED   .OHMM  : INDUCTION LOG DEEP RESISTIVITY
ILMED   .OHMM  : INDUCTION LOG MEDIUM RESISTIVITY
LL8ED   .OHMM  : 8 INCH LATEROLOG RESISTIVITY
MRESWS  .OHMM  : MEDIUM RESISTIVITY [ILMED]
NPHILSED.V/V   : NEUTRON POROSITY LIMESTONE FROM DENSITY LOG, DEPTH ADJUSTED WITH [SPRED]
NPHISSED.V/V   : NEUTRON POROSITY SANDSTONE FROM DENSITY LOG, DEPTH ADJUSTED WITH [SPRED]
NPOLSWS .V/V   : NEUTRON POROSITY LIMESTONE [NPHILSED], MATRIX CONVERTED [NPHISSED] TO LIMESTONE [TOP-5100]
RHOBED  .G/C3  : BULK DENSITY FROM DENSITY LOG, DEPTH ADJUSTED WITH [SPRED]
SPHIED  .V/V   : SONIC POROSITY FROM SONIC LOG
SPOWS   .V/V   : SONIC POROSITY [SPHIED]
SPRED   .MV    : SPONTANEOUS POTENTIAL FROM RESISTIVITY LOG
SPWS    .MV    : SPONTANEOUS POTENTIAL [BASELINE 0 MV] [SPRED]
SRESWS  .OHMM  : SHALLOW RESISTIVITY [LL8ED]
~Params ----------------------------------------------------
EKB .F                  728.0 : Kelly bushing
EGL .F                  710.0 : Ground level
EDF .F                  727.0 : Drilling floor
EPD .F                  710.0 : Permanent datum
TD  .F                11519.0 : Total depth
DATE.             19-JAN-1978 : DATE LOGGED
CLNT.                 A2DTECH : CLIENT CODE
SL  . 7000' FNEL & 7500' FSEL : SURFACE LOCATION
PD  .                      GL : PERMANENT DATUM
LMF .                      KB : LOG MEASURED FROM
DMF .                      KB : DRILLING MEASURED FROM
DAPD.F                     18 : FEET ABOVE PERMANENT DATUM
DD  .F                  11518 : DEPTH DRILLER
DL  .F                  11519 : DEPTH LOGGER
BLI .F                  11513 : BOTTOM LOG INTERVAL
TLI .F                   9875 : TOP LOG INTERVAL
CS1 .IN                 7.625 : CASING SIZE
CBD1.          7.625" @ 9920' : CASING DRILLER 1
CBL1.F                   9875 : CASING LOGGER 1
BS1 .IN                   6.5 : BIT SIZE
BSD1.F                  11518 : DEPTH DRILLED WITH BIT1
DFT .               SPER-TANN : TYPE FLUID IN HOLE
DFD .                    16.5 : DENSITY
DFV .                      50 : VISCOSITY
DFPH.                    11.8 : PH
MSS .              CIRC. TANK : SOURCE OF SAMPLE
RMS .OHMM                1.41 : RM
RMF .OHMM                0.51 : RMF
RMC .OHMM                 4.6 : RMC
MFSS.                    MEAS : SOURCE RMF.
MCSS.                    CALC : SOURCE RMC.
RMB .OHMM                0.38 : RM. AT BHT
BHT .F                    260 : BHT.
TCS .HRS                 1000 : TIME CIRC. STOPPED
TLAB.                    1500 : TIME LOGGER AT BOTTOM
LUN .                    7739 : LOGGING UNIT NUMBER
LUL .                  LAREDO : LOGGING UNIT LOCATION
ENGI.                   LOGAL : RECORDED BY
WITN.                 ELLISON : WITNESSED BY
ORIG.             1" 5" PRINT : ORIGIN OF DATA
UWI .          42127315740000 : UNIQUE WELL ID
DICO.  A2D TECHNOLOGIES, INC. : DIGITIZING COMPANY
~Other -----------------------------------------------------
~ASCII -----------------------------------------------------
# ...
 9500.00000   12.02640   12.02640   14.11600   14.11600    0.16400    0.16400    2.54870    0.06110    -999.25    0.09430   70.84160   48.68260   48.68260   19.59580   13.21650   13.21650  188.69660    -999.25  200.00400    -999.25    0.03120    -999.25    0.03120    2.54870    0.01070    0.01070 -156.27690 -117.08600  200.00400
 9550.00000   10.70190   10.70190   19.65820   19.65820    0.12520    0.12520    2.67070    0.00840    -999.25    0.02300   50.86940   48.96520   48.96520   19.11420   12.65490   12.65490   70.99490    -999.25  200.50800    -999.25    0.01220    -999.25    0.01220    2.67070    0.01000    0.01000  -89.13870  -50.51960  200.50800
 9600.00000   12.02110   12.02110   12.51620   12.51620    0.14440    0.14440    2.56720    0.08180    -999.25    0.08350   79.89650   50.72500   50.72500   24.75090   18.55600   18.55600  200.36270    -999.25  200.16440    -999.25    0.02480    -999.25    0.02480    2.56720    0.02260    0.02260 -159.46780 -121.42050  200.16440
 9650.00000   11.12920   11.12920   53.09690   53.09690    0.22110    0.22110    2.53020    0.01450    -999.25    0.10510   18.83350   62.74030   62.74030   52.23700   39.62760   39.62760   28.29920    -999.25  101.35630    -999.25    0.07740    -999.25    0.07740    2.53020    0.10550    0.10550  -66.89480  -29.41940  101.35630
 9700.00000    9.49100    9.49100   20.24570   20.24570    0.02150    0.02150    2.71940   -0.00470    -999.25   -0.00550   49.39320   51.49080   51.49080   36.20330   24.96470   24.96470   87.30450    -999.25  200.75160    -999.25    0.02830    -999.25    0.02830    2.71940    0.02900    0.02900  -84.01720  -47.11360  200.75160
 9750.00000    9.51810    9.51810   35.65330   35.65330   -0.00230   -0.00230    2.69240    0.01830    -999.25    0.01030   28.04790   55.42680   55.42680   38.17860   25.80100   25.80100   34.63980    -999.25   84.89780    -999.25    0.04890    -999.25    0.04890    2.69240    0.05370    0.05370  -54.83110  -18.49930   84.89780
 9800.00000    9.54250    9.54250   46.26790   46.26790    0.00210    0.00210    2.68870    0.01590    -999.25    0.01250   21.61330   57.78740   57.78740   41.30060   28.98330   28.98330   26.23850    -999.25   51.73230    -999.25    0.07490    -999.25    0.07490    2.68870    0.06910    0.06910  -54.10450  -18.34460   51.73230
 9850.00000    9.53300    9.53300   40.10300   40.10300    0.03710    0.03710    2.73500    0.00490    -999.25   -0.01460   24.93580   56.43870   56.43870   45.15780   29.99500   29.99500   32.07720    -999.25   56.75230    -999.25    0.07950    -999.25    0.07950    2.73500    0.06470    0.06470  -31.02530    2.29970   56.75230
 9900.00000    8.48150    8.48150    -999.25   37.01540    -999.25    -999.25    -999.25    0.30380    -999.25    -999.25   27.01580   58.26440   58.26440   34.32740   30.75050   30.75050   27.01580   28.26460   36.61920   28.26460    0.12190    -999.25    0.12190    -999.25    -999.25    -999.25  -48.75780   -3.00510   36.61920
 9950.00000    -999.25    -999.25    -999.25  115.22200    -999.25    -999.25    -999.25    -999.25    -999.25    -999.25    8.67890   70.41250   70.41250    -999.25   64.61030   64.61030    8.67890    8.31980   14.68870    8.31980    -999.25    -999.25    -999.25    -999.25    -999.25    -999.25  -55.04450   -8.32480   14.68870
 10000.00000    -999.25    -999.25    -999.25  135.38580    -999.25    -999.25    -999.25    -999.25    -999.25    -999.25    7.38630   74.78730   74.78730    -999.25   85.18960   85.18960    7.38630   10.42130   11.85110   10.42130    -999.25    -999.25    -999.25    -999.25    -999.25    -999.25  -51.69750   -4.01070   11.85110
 10050.00000    -999.25    -999.25    -999.25   37.29050    -999.25    -999.25    -999.25    -999.25    -999.25    -999.25   26.81650   67.70430   67.70430    -999.25   59.23940   59.23940   26.81650   31.20760   38.34510   31.20760    -999.25    -999.25    -999.25    -999.25    -999.25    -999.25  -58.70250  -10.04870   38.34510
 10100.00000    -999.25    -999.25    -999.25  145.79170    -999.25    -999.25    -999.25    -999.25    -999.25    -999.25    6.85910   89.05310   89.05310    -999.25   73.36560   73.36560    6.85910    7.52560    9.91050    7.52560    -999.25    -999.25    -999.25    -999.25    -999.25    -999.25  -62.10290  -12.48210    9.91050
 10150.00000    -999.25    -999.25    -999.25  125.31010    -999.25    -999.25    -999.25    -999.25    -999.25    -999.25    7.98020   96.15790   96.15790    -999.25   66.09510   66.09510    7.98020   10.12880   20.06950   10.12880    -999.25    -999.25    -999.25    -999.25    -999.25    -999.25  -63.15430  -12.56640   20.06950
 10200.00000    -999.25    -999.25    -999.25   64.05620    -999.25    -999.25    -999.25    -999.25    -999.25    -999.25   15.61130   83.54660   83.54660    -999.25   54.82780   54.82780   15.61130   16.36830   23.66790   16.36830    -999.25    -999.25    -999.25    -999.25    -999.25    -999.25  -62.09540  -10.54050   23.66790
 10250.00000    -999.25    -999.25    -999.25   53.10560    -999.25    -999.25    -999.25    -999.25    -999.25    -999.25   18.83040   77.15140   77.15140    -999.25   74.09140   74.09140   18.83040   21.40150   34.61250   21.40150    -999.25    -999.25    -999.25    -999.25    -999.25    -999.25  -56.43360   -3.91170   34.61250
 10300.00000    -999.25    -999.25    -999.25   42.41690    -999.25    -999.25    -999.25    -999.25    -999.25    -999.25   23.57550   56.31700   56.31700    -999.25   42.49960   42.49960   23.57550   33.36230  107.99430   33.36230    -999.25    -999.25    -999.25    -999.25    -999.25    -999.25  -56.72750   -3.23850  107.99430
 10350.00000    -999.25    -999.25    -999.25   86.42740    -999.25    -999.25    -999.25    -999.25    -999.25    -999.25   11.57040   76.62330   76.62330    -999.25   65.32720   65.32720   11.57040   13.60660   16.73010   13.60660    -999.25    -999.25    -999.25    -999.25    -999.25    -999.25  -59.09600   -4.64000   16.73010
 10400.00000    -999.25    -999.25    -999.25  160.70190    -999.25    -999.25    -999.25    -999.25    -999.25    -999.25    6.22270   83.63640   83.63640    -999.25   80.86290   80.86290    6.22270    6.65370    8.08410    6.65370    -999.25    -999.25    -999.25    -999.25    -999.25    -999.25  -63.57600   -8.15300    8.08410
 10450.00000    -999.25    -999.25    -999.25   16.54820    -999.25    -999.25    -999.25    -999.25    -999.25    -999.25   60.42950   51.92180   51.92180    -999.25   35.75150   35.75150   60.42950  127.86000  330.16160  127.86000    -999.25    -999.25    -999.25    -999.25    -999.25    -999.25  -60.54520   -4.15510  330.16160
 10500.00000    -999.25    -999.25    -999.25    2.04630    -999.25    -999.25    -999.25    -999.25    -999.25    -999.25  488.69250   49.35280   49.35280    -999.25   33.01630   33.01630  488.69250  365.65780  395.91520  365.65780    -999.25    -999.25    -999.25    -999.25    -999.25    -999.25  -73.90740  -16.55030  395.91520
 10550.00000    -999.25    -999.25    -999.25    9.05940    -999.25    -999.25    -999.25    -999.25    -999.25    -999.25  110.38280   49.80400   49.80400    -999.25   34.11310   34.11310  110.38280  133.73340 1051.74610  133.73340    -999.25    -999.25    -999.25    -999.25    -999.25    -999.25  -74.90850  -16.58440 1051.74610
 10600.00000    -999.25    -999.25    -999.25    3.03220    -999.25    -999.25    -999.25    -999.25    -999.25    -999.25  329.78940   50.69720   50.69720    -999.25   26.48930   26.48930  329.78940  130.00890  159.62460  130.00890    -999.25    -999.25    -999.25    -999.25    -999.25    -999.25  -68.09790   -8.80670  159.62460
 10650.00000    -999.25    -999.25    -999.25    1.42580    -999.25    -999.25    -999.25    -999.25    -999.25    -999.25  701.36470   48.74310   48.74310    -999.25   24.09080   24.09080  701.36470 1111.93130 1511.40260 1111.93130    -999.25    -999.25    -999.25    -999.25    -999.25    -999.25  -74.23140  -13.97320 1511.40260
 10700.00000    -999.25    -999.25    -999.25   73.54130    -999.25    -999.25    -999.25    -999.25    -999.25    -999.25   13.59780   56.94670   56.94670    -999.25   42.47170   42.47170   13.59780   17.75950   71.14580   17.75950    -999.25    -999.25    -999.25    -999.25    -999.25    -999.25  -80.69000  -19.46480   71.14580
