~Version ---------------------------------------------------
VERS. 2.0 : CWLS log ASCII Standard -VERSION 2.0
WRAP. YES : Multiple lines per depth step
~Well ------------------------------------------------------
STRT.FT                   3900.0 : START DEPTH
STOP.FT                   8200.0 : STOP DEPTH
STEP.FT                 50.00000 : STEP LENGTH
NULL.                    -999.25 : NULL VALUE
COMP. CHAMPLIN PETROLEUM COMPANY : COMPANY
WELL.         FLOYD T. SWONKE #1 : WELL
FLD .                   GIDDINGS : FIELD
LOC .                            : LOCATION
CNTY.                   BURLESON : COUNTY
STAT.                      TEXAS : STATE
CTRY.   UNITED STATES OF AMERICA : COUNTRY
SRVC.               Schlumberger : SERVICE COMPANY
DATE.                21-Sep-1980 : LOGDATE
API .             42051309360000 : API NUMBER
UWI .             42051309360000 : UNIQUE WELL ID
SLAT.WGS84         30.4510572184 : SURFACE LATITUDE
SLON.WGS84        -96.7010729865 : SURFACE LONGITUDE
~Curve Information -----------------------------------------
DEPT    .FT    : 
CALWS   .IN    : CALIPER [DCALED+8.5]
CONDWS  .MMHO  : CONDUCTIVITY [1000/DRESWS]
DCALED  .IN    : DIFFERENTIAL CALIPER FROM DIL-SFL-CNFD LOG
DCORWS  .G/C3  : DENSITY CORRECTION [DRHOED]
DENWS   .G/C3  : FORMATION BULK DENSITY [CALCULATED FROM DPOWS, M=2.71, F=1.0]
DPHILSED.V/V   : DENSITY POROSITY LIMESTONE [M=2.71, F=1.0] FROM DIL-SFL-CNFD LOG [ADJ. TO GRRED]
DPHISSED.V/V   : DENSITY POROSITY SANDSTONE [M=2.65, F=1.0] FROM DIL-SFL-CNFD LOG [ADJ. TO GRRED]
DPOWS   .V/V   : DENSITY POROSITY LIMESTONE [DPHISSED CONVERTED TO LIMESTONE MATRIX(M=2.71, F=1.0) & SPL. TO DPHILSED @6394']
DRESWS  .OHMM  : DEEP RESISTIVITY [RILDED]
DRHOED  .G/C3  : BULK DENSITY CORRECTION FROM DIL-SFL-CNFD LOG
GRRED   .GAPI  : GAMMA RAY FROM DIL-SFL-CNFD LOG
GRWS    .GAPI  : GAMMA RAY [GRRED] CSG < 3712'
MRESWS  .OHMM  : MEDIUM RESISTIVITY [RILMED]
NPHILSED.V/V   : NEUTRON POROSITY LIMESTONE FROM DIL-SFL-CNFD LOG [ADJ. TO GRRED]
NPHISSED.V/V   : NEUTRON POROSITY SANDSTONE FROM DIL-SFL-CNFD LOG [ADJ. TO GRRED]
NPOWS   .V/V   : NEUTRON POROSITY LIMESTONE [NPHISSED MATRIX CONVERSION FOR LIMESTONE, SPL. TO NPHILSED @6394'] CSG < 3712'
RILDED  .OHMM  : DEEP INDUCTION RESISTIVITY FROM DIL-SFL-CNFD LOG
RILMED  .OHMM  : MEDIUM INDUCTION LOG RESISTIVITY FROM DIL-SFL-CNFD LOG
SFLUED  .OHMM  : SHALLOW FOCUSED RESISTIVITY (UNAVERAGED) FROM DIL-SFL-CNFD LOG
SPRED   .MV    : SPONTANEOUS POTENTIAL FROM DIL-SFL-CNFD LOG
SPWS    .MV    : SPONTANEOUS POTENTIAL [BASELINE 0 MV, SPRED]
SRESWS  .OHMM  : SHALLOW RESISTIVITY [SFLUED]
~Params ----------------------------------------------------
PD  .                     GL : PERMANENT DATUM
EPD .FT                  393 : ELEVATION PERMANENT DATUM
LMF .                     KB : LOG MEASURED FROM
DAPD.FT                   14 : FEET ABOVE PERMANENT DATUM
DMF .                     KB : DRILLING MEASURED FROM
EKB .FT                  407 : KELLY BUSHING
EDF .FT                  406 : DRILLING FLOOR
EGL .FT                  393 : GROUND LEVEL
DATE.               09/21/80 : RUN DATE
RUN .                      1 : RUN NUMBER
DD  .FT                 8220 : DEPTH DRILLER
DL  .FT                 8221 : DEPTH LOGGER
BLI .FT                 8215 : BOTTOM LOG INTERVAL
TLI .FT                 3912 : TOP LOG INTERVAL
CS  .IN                9.625 : CASING SIZE
CBD .FT                 3900 : CASING BOTTOM DRILLER
CBL .FT                 3912 : CASING BOTTOM LOGGER
BS  .IN                  8.5 : BIT SIZE
BSD .FT                 8220 : BIT SIZE AT DEPTH
DFT .            BENEX WL100 : DRILLING FLUID TYPE
DFD .                    9.2 : DRILLING FLUID DENSITY
DFV .                     41 : DRILLING FLUID VISCOSITY
DFPH.                      8 : DRILLING FLUID PH
DFL .                    5.6 : DRILLING FLUID LOSS
MSS .                   TANK : MUD SAMPLE SOURCE
RMS .OHMM                2.1 : RESISTIVITY MUD SAMPLE
MST .DEGF                 90 : MUD SAMPLE TEMPERATURE
RMF .OHMM               1.89 : RESISTIVITY MUD FILTRATE SAMPLE
MFST.DEGF                 75 : MUD FILTRATE SAMPLE TEMPERATURE
RMC .OHMM               3.15 : RESISTIVITY MUD CAKE
MCST.DEGF                 90 : MUD CAKE SAMPLE TEMPERATURE
MFSS.                      M : MUD FILTRATE SAMPLE SOURCE
MCSS.                      C : MUD CAKE SAMPLE SOURCE
RMB .OHMM                  1 : RESISTIVITY MUD AT BHT
TCS .HRS                2100 : TIME CIRCULATED STOPPED
TLAB.HRS                 730 : TIME LOGGER AT BOTTOM
LUN .                   7750 : LOGGING UNIT NUMBER
LUL .                BRENHAM : LOGGING UNIT LOCATION
ENGI.       ALEXANDER HARRIS : RECORDING ENGINEER
WITN.                 SCHELL : WITNESSED BY
CLNT.                A2DTECH : CLIENT CODE
ORIG.            2" 5" PRINT : ORIGIN OF DATA
UWI .         42051309360000 : UNIQUE WELL ID
DICO. A2D Technologies, Inc. : DIGITIZING COMPANY
~Other -----------------------------------------------------
~ASCII -----------------------------------------------------
# ...
 5500.00000   10.48420  924.29980    1.98420    0.09590    2.36770    -999.25    0.17110    0.20020    1.08190    0.09590   94.97050   94.97050    1.11830    -999.25    0.36660    0.32320    1.08190    1.11830    1.33330   -0.16920   -2.70060    1.33330
 5550.00000   10.27270  835.28230    1.77270    0.05940    2.40610    -999.25    0.14780    0.17770    1.19720    0.05940   96.81780   96.81780    1.27060    -999.25    0.36080    0.31730    1.19720    1.27060    1.43750    0.34550   -2.31410    1.43750
 5600.00000   10.05560  806.38660    1.55560    0.06690    2.39030    -999.25    0.15740    0.18700    1.24010    0.06690   89.72330   89.72330    1.28200    -999.25    0.34770    0.30400    1.24010    1.28200    1.35640    1.37090   -1.41690    1.35640
 5650.00000   10.53400  643.33500    2.03400    0.09350    2.36260    -999.25    0.17420    0.20320    1.55440    0.09350   88.82530   88.82530    1.60780    -999.25    0.33690    0.29310    1.55440    1.60780    1.68390    0.04110   -2.87480    1.68390
 5700.00000   10.33990  666.97790    1.83990    0.06660    2.41290    -999.25    0.14370    0.17370    1.49930    0.06660   82.70660   82.70660    1.59470    -999.25    0.30260    0.25860    1.49930    1.59470    1.69710   -0.42320   -3.41090    1.69710
 5750.00000    9.80840  699.20290    1.30840    0.03630    2.46210    -999.25    0.11390    0.14500    1.43020    0.03630   97.93340   97.93340    1.49940    -999.25    0.35700    0.31340    1.43020    1.49940    1.60940   -2.07540   -5.06310    1.60940
 5800.00000   10.15160  591.12140    1.65160    0.08750    2.39050    -999.25    0.15730    0.18690    1.69170    0.08750   95.28000   95.28000    1.80040    -999.25    0.29860    0.25460    1.69170    1.80040    2.14280   -4.89330   -7.88100    2.14280
 5850.00000   11.08280  783.76050    2.58280    0.06730    2.36600    -999.25    0.17210    0.20110    1.27590    0.06730   94.61260   94.61260    1.32030    -999.25    0.38090    0.33770    1.27590    1.32030    1.36700    1.41730   -1.57040    1.36700
 5900.00000   11.10930  732.22520    2.60930    0.09290    2.35330    -999.25    0.17980    0.20860    1.36570    0.09290   94.89010   94.89010    1.41160    -999.25    0.33950    0.29580    1.36570    1.41160    1.47630    0.49780   -2.48990    1.47630
 5950.00000   10.91460  830.77180    2.41460    0.09790    2.38300    -999.25    0.16180    0.19120    1.20370    0.09790   99.95420   99.95420    1.24450    -999.25    0.32960    0.28580    1.20370    1.24450    1.29160   -3.95780   -6.94550    1.29160
 6000.00000   11.17780 1040.79930    2.67780    0.07510    2.32310    -999.25    0.19810    0.22620    0.96080    0.07510   93.70150   93.70150    0.99700    -999.25    0.41010    0.36740    0.96080    0.99700    1.04590    0.95290   -2.03480    1.04590
 6050.00000   10.82150  646.49600    2.32150    0.05730    2.42590    -999.25    0.13580    0.16610    1.54680    0.05730  108.02410  108.02410    1.62780    -999.25    0.32810    0.28430    1.54680    1.62780    1.56310    2.18390   -0.80380    1.56310
 6100.00000    9.99950  626.72350    1.49950    0.09960    2.47310    -999.25    0.10720    0.13850    1.59560    0.09960  107.61000  107.61000    1.69130    -999.25    0.30420    0.26020    1.59560    1.69130    1.79770    2.73730   -0.25040    1.79770
 6150.00000   10.10360  554.23160    1.60360    0.09360    2.47740    -999.25    0.10460    0.13600    1.80430    0.09360   92.11520   92.11520    1.86620    -999.25    0.30260    0.25860    1.80430    1.86620    1.96360   -0.30480   -3.29250    1.96360
 6200.00000   11.16140  677.50680    2.66140    0.08740    2.46520    -999.25    0.11200    0.14320    1.47600    0.08740   88.44360   88.44360    1.57170    -999.25    0.30070    0.25670    1.47600    1.57170    1.61920    4.43000    1.44230    1.61920
 6250.00000   10.03500  582.88650    1.53500    0.07930    2.49540    -999.25    0.09370    0.12550    1.71560    0.07930   87.31040   87.31040    1.81160    -999.25    0.29400    0.25000    1.71560    1.81160    1.96170    1.28800   -1.69970    1.96170
 6300.00000   12.03230  667.69050    3.53230    0.09900    2.42020    -999.25    0.13930    0.16950    1.49770    0.09900   93.18430   93.18430    1.54780    -999.25    0.30550    0.26150    1.49770    1.54780    1.67930   -1.09230   -4.08000    1.67930
 6350.00000   12.28340  651.42340    3.78340    0.07240    2.42380    -999.25    0.13710    0.16740    1.53510    0.07240   85.10960   85.10960    1.58640    -999.25    0.34450    0.30080    1.53510    1.58640    1.70040   -0.14650   -3.13420    1.70040
 6400.00000   12.17750  680.54990    3.67750    0.09910    2.47200    0.13920    -999.25    0.13920    1.46940    0.09910   87.99870   87.99870    1.52250    0.28250    -999.25    0.28250    1.46940    1.52250    1.75890    0.74300   -2.24470    1.75890
 6450.00000   10.92150  643.99790    2.42150    0.06600    2.45640    0.14830    -999.25    0.14830    1.55280    0.06600   81.10960   81.10960    1.65290    0.26700    -999.25    0.26700    1.55280    1.65290    1.80710   -2.24610   -5.19080    1.80710
 6500.00000    9.14300  276.10580    0.64300   -0.00870    2.59120    0.06950    -999.25    0.06950    3.62180   -0.00870   47.73040   47.73040    3.77590    0.13740    -999.25    0.13740    3.62180    3.77590    3.98360   -6.33020   -9.22260    3.98360
 6550.00000    9.26970  278.00950    0.76970    0.00320    2.58840    0.07110    -999.25    0.07110    3.59700    0.00320   46.74290   46.74290    3.71730    0.13160    -999.25    0.13160    3.59700    3.71730    4.10530   -4.24240   -7.08240    4.10530
 6600.00000    9.16130  232.96990    0.66130   -0.01560    2.55320    0.09170    -999.25    0.09170    4.29240   -0.01560   40.00670   40.00670    4.43530    0.11050    -999.25    0.11050    4.29240    4.43530    4.14650  -12.22700  -15.01460    4.14650
 6650.00000    9.23830  326.10470    0.73830    0.01060    2.57390    0.07960    -999.25    0.07960    3.06650    0.01060   59.84000   59.84000    3.32030    0.15520    -999.25    0.15520    3.06650    3.32030    4.50650   -1.47770   -4.21290    4.50650
 6700.00000   11.24920  566.21940    2.74920    0.10210    2.46380    0.14400    -999.25    0.14400    1.76610    0.10210   81.78040   81.78040    1.87090    0.24310    -999.25    0.24310    1.76610    1.87090    2.00390   -5.71520   -8.39800    2.00390
 6750.00000   10.12340  453.16540    1.62340    0.02570    2.50310    0.12100    -999.25    0.12100    2.20670    0.02570   97.77270   97.77270    2.31150    0.19390    -999.25    0.19390    2.20670    2.31150    2.35610   -2.83500   -5.46540    2.35610
 6800.00000   10.26950  330.55670    1.76950   -0.00740    2.56410    0.08530    -999.25    0.08530    3.02520   -0.00740   78.31600   78.31600    3.16430    0.17120    -999.25    0.17120    3.02520    3.16430    3.42330   -0.20920   -2.78720    3.42330
 6850.00000   10.29760  363.55700    1.79760   -0.00390    2.54260    0.09790    -999.25    0.09790    2.75060   -0.00390   73.31420   73.31420    2.85640    0.17470    -999.25    0.17470    2.75060    2.85640    3.06870    0.33620   -2.18940    3.06870
 6900.00000    9.81710  303.46250    1.31710   -0.00330    2.58330    0.07410    -999.25    0.07410    3.29530   -0.00330   66.11900   66.11900    3.44520    0.17310    -999.25    0.17310    3.29530    3.44520    3.90770   -0.02310   -2.49640    3.90770
 6950.00000   11.86770  525.90060    3.36770    0.06870    2.52990    0.10530    -999.25    0.10530    1.90150    0.06870   73.57400   73.57400    1.97050    0.25650    -999.25    0.25650    1.90150    1.97050    2.21170   -0.72110   -3.14200    2.21170
 7000.00000   14.82330  647.03980    6.32330    0.10010    2.48190    0.13340    -999.25    0.13340    1.54550    0.10010   87.47290   87.47290    1.59800    0.31820    -999.25    0.31820    1.54550    1.59800    1.79970   -5.58210   -7.95060    1.79970
 7050.00000   15.04620  567.66580    6.54620    0.09520    2.48120    0.13380    -999.25    0.13380    1.76160    0.09520   81.97140   81.97140    1.88940    0.29320    -999.25    0.29320    1.76160    1.88940    2.30930   -1.68800   -4.00410    2.30930
