~Version ---------------------------------------------------
VERS. 2.0 : CWLS log ASCII Standard -VERSION 2.0
WRAP.  NO : ONE LINE PER DEPTH STEP
~Well ------------------------------------------------------
STRT.F                     3700.0 : START DEPTH
STOP.F                     7900.0 : STOP DEPTH
STEP.F                   50.00000 : STEP LENGTH
NULL.                     -999.25 : NULL VALUE
COMP. ADOBE OIL & GAS CORPORATION : COMPANY
WELL.               BERAN UNIT #1 : WELL
FLD .                    GIDDINGS : FIELD
LOC .                             : LOCATION
CNTY.                    BURLESON : COUNTY
STAT.                       TEXAS : STATE
CTRY.    UNITED STATES OF AMERICA : COUNTRY
SRVC.                Schlumberger : SERVICE COMPANY
DATE.                 07-Nov-1980 : LOGDATE
API .              42051310480000 : API NUMBER
UWI .              42051310480000 : UNIQUE WELL ID
SLAT.WGS84              30.460257 : SURFACE LATITUDE
SLON.WGS84             -96.743504 : SURFACE LONGITUDE
~Curve Information -----------------------------------------
DEPT.F                 : 
GRN .GAPI 35 310 00 00 : GAMMA RAY FROM GRN LOG
NEUT.NAPI 35 330 00 00 : NEUTRON
NPHI.DEC  42 890 03 00 : NEUTRON POROSITY
GRD .GAPI 45 310 01 00 : GAMMA RAY FROM DENSITY LOG
CALD.IN   45 280 60 00 : CALIPER FROM DENSITY LOG
DPHI.DEC  45 890 12 00 : DENSITY POROSITY
DRHO.G/C3 45 356 01 00 : BULK DENSITY CORRECTION
DT  .US/F 60 520 00 00 : DELTA-T (INTERVAL TRANSIT TIME)
ILD .OHMM 07 120 46 00 : INDUCTION DEEP RESISTIVITY
ILM .OHMM 11 120 44 00 : INDUCTION MEDIUM RESISTIVITY
SFLU.OHMM 07 220 01 00 : SFL RESISTIVITY (UNAVERAGED)
SPR .MV   07 010 01 00 : SPONTANEOUS POTENTIAL FROM RESISTIVITY
~Params ----------------------------------------------------
PD  .                     GL : PERMANENT DATUM
EPD .FT                  362 : ELEVATION PERMANENT DATUM
LMF .                    RKB : LOG MEASURED FROM
DAPD.FT                 16.5 : FEET ABOVE PERMANENT DATUM
DMF .                    RKB : DRILLING MEASURED FROM
EKB .FT                378.5 : KELLY BUSHING
EDF .FT                377.5 : DRILLING FLOOR
EGL .FT                  362 : GROUND LEVEL
DATE.               11/07/80 : RUN DATE
RUN .                      1 : RUN NUMBER
DD  .FT                 7910 : DEPTH DRILLER
DL  .FT                 7905 : DEPTH LOGGER
BLI .FT                 7902 : BOTTOM LOG INTERVAL
TLI .FT                 3708 : TOP LOG INTERVAL
CS  .IN                8.625 : CASING SIZE
CBD .FT                 3700 : CASING BOTTOM DRILLER
CBL .FT                 3708 : CASING BOTTOM LOGGER
BS  .IN                7.875 : BIT SIZE
BSD .FT                 7910 : BIT SIZE AT DEPTH
DFT .                    LNS : DRILLING FLUID TYPE
DFD .                    9.6 : DRILLING FLUID DENSITY
DFV .                     44 : DRILLING FLUID VISCOSITY
DFPH.                    9.5 : DRILLING FLUID PH
DFL .                      8 : DRILLING FLUID LOSS
MSS .               CIRC PIT : MUD SAMPLE SOURCE
RMS .OHMM               2.63 : RESISTIVITY MUD SAMPLE
MST .DEGF                 75 : MUD SAMPLE TEMPERATURE
RMF .OHMM               1.97 : RESISTIVITY MUD FILTRATE SAMPLE
MFST.DEGF                 75 : MUD FILTRATE SAMPLE TEMPERATURE
MCST.DEGF                 75 : MUD CAKE SAMPLE TEMPERATURE
MFSS.                      M : MUD FILTRATE SAMPLE SOURCE
MCSS.                      C : MUD CAKE SAMPLE SOURCE
RMB .OHMM               1.06 : RESISTIVITY MUD AT BHT
TCS .HRS                 600 : TIME CIRCULATED STOPPED
TLAB.HRS                1100 : TIME LOGGER AT BOTTOM
LUN .                   8066 : LOGGING UNIT NUMBER
ENGI.               HARRISON : RECORDING ENGINEER
WITN.               LUBINSKI : WITNESSED BY
CLNT.                A2DTECH : CLIENT CODE
ORIG.          1" 2.5" PRINT : ORIGIN OF DATA
UWI .         42051310480000 : UNIQUE WELL ID
DICO. A2D Technologies, Inc. : DIGITIZING COMPANY
~Other -----------------------------------------------------
~ASCII -----------------------------------------------------
 3700.00000    -999.25    -999.25    0.65950   44.15100    -999.25    -999.25    -999.25    -999.25    -999.25    -999.25    -999.25    -999.25
 3750.00000    -999.25    -999.25    0.38040   79.74690   12.63500    0.23470    0.09870  104.25690    4.79580    5.35090    5.32180  -24.28720
 3800.00000    -999.25    -999.25    0.33250   80.39540   11.56890    0.21430    0.05190  101.61700    4.56840    4.76610    5.77220  -23.00500
 3850.00000    -999.25    -999.25    0.32670   78.02800   11.89690    0.26490    0.03530  104.84220    5.49690    6.29230    7.94960  -37.32090
 3900.00000    -999.25    -999.25    0.41280   79.86290   11.37530    0.29940    0.03460  111.63290    3.43510    3.52540    3.77660  -19.19480
 3950.00000    -999.25    -999.25    0.38690   87.91480   12.81650    0.19290    0.10240  102.60460    2.30130    2.35150    2.59330   -7.78730
 4000.00000    -999.25    -999.25    0.32230   88.07560   11.11810    0.16820    0.06030   98.64950    2.92160    2.82690    3.41270   -9.46970
 4050.00000    -999.25    -999.25    -999.25    -999.25    -999.25    -999.25    -999.25  100.56930    2.98240    3.06620    3.51050  -12.26770
 4100.00000    -999.25    -999.25    -999.25    -999.25    -999.25    -999.25    -999.25   99.41150    2.70640    2.79540    3.11820   -9.67900
 4150.00000    -999.25    -999.25    -999.25    -999.25    -999.25    -999.25    -999.25   89.33260    2.74860    2.85450    3.98260   -7.46580
 4200.00000    -999.25    -999.25    -999.25    -999.25    -999.25    -999.25    -999.25   96.94340    2.35330    2.41100    2.63640   -7.15360
 4250.00000    -999.25    -999.25    -999.25    -999.25    -999.25    -999.25    -999.25  105.47360    1.72710    1.76790    2.12490   -7.77770
 4300.00000    -999.25    -999.25    -999.25    -999.25    -999.25    -999.25    -999.25  101.24190    1.95010    2.03880    2.38510   -9.07280
 4350.00000    -999.25    -999.25    -999.25    -999.25    -999.25    -999.25    -999.25  104.07800    1.56610    1.63060    1.96060   -8.83630
 4400.00000    -999.25    -999.25    -999.25    -999.25    -999.25    -999.25    -999.25  106.89080    1.48470    1.52080    1.83010   -9.66630
 4450.00000    -999.25    -999.25    -999.25    -999.25    -999.25    -999.25    -999.25  107.89430    1.48860    1.52370    1.83290  -12.37530
 4500.00000    -999.25    -999.25    -999.25    -999.25    -999.25    -999.25    -999.25  104.65740    1.47870    1.51360    1.82910  -14.73760
 4550.00000    -999.25    -999.25    -999.25    -999.25    -999.25    -999.25    -999.25  101.17200    1.65730    1.69630    2.05370  -10.62040
 4600.00000    -999.25    -999.25    -999.25    -999.25    -999.25    -999.25    -999.25  107.16650    1.53630    1.57360    1.81850  -12.38960
 4650.00000    -999.25    -999.25    -999.25    -999.25    -999.25    -999.25    -999.25  106.48920    1.18770    1.21560    1.48500   -9.29870
 4700.00000    -999.25    -999.25    0.44250   81.75580   16.51170    0.33780    0.08770  113.88880    1.10020    1.16070    1.27800   -7.75530
 4750.00000    -999.25    -999.25    0.30340   93.82540   13.11040    0.10880    0.08040   99.25570    1.62770    1.68010    2.36360  -13.08880
 4800.00000    -999.25    -999.25    0.38180   67.61890   11.94160    0.18810    -999.25   94.94790    1.38870    1.62970    2.02910  -34.80750
 4850.00000    -999.25    -999.25    0.47890   83.05430   15.22920    0.43070    0.08160  105.02770    1.18080    1.21420    1.54390  -16.17410
 4900.00000    -999.25    -999.25    0.47460   74.27180   16.81970    0.49530    0.10490  111.91240    1.05010    1.11450    1.39820   -8.33130
 4950.00000    -999.25    -999.25    0.30710   84.62460   11.09830    0.08800    0.06210   92.53370    1.91610    1.98410    2.24370  -11.33170
 5000.00000    -999.25    -999.25    0.30100   63.02520   10.33750    0.12710    -999.25   90.37380    1.78850    1.87430    3.24180  -16.24090
 5050.00000    -999.25    -999.25    0.48470   80.82860   13.08870    0.38020    0.09890  119.34620    1.03310    1.06370    1.38410  -12.74520
 5100.00000    -999.25    -999.25    0.41150   84.42490   12.86680    0.15140    0.10100  112.78200    0.96430    1.00920    1.25980  -13.85000
 5150.00000    -999.25    -999.25    0.37880   91.01620   13.33920    0.13320    0.08680  110.01240    1.01770    1.07290    1.38860  -15.94460
 5200.00000    -999.25    -999.25    0.40470   86.42100   13.15390    0.21910    0.06630  108.78290    1.18990    1.24540    1.49320  -16.85710
 5250.00000    -999.25    -999.25    0.21210   74.84130    9.43830    0.04670    0.02790   83.38450    3.44960    3.58670    4.05640  -12.43000
 5300.00000    -999.25    -999.25    -999.25    -999.25    -999.25    -999.25    -999.25  100.23170    1.17530    1.23420    1.52170  -13.03510
 5350.00000    -999.25    -999.25    -999.25    -999.25    -999.25    -999.25    -999.25   97.12940    1.21790    1.25650    1.45670  -13.41040
 5400.00000    -999.25    -999.25    -999.25    -999.25    -999.25    -999.25    -999.25   89.80240    1.89130    1.94700    2.15500  -13.75410
 5450.00000    -999.25    -999.25    -999.25    -999.25    -999.25    -999.25    -999.25   86.89600    1.90980    1.97390    2.36920  -13.23220
 5500.00000    -999.25    -999.25    -999.25    -999.25    -999.25    -999.25    -999.25  103.58360    1.17090    1.20740    1.33130  -12.68820
 5550.00000    -999.25    -999.25    -999.25    -999.25    -999.25    -999.25    -999.25  100.46310    1.24880    1.30760    1.57280  -11.08300
 5600.00000    -999.25    -999.25    -999.25    -999.25    -999.25    -999.25    -999.25   96.18620    1.33280    1.37840    1.54980  -15.21570
 5650.00000    -999.25    -999.25    -999.25    -999.25    -999.25    -999.25    -999.25  103.95230    1.11170    1.15010    1.37010  -12.86530
 5700.00000    -999.25    -999.25    -999.25    -999.25    -999.25    -999.25    -999.25   91.10830    1.68570    1.74650    2.09640  -13.14810
 5750.00000    -999.25    -999.25    -999.25    -999.25    -999.25    -999.25    -999.25   89.12580    1.95130    2.01760    2.46100  -11.50380
 5800.00000    -999.25    -999.25    -999.25    -999.25    -999.25    -999.25    -999.25   98.69870    1.41340    1.49360    1.79010  -10.95600
 5850.00000    -999.25    -999.25    -999.25    -999.25    -999.25    -999.25    -999.25   96.47320    1.49650    1.55840    1.91180  -10.61940
 5900.00000    -999.25    -999.25    -999.25    -999.25    -999.25    -999.25    -999.25  100.93040    1.30170    1.35270    1.69890  -13.59520
 5950.00000    -999.25    -999.25    -999.25    -999.25    -999.25    -999.25    -999.25  101.88460    1.28450    1.33430    1.65050  -12.34440
 6000.00000    -999.25    -999.25    -999.25    -999.25    -999.25    -999.25    -999.25  102.92450    1.21230    1.28350    1.63470  -14.28890
 6050.00000    -999.25    -999.25    -999.25    -999.25    -999.25    -999.25    -999.25  102.55860    1.16640    1.24970    1.60080  -15.54110
 6100.00000    -999.25    -999.25    -999.25    -999.25    -999.25    -999.25    -999.25   96.05600    1.64390    1.71410    1.97100  -15.58030
 6150.00000    -999.25    -999.25    -999.25    -999.25    -999.25    -999.25    -999.25   74.66320    2.59830    2.72560    4.55120  -13.79400
 6200.00000    -999.25    -999.25    -999.25    -999.25    -999.25    -999.25    -999.25   73.02970    3.78370    3.90640    5.02550  -14.80490
 6250.00000    -999.25  720.85350    -999.25    -999.25    -999.25    -999.25    -999.25   73.61390    3.62540    3.76490    4.15800  -22.17150
 6300.00000   39.12470  415.82810    -999.25    -999.25    -999.25    -999.25    -999.25   86.90850    2.39180    2.51770    3.01980   -9.30110
 6350.00000   53.55150  122.91420    -999.25    -999.25    -999.25    -999.25    -999.25   94.82930    1.49920    1.57530    2.06220  -16.45090
 6400.00000   47.42250  253.27530    -999.25    -999.25    -999.25    -999.25    -999.25   88.56730    1.92890    2.00600    2.49730  -11.61130
 6450.00000   49.52010  368.20010    -999.25    -999.25    -999.25    -999.25    -999.25   87.68980    2.22150    2.31080    2.76070   -9.33220
