~Version ---------------------------------------------------
VERS. 2.0 : CWLS log ASCII Standard -VERSION 2.0
WRAP.  NO : One line per depth step
~Well ------------------------------------------------------
STRT.FT                     1050.0 : START DEPTH
STOP.FT                    19600.0 : STOP DEPTH
STEP.FT                   50.00000 : STEP LENGTH
NULL.                      -999.25 : NULL VALUE
COMP. PAN AMERICAN PETROLEUM CORP. : COMPANY
WELL.           MURRAY FRANKLIN #1 : WELL
FLD .                      WILDCAT : FIELD
LOC .                              : LOCATION
CNTY.                    MC MULLEN : COUNTY
STAT.                        TEXAS : STATE
CTRY.     UNITED STATES OF AMERICA : COUNTRY
SRVC.                 Schlumberger : SERVICE COMPANY
DATE.                  30-Aug-1964 : LOGDATE
API .               42311001580000 : API NUMBER
UWI .               42311001580000 : UNIQUE WELL ID
SLAT.WGS84           28.5946649186 : SURFACE LATITUDE
SLON.WGS84          -98.6650291661 : SURFACE LONGITUDE
~Curve Information -----------------------------------------
DEPT  .FT    : DEPTH
ASNED .OHMM  : AMPLIFIED SHORT NORMAL 16 IN.
CALWS .IN    : CALIPER (CALSED)
CALSED.IN    : CALIPER FROM SONIC LOG (ADJ TO RES.)
CILDED.MMHO  : CONDUCTIVITY FROM LOG
CONDWS.MMHO  : CONDUCTIVITY (1000/DREWS)
DRESWS.OHMM  : DEEP RESISTIVITY (IF ILDED<1, THEN 1000/CILDED)
DTED  .US/F  : DELTA TIME  (ADJ TO RES.)
DTWS  .US/F  : DELTA TIME  (DTED)
GRNED .GAPI  : GAMMA RAY FROM NEUTRON LOG (ADJ TO RES.)
GRWS  .GAPI  : GAMMA RAY (GRNED)
ILDED .OHMM  : DEEP INDUCTION RESISTIVITY
NEUTED.CU    : NEUTRON FROM GAMMA RAY NEUTRON LOG (ADJ TO RES.)
NEUTWS.CU    : NEUTRON FROM GAMMA RAY NEUTRON LOG (NEUTED)
SPWS  .MV    : SPONTANEOUS POTENTIAL BASELINE 0 MV (SPRED)
SPRED .MV    : SPONTANEOUS POTENTIAL FROM RESISTIVITY
SRESWS.OHMM  : SHALLOW RESISTIVITY (ASNED)
~Params ----------------------------------------------------
PD  .                 2" BHO : PERMANENT DATUM
EPD .F                   395 : ELEVATION PERMANENT DATUM
LMF .                     KB : LOG MEASURED FROM
DAPD.F                  23.7 : FEET ABOVE PERMANENT DATUM
DMF .                     KB : DRILLING MEASURED FROM
EKB .F                 418.7 : KELLING BUSHING
EDF .F                 416.0 : DRILLING FLOOR
EGL .F                 395.0 : GROUND LEVEL
DATE.             08-30-1964 : RUN DATE
RUN .                      6 : RUN NUMBER
DD  .F                 19636 : DEPTH DRILLER
DL  .F                 19632 : DEPTH LOGGER
BLI .F                 19632 : BOTTOM LOG INTERVAL
TLI .F                 18788 : TOP LOG INTERVAL
CS  .IN                    5 : CASING SIZE
CBD .F                 16836 : CASING BOTTOM DRILLER
BS  .IN                 4.25 : BIT SIZE
BSD .F                 19636 : BIT SIZE AT DEPTH
DFT .        UNICAL OIL EMUL : DRILLING FLUID TYPE
TCS .HRS                   3 : TIME CURCULATED STOPPED
LUN .                   4521 : LOGGING UNIT NUMBER
LUL .                    KEN : LOGGING UNIT LOCATION
ENGI.                  ELLIS : RECORDING ENGINEER
WITN.       FREEMAN, SHAPLEY : WITNESSED BY
CLNT.                A2DTECH : CLIENT CODE
ORIG.               5" PRINT : ORIGIN OF DATA
UWI .         42311001580000 : UNIQUE WELL ID
DICO. A2D Technologies, Inc. : DIGITIZING COMPANY
~Other -----------------------------------------------------
~ASCII -----------------------------------------------------
# ...
 13950.00000   22.49500    8.76700    8.76700   57.87550   60.76440   16.45700   51.64220   51.64220    -999.25    -999.25   16.45700    -999.25    -999.25   -5.87250  -80.08600   22.49500
 14000.00000   21.31300    8.76600    8.76600  111.57690  120.49640    8.29900   55.77560   55.77560    -999.25    -999.25    8.29900    -999.25    -999.25  -10.39020  -81.03800   21.31300
 14050.00000   54.73200    8.78900    8.78900   12.02830   14.64000   68.30600   48.32210   48.32210    -999.25    -999.25   68.30600    -999.25    -999.25  -25.80000  -92.12100   54.73200
 14100.00000   31.94500    8.88400    8.88400   28.25490   28.76540   34.76400   49.84270   49.84270    -999.25    -999.25   34.76400    -999.25    -999.25  -34.31670  -96.31100   31.94500
 14150.00000   29.63100    8.82500    8.82500   27.77820   28.46080   35.13600   50.16790   50.16790    -999.25    -999.25   35.13600    -999.25    -999.25  -20.68650  -78.35400   29.63100
 14200.00000   74.11700    8.86100    8.86100    7.18500    8.76680  114.06700   48.37610   48.37610   79.20900   79.20900  114.06700    -999.25    -999.25  -17.25930  -70.60000   74.11700
 14250.00000   44.33700    8.70900    8.70900    0.00040    3.36410  297.25800   48.30800   48.30800   78.55900   78.55900  297.25800 2752.26290 2752.26290  -36.63500  -85.64900   44.33700
 14300.00000   32.00800    8.78400    8.78400   27.02290   24.57120   40.69800   52.19000   52.19000   91.15400   91.15400   40.69800 1823.20900 1823.20900  -19.66680  -64.35400   32.00800
 14350.00000   30.32500    9.14800    9.14800   17.08840   16.53660   60.47200   53.37970   53.37970   83.57300   83.57300   60.47200 2395.23610 2395.23610  -14.06060  -54.42100   30.32500
 14400.00000   27.06200   10.50900   10.50900    0.00040    3.70480  269.92000   55.32680   55.32680   78.29800   78.29800  269.92000 2510.97900 2510.97900   -3.28530  -39.46200   27.06200
 14450.00000   22.55700    9.72800    9.72800    0.00040    6.08480  164.34300   53.06510   53.06510   83.75100   83.75100  164.34300 2401.29100 2401.29100  -10.88930  -45.59900   22.55700
 14500.00000   42.43700   10.01700   10.01700   10.45930   10.15830   98.44200   49.64900   49.64900   71.98100   71.98100   98.44200 2646.73290 2646.73290   -8.78420  -42.02700   42.43700
 14550.00000   34.89000    9.89000    9.89000   16.82450   16.10930   62.07600   52.99990   52.99990   80.47400   80.47400   62.07600 2132.64110 2132.64110   -5.60310  -37.37900   34.89000
 14600.00000   26.72600   10.26640   10.26640   19.22450   18.89790   52.91600   51.53080   51.53080   86.86700   86.86700   52.91600 1972.16700 1972.16700  -12.16700  -42.47600   26.72600
 14650.00000   17.07200   10.24350   10.24350   78.96700   69.56520   14.37500   75.78690   75.78690  101.81800  101.81800   14.37500 1486.72300 1486.72300   -4.79090  -33.63300   17.07200
 14700.00000   17.82100    9.77610    9.77610   55.99850   54.33600   18.40400   70.14860   70.14860   85.70300   85.70300   18.40400 1532.97600 1532.97600   -3.07260  -30.72000   17.82100
 14750.00000   19.99220    9.93900    9.93900   13.40320   15.41830   64.85800   53.28480   53.28480   98.90300   98.90300   64.85800 1642.33500 1642.33500   -3.50550  -30.82000   19.99220
 14800.00000   20.38000    9.73600    9.73600   45.15210   46.02140   21.72900   63.78680   63.78680   83.67700   83.67700   21.72900 1701.67700 1701.67700   -6.11250  -33.09400   20.38000
 14850.00000   19.25900    9.58000    9.58000   66.66190   70.20990   14.24300   56.71930   56.71930  113.99100  113.99100   14.24300  919.65500  919.65500   -5.18940  -31.83800   19.25900
 14900.00000   21.37300    9.65100    9.65100   28.74530   26.54340   37.67410   62.14600   62.14600   84.33600   84.33600   37.67410 2244.02390 2244.02390   -7.66730  -33.98300   21.37300
 14950.00000   20.35700    9.66400    9.66400   20.36240   20.57070   48.61290   58.08200   58.08200   87.01600   87.01600   48.61290 1702.60800 1702.60800   -4.30570  -30.23500   20.35700
 15000.00000   17.52000    9.98100    9.98100   30.87270   29.22270   34.22000   52.10870   52.10870   88.81600   88.81600   34.22000 1542.76500 1542.76500   -3.70440  -28.85500   17.52000
 15050.00000   20.93300    9.62200    9.62200   18.28420   17.75380   56.32600   58.55190   58.55190   83.92000   83.92000   56.32600 2137.31910 2137.31910  -13.16320  -37.53500   20.93300
 15100.00000   18.43300    9.76800    9.76800   34.45210   31.48520   31.76100   54.44200   54.44200   77.60400   77.60400   31.76100 1998.22000 1998.22000   -6.84490  -30.43800   18.43300
 15150.00000   17.45300    9.68100    9.68100   36.77110   34.78020   28.75200   54.64810   54.64810   94.58300   94.58300   28.75200 1534.14500 1534.14500   -2.34660  -25.16100   17.45300
 15200.00000   20.97900    9.32100    9.32100   39.32140   19.59210   51.04100   60.79020   60.79020   59.05900   59.05900   51.04100 2177.73900 2177.73900  -15.14440  -37.18000   20.97900
 15250.00000   23.95500    9.63500    9.63500   13.33330   14.55630   68.69900   60.79400   60.79400   54.72000   54.72000   68.69900 2234.94600 2234.94600  -10.28910  -31.54600   23.95500
 15300.00000   15.24800    9.40200    9.40200   39.52100   37.00140   27.02600   55.57460   55.57460   85.76300   85.76300   27.02600 1753.27700 1753.27700   -5.69380  -26.17200   15.24800
 15350.00000   22.35700    9.38200    9.38200   10.38220    9.38320  106.57400   55.94350   55.94350   39.87800   39.87800  106.57400 2346.41890 2346.41890  -18.58150  -38.28100   22.35700
 15400.00000   24.34300    9.16000    9.16000   12.19880   12.03150   83.11500   52.29980   52.29980   52.33300   52.33300   83.11500 2669.93190 2669.93190  -17.23230  -36.15300   24.34300
 15450.00000   16.64900    8.97300    8.97300   54.22640   52.17570   19.16600   58.58000   58.58000   89.22300   89.22300   19.16600 1770.69400 1770.69400   -3.44150  -22.17100   16.64900
 15500.00000   10.48800   10.94600   10.94600   61.36740   48.03770   20.81700   64.42320   64.42320  114.01200  114.01200   20.81700  875.37500  875.37500  -13.17100  -37.81700   10.48800
 15550.00000    7.17100   11.75100   11.75100  239.26600  278.39640    3.59200   76.41760   76.41760  118.74200  118.74200    3.59200  871.44800  871.44800   -7.31090  -39.02200    7.17100
 15600.00000    8.36300   10.37100   10.37100  129.05130  134.13820    7.45500   62.81420   62.81420  121.87000  121.87000    7.45500  961.31900  961.31900   -3.56960  -34.97900    8.36300
 15650.00000    8.89600   10.61600   10.61600  115.39860  128.38620    7.78900   65.27800   65.27800  107.59600  107.59600    7.78900 1146.04300 1146.04300   -2.69430  -33.80200    8.89600
 15700.00000   13.23200    9.90000    9.90000   84.83030   80.80160   12.37600   67.23300   67.23300  114.76900  114.76900   12.37600 1213.73300 1213.73300   -7.04800  -37.85400   13.23200
 15750.00000   13.04400    9.93000    9.93000   76.84630   83.04960   12.04100   62.53170   62.53170   90.00900   90.00900   12.04100 1545.89400 1545.89400   -4.92070  -35.42500   13.04400
 15800.00000   16.08600   10.43300   10.43300   59.39330   58.56170   17.07600   55.68100   55.68100   65.31500   65.31500   17.07600 1762.64790 1762.64790   -5.36380  -35.10800   16.08600
 15850.00000   13.83700    9.53100    9.53100   59.97710   58.20040   17.18200   56.58540   56.58540  104.45700  104.45700   17.18200 1339.29200 1339.29200   -6.00820  -33.75300   13.83700
 15900.00000   23.15800    9.36200    9.36200   16.37080   14.36000   69.63800   58.83840   58.83840   47.24300   47.24300   69.63800 2508.09690 2508.09690  -26.16170  -51.90700   23.15800
 15950.00000   14.48000    9.28500    9.28500   61.48090   63.08350   15.85200   56.87550   56.87550   94.61900   94.61900   15.85200 1733.58300 1733.58300   -3.01720  -26.76300   14.48000
 16000.00000    8.64400   11.10800   11.10800  113.97210  120.93360    8.26900   60.05170   60.05170   91.41100   91.41100    8.26900 1451.11100 1451.11100   -4.03120  -28.00800    8.64400
 16050.00000    6.50500   12.10500   12.10500  184.91660  209.29260    4.77800   63.58860   63.58860  108.45600  108.45600    4.77800 1143.19300 1143.19300   -6.87010  -31.44100    6.50500
