~Version ---------------------------------------------------
VERS. 2.0 : CWLS log ASCII Standard -VERSION 2.0
WRAP. YES : MULTIPLE LINES PER DEPTH STEP
~Well ------------------------------------------------------
STRT.FT                      500.0 : START DEPTH
STOP.FT                     8050.0 : STOP DEPTH
STEP.FT                   50.00000 : STEP LENGTH
NULL.                      -999.25 : NULL VALUE
COMP. ADDINGTON-STAMPER EXPL. INC. : COMPANY
WELL.                   MANFORD #1 : WELL
FLD .                   SMILEY, SE : FIELD
LOC .                              : LOCATION
CNTY.                     GONZALES : COUNTY
STAT.                        TEXAS : STATE
CTRY.     UNITED STATES OF AMERICA : COUNTRY
SRVC.                     Gearhart : SERVICE COMPANY
DATE.                  14-May-1982 : LOGDATE
API .               42177313020000 : API NUMBER
UWI .               42177313020000 : UNIQUE WELL ID
SLAT.WGS84           29.2601634087 : SURFACE LATITUDE
SLON.WGS84           -97.649653003 : SURFACE LONGITUDE
~Curve Information -----------------------------------------
DEPT   .FT                         : DEPTH FEET
CALWS  .IN                         : CALIPER [CALDED/CALXRED@3000,(CALXRED+CALYED)/2@7290]
CALXDED.IN                         : CALIPER X FROM DENSITY LOG
CALXRED.IN                         : CALIPER X FROM RES. LOG
CALYED .IN                         : CALIPER Y FROM DENSITY LOG [DEPTH SHIFTED TO RES.]
CDLLSED.V/V                        : DENSITY POROSITY LIMESTONE FROM DENSITY LOG [DEPTH SHIFTED TO RES.]
CDLSSED.V/V                        : DENSITY POROSITY SANDSTONE FROM DENSITY LOG
CNSLSED.V/V                        : NEUTRON POROSITY LIMESTONE FROM DENSITY LOG [DEPTH SHIFTED TO RES.]
CONDWS .MMHO                       : CONDUCTIVITY [1000/DRESWS]
DCORWS .G/C3                       : DENSITY CORRECTION [DRHOED]
DENWS  .G/C3                       : BULK DENSITY [M=2.65 F=1.0 TO 2500 FEET, THEN M=2.71, F=1 FROM 7000 FEET TO TD] [CALCULATED FROM CDLSSED AND CDLLSED]
DPOWS  .V/V                        : DENSITY POROSITY [M=2.71 F=1.0] [CALCULATED FROM DENWS]
DRESWS .OHMM                       : DEEP RESISTIVITY [RILDED]
DRHOED .G/C3                       : DENSITY CORRECTION FROM DENSITY LOG [DEPTH SHIFTED TO RES. IN DEEP SECTION]
DTED   .US/F                       : DELTA TIME FROM SONIC LOG
DTWS   .US/F                       : DELTA TIME [DTED]
GRDED  .GAPI                       : GAMMA RAY FROM DENSITY LOG [DEPTH SHIFTED TO RES. IN DEEP SECTION]
GRRED  .GAPI                       : GAMMA RAY FROM RESISTIVITY LOG
GRWS   .GAPI :   GAMMA RAY [SPLICE : GRDED/GRRED@3500, GRDED@7916]
MRESWS .OHMM                       : MEDIUM RESISTIVITY [RILMED]
NPOWS  .V/V                        : NEUTRON POROSITY LIMESTONE [CNSLSED]
RHOBED .G/C3                       : BULK DENSITY FROM DENSITY LOG [DEPTH SHIFTED TO RES. IN DEEP SECTION]
RILDED .OHMM                       : INDUCTION LOG DEEP RESISTIVITY
RILMED .OHMM                       : INDUCTION LOG MEDIUM RESISTIVITY
RLLED  .OHMM                       : LATEROLOG RESISTIVITY
SPRED  .MV                         : SPONTANEOUS POTENTIAL FROM RESISTIVITY LOG
SPWS   .MV                         : SPONTANEOUS POTENTIAL [BASELINE 0 MV] [SPRED]
SRESWS .OHMM                       : SHALLOW RESISTIVITY [SFLUED]
TENDED .LBF                        : TENSION FROM DENSITY LOG
~Params ----------------------------------------------------
PD  .                     GL : PERMANENT DATUM
EPD .FT                  261 : ELEVATION PERMANENT DATUM
LMF .                     KB : LOG MEASURED FROM
DAPD.FT                   11 : FEET ABOVE PERMANENT DATUM
DMF .                     KB : DRILLING MEASURED FROM
EKB .FT                  272 : KELLY BUSHING
EDF .FT                  271 : DRILLING FLOOR
EGL .FT                  261 : GROUND LEVEL
DATE.               05/14/82 : RUN DATE
RUN .                      1 : RUN NUMBER
DD  .FT                 8140 : DEPTH DRILLER
DL  .FT                 8090 : DEPTH LOGGER
BLI .FT                 8089 : BOTTOM LOG INTERVAL
CS  .IN                9.625 : CASING SIZE
CBD .FT                 8421 : CASING BOTTOM DRILLER
CBL .FT                 8428 : CASING BOTTOM LOGGER
BS  .IN                  8.5 : BIT SIZE
BSD .FT                 8140 : BIT SIZE AT DEPTH
DFT .          NON DISPERSED : DRILLING FLUID TYPE
DFD .                    9.2 : DRILLING FLUID DENSITY
DFV .                     50 : DRILLING FLUID VISCOSITY
DFPH.                   1.05 : DRILLING FLUID PH
DFL .                      6 : DRILLING FLUID LOSS
MSS .               FLOWLINE : MUD SAMPLE SOURCE
MST .DEGF                 75 : MUD SAMPLE TEMPERATURE
MFST.DEGF                 75 : MUD FILTRATE SAMPLE TEMPERATURE
RMC .OHMM                3.7 : RESISTIVITY MUD CAKE
MCST.DEGF                 75 : MUD CAKE SAMPLE TEMPERATURE
MFSS.                      M : MUD FILTRATE SAMPLE SOURCE
MCSS.                      M : MUD CAKE SAMPLE SOURCE
TCS .HRS                1210 : TIME CIRCULATED STOPPED
LUL .                  BRYAN : LOGGING UNIT LOCATION
CLNT.                A2DTECH : CLIENT CODE
ORIG.               5" PRINT : ORIGIN OF DATA
UWI .         42177313020000 : UNIQUE WELL ID
DICO. A2D Technologies, Inc. : DIGITIZING COMPANY
~Other -----------------------------------------------------
~ASCII -----------------------------------------------------
# ...
 5500.00000   10.21180    -999.25   10.21180    -999.25    -999.25    -999.25    -999.25  551.84590    -999.25    -999.25    -999.25    1.81210    -999.25   94.94160   94.94160    -999.25   82.74500   82.74500    1.89260    -999.25    -999.25    1.81210    1.89260    1.99950  -29.06100   -6.56590    1.99950    -999.25
 5550.00000   10.46410    -999.25   10.46410    -999.25    -999.25    -999.25    -999.25  624.49260    -999.25    -999.25    -999.25    1.60130    -999.25   95.57920   95.57920    -999.25   76.41780   76.41780    1.66780    -999.25    -999.25    1.60130    1.66780    1.81280  -28.19530   -6.24630    1.81280    -999.25
 5600.00000   10.34000    -999.25   10.34000    -999.25    -999.25    -999.25    -999.25  589.48360    -999.25    -999.25    -999.25    1.69640    -999.25   94.84090   94.84090    -999.25   80.07550   80.07550    1.73920    -999.25    -999.25    1.69640    1.73920    1.93280  -26.00450   -4.60160    1.93280    -999.25
 5650.00000   10.02400    -999.25   10.02400    -999.25    -999.25    -999.25    -999.25  729.34140    -999.25    -999.25    -999.25    1.37110    -999.25  100.56100  100.56100    -999.25   87.18330   87.18330    1.44190    -999.25    -999.25    1.37110    1.44190    1.66420  -26.28280   -5.42610    1.66420    -999.25
 5700.00000    9.56070    -999.25    9.56070    -999.25    -999.25    -999.25    -999.25  522.79380    -999.25    -999.25    -999.25    1.91280    -999.25   90.03880   90.03880    -999.25   86.21330   86.21330    1.97860    -999.25    -999.25    1.91280    1.97860    2.10480  -26.47060   -6.16000    2.10480    -999.25
 5750.00000    9.41540    -999.25    9.41540    -999.25    -999.25    -999.25    -999.25  766.34220    -999.25    -999.25    -999.25    1.30490    -999.25   96.41210   96.41210    -999.25   81.42500   81.42500    1.37630    -999.25    -999.25    1.30490    1.37630    1.57910  -23.36190   -3.59740    1.57910    -999.25
 5800.00000    9.58270    -999.25    9.58270    -999.25    -999.25    -999.25    -999.25  878.58020    -999.25    -999.25    -999.25    1.13820    -999.25  100.39140  100.39140    -999.25   85.52740   85.52740    1.18700    -999.25    -999.25    1.13820    1.18700    1.46910  -21.67950   -2.46120    1.46910    -999.25
 5850.00000    9.22610    -999.25    9.22610    -999.25    -999.25    -999.25    -999.25  584.79530    -999.25    -999.25    -999.25    1.71000    -999.25   88.28520   88.28520    -999.25   77.18460   77.18460    1.79650    -999.25    -999.25    1.71000    1.79650    1.91090  -21.60330   -2.88630    1.91090    -999.25
 5900.00000    9.25740    -999.25    9.25740    -999.25    -999.25    -999.25    -999.25  627.51000    -999.25    -999.25    -999.25    1.59360    -999.25   91.32860   91.32860    -999.25   71.93180   71.93180    1.66760    -999.25    -999.25    1.59360    1.66760    1.71290  -20.73360   -2.41840    1.71290    -999.25
 5950.00000    9.40710    -999.25    9.40710    -999.25    -999.25    -999.25    -999.25  799.10500    -999.25    -999.25    -999.25    1.25140    -999.25   94.97270   94.97270    -999.25   71.59060   71.59060    1.31200    -999.25    -999.25    1.25140    1.31200    1.49820  -19.87430   -1.96080    1.49820    -999.25
 6000.00000    9.05070    -999.25    9.05070    -999.25    -999.25    -999.25    -999.25  403.53500    -999.25    -999.25    -999.25    2.47810    -999.25   85.04900   85.04900    -999.25   70.89140   70.89140    2.51300    -999.25    -999.25    2.47810    2.51300    2.62020  -21.16130   -3.58650    2.62020    -999.25
 6050.00000    9.26210    -999.25    9.26210    -999.25    -999.25    -999.25    -999.25  438.28890    -999.25    -999.25    -999.25    2.28160    -999.25   84.97240   84.97240    -999.25   72.71600   72.71600    2.42850    -999.25    -999.25    2.28160    2.42850    2.57000  -20.56460   -3.21170    2.57000    -999.25
 6100.00000    9.51950    -999.25    9.51950    -999.25    -999.25    -999.25    -999.25  424.43020    -999.25    -999.25    -999.25    2.35610    -999.25   88.00570   88.00570    -999.25   66.66660   66.66660    2.42800    -999.25    -999.25    2.35610    2.42800    2.58500  -22.52480   -5.39370    2.58500    -999.25
 6150.00000    9.93110    -999.25    9.93110    -999.25    -999.25    -999.25    -999.25  855.13940    -999.25    -999.25    -999.25    1.16940    -999.25  105.09700  105.09700    -999.25   75.42750   75.42750    1.22640    -999.25    -999.25    1.16940    1.22640    1.47980  -23.31520   -6.40590    1.47980    -999.25
 6200.00000    9.01080    -999.25    9.01080    -999.25    -999.25    -999.25    -999.25  367.08020    -999.25    -999.25    -999.25    2.72420    -999.25   77.70600   77.70600    -999.25   55.36670   55.36670    2.85620    -999.25    -999.25    2.72420    2.85620    3.01350  -22.43210   -5.74470    3.01350    -999.25
 6250.00000    8.27150    -999.25    8.27150    -999.25    -999.25    -999.25    -999.25  827.33520    -999.25    -999.25    -999.25    1.20870    -999.25   99.22070   99.22070    -999.25   75.79770   75.79770    1.25730    -999.25    -999.25    1.20870    1.25730    1.47430  -17.85760   -1.39200    1.47430    -999.25
 6300.00000    8.91650    -999.25    8.91650    -999.25    -999.25    -999.25    -999.25  725.53150    -999.25    -999.25    -999.25    1.37830    -999.25   95.96570   95.96570    -999.25   70.41500   70.41500    1.44100    -999.25    -999.25    1.37830    1.44100    1.50810  -25.09920   -8.43020    1.50810    -999.25
 6350.00000    9.47090    -999.25    9.47090    -999.25    -999.25    -999.25    -999.25  709.92470    -999.25    -999.25    -999.25    1.40860    -999.25   97.87960   97.87960    -999.25   72.21680   72.21680    1.51270    -999.25    -999.25    1.40860    1.51270    1.53460  -26.66200   -9.78540    1.53460    -999.25
 6400.00000    9.42360    -999.25    9.42360    -999.25    -999.25    -999.25    -999.25  729.60750    -999.25    -999.25    -999.25    1.37060    -999.25   97.79740   97.79740    -999.25   73.58270   73.58270    1.42580    -999.25    -999.25    1.37060    1.42580    1.52730  -27.80810  -10.72390    1.52730    -999.25
 6450.00000    9.17460    -999.25    9.17460    -999.25    -999.25    -999.25    -999.25  661.76960    -999.25    -999.25    -999.25    1.51110    -999.25   95.56310   95.56310    -999.25   67.44070   67.44070    1.55500    -999.25    -999.25    1.51110    1.55500    1.59060  -33.72040  -16.42860    1.59060    -999.25
 6500.00000    9.79710    -999.25    9.79710    -999.25    -999.25    -999.25    -999.25  701.60670    -999.25    -999.25    -999.25    1.42530    -999.25   98.85660   98.85660    -999.25   73.89530   73.89530    1.47690    -999.25    -999.25    1.42530    1.47690    1.54360  -37.22790  -19.72840    1.54360    -999.25
 6550.00000    9.31010    -999.25    9.31010    -999.25    -999.25    -999.25    -999.25  644.49600    -999.25    -999.25    -999.25    1.55160    -999.25   95.35490   95.35490    -999.25   68.64230   68.64230    1.63150    -999.25    -999.25    1.55160    1.63150    1.76120  -35.86690  -18.15980    1.76120    -999.25
 6600.00000    8.90820    -999.25    8.90820    -999.25    -999.25    -999.25    -999.25  370.54880    -999.25    -999.25    -999.25    2.69870    -999.25   81.44840   81.44840    -999.25   50.44270   50.44270    2.83640    -999.25    -999.25    2.69870    2.83640    2.99080  -32.63590  -14.72120    2.99080    -999.25
 6650.00000    8.88840    -999.25    8.88840    -999.25    -999.25    -999.25    -999.25  568.02040    -999.25    -999.25    -999.25    1.76050    -999.25   84.26140   84.26140    -999.25   88.60780   88.60780    1.86270    -999.25    -999.25    1.76050    1.86270    1.95710  -34.31080  -16.18840    1.95710    -999.25
 6700.00000    9.32880    -999.25    9.32880    -999.25    -999.25    -999.25    -999.25  682.78030    -999.25    -999.25    -999.25    1.46460    -999.25   91.97780   91.97780    -999.25   79.70430   79.70430    1.51580    -999.25    -999.25    1.46460    1.51580    1.56380  -32.45690  -14.12690    1.56380    -999.25
