~Version ---------------------------------------------------
VERS. 2.0 : CWLS log ASCII Standard -VERSION 2.0
WRAP. YES : MULTIPLE LINES PER DEPTH STEP
~Well ------------------------------------------------------
STRT.FT                   3500.0 : START DEPTH
STOP.FT                  16150.0 : STOP DEPTH
STEP.FT                 50.00000 : STEP LENGTH
NULL.                    -999.25 : NULL VALUE
COMP. CHEYENNE PETROLEUM COMPANY : COMPANY
WELL.              RUBY YOUNG #1 : WELL
FLD .                    WILDCAT : FIELD
LOC .                            : LOCATION
CNTY.                     KARNES : COUNTY
STAT.                      TEXAS : STATE
CTRY.   UNITED STATES OF AMERICA : COUNTRY
SRVC.               Schlumberger : SERVICE COMPANY
DATE.                06-Jan-1997 : LOGDATE
API .             42255313650000 : API NUMBER
UWI .             42255313650000 : UNIQUE WELL ID
SLAT.WGS84         28.8201979392 : SURFACE LATITUDE
SLON.WGS84        -97.8404688792 : SURFACE LONGITUDE
~Curve Information -----------------------------------------
DEPT    .FT    : DEPTH FEET
ASFLED  .OHMM  : AMPLIFIED SPHERICALLY FOCUSED LOG RESISTIVITY
CALWS   .IN    : CALIPER [DCALRED+9.875]<15054>[DCALRED+6.5]
CONDWS  .MMHO  : CONDUCTIVITY [1000/DRESWS]
DCALRED .IN    : DIFFERENTIAL CALIPER FROM RESISTIVITY LOG
DCORWS  .G/C3  : DENSITY CORRECTION [DRHOED]
DENWS   .G/C3  : BULK DENSITY [M=2.71 F=1.0] [CALCULATED FROM DPOWS]
DPHILSED.V/V   : DENSITY POROSITY LIMESTONE[M=2.71 F=1.0] FROM COMPOSITE RES. LOG
DPOWS   .V/V   : DENSITY POROSITY [DPHILSED]
DRESWS  .OHMM  : DEEP RESISTIVITY [IDPHED]
DRHOED  .G/C3  : DENSITY CORRECTION FROM COMPOSITE RES. LOG
DTLFED  .US/F  : DELTA TIME LONG SPACING FAR DETECTOR COMPOSITE RES. LOG
DTLNED  .US/F  : DELTA TIME LONG SPACING NEAR DETECTOR COMPOSITE RES. LOG
DTWS    .US/F  : DELTA TIME [DTLFED]
GRRED   .GAPI  : GAMMA RAY FROM RESISTIVITY LOG
GRWS    .GAPI  : GAMMA RAY [GRRED]
IDPHED  .OHMM  : INDUCTION DEEP PHASE RESISTIVITY
IMPHED  .OHMM  : INDUCTION MEDIUM PHASE RESISTIVITY
MRESWS  .OHMM  : MEDIUM RESISTIVITY [IMPHED]
NPHILSED.V/V   : NEUTRON POROSITY LIMESTONE FROM COMPOSITE RES. LOG
NPOWS   .V/V   : NEUTRON POROSITY LIMESTONE [NPHILSED]
SFLUED  .OHMM  : SPHERICALLY FOCUSED LOG RESISTIVITY
SPRED   .MV    : SPONTANEOUS POTENTIAL FROM RESISTIVITY LOG
SPWS    .MV    : SPONTANEOUS POTENTIAL [BASELINE 0 MV] [SPRED]
SRESWS  .OHMM  : SHALLOW RESISTIVITY [ASFLED], SPLICED WITH [SFLUED] AT 12400'
TENRED  .LBF   : TENSION FROM RESISTIVITY LOG
~Params ----------------------------------------------------
PD  .                     GL : PERMANENT DATUM
EPD .FT                258.6 : ELEVATION PERMANENT DATUM
LMF .                     KB : LOG MEASURED FROM
DAPD.FT                   25 : FEET ABOVE PERMANENT DATUM
DMF .                     KB : DRILLING MEASURED FROM
EKB .FT                284.5 : KELLY BUSHING
EDF .FT                283.6 : DRILLING FLOOR
EGL .FT                258.6 : GROUND LEVEL
DATE.               01/06/97 : RUN DATE
RUN .                      2 : RUN NUMBER
DD  .FT                16145 : DEPTH DRILLER
DL  .FT                16144 : DEPTH LOGGER
BLI .FT                16142 : BOTTOM LOG INTERVAL
TLI .FT                15080 : TOP LOG INTERVAL
CS  .IN                7.625 : CASING SIZE
CBD .FT                15084 : CASING BOTTOM DRILLER
CBL .FT                15080 : CASING BOTTOM LOGGER
BS  .IN                  6.5 : BIT SIZE
BSD .FT                16145 : BIT SIZE AT DEPTH
DFT .              LIG DESCO : DRILLING FLUID TYPE
DFD .                   15.9 : DRILLING FLUID DENSITY
DFV .                     47 : DRILLING FLUID VISCOSITY
DFPH.                   10.3 : DRILLING FLUID PH
DFL .                    5.2 : DRILLING FLUID LOSS
MSS .                MUD PIT : MUD SAMPLE SOURCE
RMS .OHMM                0.6 : RESISTIVITY MUD SAMPLE
MST .DEGF                 75 : MUD SAMPLE TEMPERATURE
RMF .OHMM                0.5 : RESISTIVITY MUD FILTRATE SAMPLE
MFST.DEGF                 75 : MUD FILTRATE SAMPLE TEMPERATURE
RMC .OHMM               0.92 : RESISTIVITY MUD CAKE
MCST.DEGF                 75 : MUD CAKE SAMPLE TEMPERATURE
MFSS.               MEASURED : MUD FILTRATE SAMPLE SOURCE
MCSS.             CALCULATED : MUD CAKE SAMPLE SOURCE
RMB .OHMM               0.13 : RESISTIVITY MUD AT BHT
TCS .HRS                   0 : TIME CIRCULATED STOPPED
TLAB.HRS                1530 : TIME LOGGER AT BOTTOM
LUN .                   2020 : LOGGING UNIT NUMBER
LUL .               VICTORIA : LOGGING UNIT LOCATION
ENGI.                  NAHRI : RECORDING ENGINEER
WITN.    ZAUNBRECHER BRANDON : WITNESSED BY
CLNT.                A2DTECH : CLIENT CODE
ORIG.               5" PRINT : ORIGIN OF DATA
UWI .         42255313650000 : UNIQUE WELL ID
DICO. A2D Technologies, Inc. : DIGITIZING COMPANY
~Other -----------------------------------------------------
MUD WEIGHT USED 9.6 TO 18.8 WHILE DRILLING
~ASCII -----------------------------------------------------
# ...
 4900.00000    0.99640    -999.25  976.04240    -999.25    -999.25    -999.25    -999.25    -999.25    1.02450    -999.25  124.88250  139.97970  124.88250   50.86050   50.86050    1.02450    0.85040    0.85040    -999.25    -999.25    -999.25    -999.25    -999.25    0.99640 2408.84500
 4950.00000    1.57530    -999.25  624.99790    -999.25    -999.25    -999.25    -999.25    -999.25    1.60000    -999.25  112.91150  111.41070  112.91150   58.17120   58.17120    1.60000    1.52490    1.52490    -999.25    -999.25    -999.25    -999.25    -999.25    1.57530 2423.37130
 5000.00000    1.14020    -999.25  878.33150    -999.25    -999.25    -999.25    -999.25    -999.25    1.13850    -999.25  116.83260  115.58250  116.83260   55.89900   55.89900    1.13850    1.05890    1.05890    -999.25    -999.25    -999.25    -999.25    -999.25    1.14020 2467.00930
 5050.00000    1.50720    -999.25  644.27770    -999.25    -999.25    -999.25    -999.25    -999.25    1.55210    -999.25  104.02820  112.66230  104.02820   54.91330   54.91330    1.55210    1.51080    1.51080    -999.25    -999.25    -999.25    -999.25    -999.25    1.50720 2487.34010
 5100.00000    1.71120    -999.25  592.59590    -999.25    -999.25    -999.25    -999.25    -999.25    1.68750    -999.25  103.88000   98.57770  103.88000   57.41360   57.41360    1.68750    1.76290    1.76290    -999.25    -999.25    -999.25    -999.25    -999.25    1.71120 2469.84230
 5150.00000    2.00990    -999.25  553.82600    -999.25    -999.25    -999.25    -999.25    -999.25    1.80560    -999.25   95.98070   94.05230   95.98070   58.43900   58.43900    1.80560    1.98630    1.98630    -999.25    -999.25    2.30890    -999.25    -999.25    2.00990 2466.62550
 5200.00000    1.25480    -999.25  789.16930    -999.25    -999.25    -999.25    -999.25    -999.25    1.26720    -999.25  104.76750  107.83920  104.76750   56.99280   56.99280    1.26720    1.19500    1.19500    -999.25    -999.25    -999.25    -999.25    -999.25    1.25480 2507.46970
 5250.00000    1.40860    -999.25  663.08950    -999.25    -999.25    -999.25    -999.25    -999.25    1.50810    -999.25  118.54770  125.98560  118.54770   56.06870   56.06870    1.50810    1.42870    1.42870    -999.25    -999.25    -999.25    -999.25    -999.25    1.40860 2480.56570
 5300.00000    1.26790    -999.25  674.27640    -999.25    -999.25    -999.25    -999.25    -999.25    1.48310    -999.25   83.94910   87.64220   83.94910   43.10160   43.10160    1.48310    1.31910    1.31910    -999.25    -999.25    -999.25    -999.25    -999.25    1.26790 2496.62040
 5350.00000    1.04860    -999.25  953.94650    -999.25    -999.25    -999.25    -999.25    -999.25    1.04830    -999.25  117.36290  109.67750  117.36290   55.38280   55.38280    1.04830    0.98160    0.98160    -999.25    -999.25    -999.25    -999.25    -999.25    1.04860 2548.01640
 5400.00000    1.29280    -999.25  736.42740    -999.25    -999.25    -999.25    -999.25    -999.25    1.35790    -999.25  126.31480   72.06310  126.31480   60.61490   60.61490    1.35790    1.23220    1.23220    -999.25    -999.25    -999.25    -999.25    -999.25    1.29280 2543.60550
 5450.00000    0.92910    -999.25 1171.55040    -999.25    -999.25    -999.25    -999.25    -999.25    0.85360    -999.25  113.04400  120.03140  113.04400   57.18450   57.18450    0.85360    0.76620    0.76620    -999.25    -999.25    -999.25    -999.25    -999.25    0.92910 2553.29250
 5500.00000    0.80640    -999.25 1242.32650    -999.25    -999.25    -999.25    -999.25    -999.25    0.80490    -999.25  117.96030  119.69630  117.96030   64.77930   64.77930    0.80490    0.76280    0.76280    -999.25    -999.25    -999.25    -999.25    -999.25    0.80640 2581.26150
 5550.00000    0.95950    -999.25 1011.29400    -999.25    -999.25    -999.25    -999.25    -999.25    0.98880    -999.25  106.46680  100.93860  106.46680   60.37920   60.37920    0.98880    0.90500    0.90500    -999.25    -999.25    -999.25    -999.25    -999.25    0.95950 2565.23970
 5600.00000    1.28840    -999.25  764.92310    -999.25    -999.25    -999.25    -999.25    -999.25    1.30730    -999.25  105.15610  104.52400  105.15610   59.44000   59.44000    1.30730    1.26980    1.26980    -999.25    -999.25    -999.25    -999.25    -999.25    1.28840 2567.86570
 5650.00000    1.26670    -999.25  702.55220    -999.25    -999.25    -999.25    -999.25    -999.25    1.42340    -999.25  100.99430   99.31680  100.99430   53.38230   53.38230    1.42340    1.32700    1.32700    -999.25    -999.25    -999.25    -999.25    -999.25    1.26670 2579.23710
 5700.00000    3.38470    -999.25  391.82370    -999.25    -999.25    -999.25    -999.25    -999.25    2.55220    -999.25  119.64120   94.72300  119.64120   66.30690   66.30690    2.55220    2.95450    2.95450    -999.25    -999.25    3.90530    -999.25    -999.25    3.38470 2624.22680
 5750.00000    2.34350    -999.25  440.11390    -999.25    -999.25    -999.25    -999.25    -999.25    2.27210    -999.25  111.25330   95.00430  111.25330   65.41810   65.41810    2.27210    2.13730    2.13730    -999.25    -999.25    2.92950    -999.25    -999.25    2.34350 2633.88010
 5800.00000    2.21760    -999.25  426.70460    -999.25    -999.25    -999.25    -999.25    -999.25    2.34350    -999.25  100.43460   99.75880  100.43460   62.41660   62.41660    2.34350    2.09560    2.09560    -999.25    -999.25    2.28370    -999.25    -999.25    2.21760 2641.41310
 5850.00000    3.56620    -999.25  581.10990    -999.25    -999.25    -999.25    -999.25    -999.25    1.72080    -999.25   92.35880   92.66490   92.35880   57.79970   57.79970    1.72080    2.65760    2.65760    -999.25    -999.25    3.61770    -999.25    -999.25    3.56620 2724.64450
 5900.00000    2.22350    -999.25  572.56970    -999.25    -999.25    -999.25    -999.25    -999.25    1.74650    -999.25   99.74010   97.70750   99.74010   57.66270   57.66270    1.74650    2.22490    2.22490    -999.25    -999.25    2.24570    -999.25    -999.25    2.22350 2739.75510
 5950.00000    1.42980    -999.25 1624.60600    -999.25    -999.25    -999.25    -999.25    -999.25    0.61550    -999.25   89.84300   91.33140   89.84300   29.69000   29.69000    0.61550    0.77870    0.77870    -999.25    -999.25    -999.25    -999.25    -999.25    1.42980 2791.35840
 6000.00000    3.13260    -999.25  935.94170    -999.25    -999.25    -999.25    -999.25    -999.25    1.06840    -999.25   92.40790   92.76020   92.40790   35.93130   35.93130    1.06840    1.80300    1.80300    -999.25    -999.25    3.32140    -999.25    -999.25    3.13260 2726.00490
 6050.00000    4.35000    -999.25  683.28780    -999.25    -999.25    -999.25    -999.25    -999.25    1.46350    -999.25   85.59560   86.30180   85.59560   29.33660   29.33660    1.46350    2.22670    2.22670    -999.25    -999.25    4.83210    -999.25    -999.25    4.35000 2726.00240
 6100.00000    3.33420    -999.25  779.90650    -999.25    -999.25    -999.25    -999.25    -999.25    1.28220    -999.25   93.78070   94.51240   93.78070   44.62960   44.62960    1.28220    2.76600    2.76600    -999.25    -999.25    3.96300    -999.25    -999.25    3.33420 2742.79860
 6150.00000    1.11670    -999.25 1565.11690    -999.25    -999.25    -999.25    -999.25    -999.25    0.63890    -999.25   91.46490   90.71410   91.46490   31.51070   31.51070    0.63890    0.74690    0.74690    -999.25    -999.25    -999.25    -999.25    -999.25    1.11670 2778.59300
 6200.00000    3.70480    -999.25  460.23890    -999.25    -999.25    -999.25    -999.25    -999.25    2.17280    -999.25   91.57720   92.49810   91.57720   57.43470   57.43470    2.17280    3.11260    3.11260    -999.25    -999.25    3.93820    -999.25    -999.25    3.70480 2745.73580
 6250.00000    2.17370    -999.25  832.69380    -999.25    -999.25    -999.25    -999.25    -999.25    1.20090    -999.25   98.22630   97.17930   98.22630   38.33100   38.33100    1.20090    1.49800    1.49800    -999.25    -999.25    2.15300    -999.25    -999.25    2.17370 2800.04170
