~Version ---------------------------------------------------
VERS. 2.0 : CWLS log ASCII Standard -VERSION 2.0
WRAP. YES : Multiple lines per depth step
~Well ------------------------------------------------------
STRT.FT                        650.0 : START DEPTH
STOP.FT                       7250.0 : STOP DEPTH
STEP.FT                     50.00000 : STEP LENGTH
NULL.                        -999.25 : NULL VALUE
COMP.      MACHII ROSS PETROLEUM CO. : COMPANY
WELL. WINN EXPLORATION HARPER NBC #1 : WELL
FLD .                             WC : FIELD
LOC .                                : LOCATION
CNTY.                       MAVERICK : COUNTY
STAT.                          TEXAS : STATE
CTRY.       UNITED STATES OF AMERICA : COUNTRY
SRVC.                   Schlumberger : SERVICE COMPANY
DATE.                    24-Sep-1978 : LOGDATE
API .                 42323312660000 : API NUMBER
UWI .                 42323312660000 : UNIQUE WELL ID
SLAT.WGS84             28.7830719209 : SURFACE LATITUDE
SLON.WGS84           -100.5041551949 : SURFACE LONGITUDE
~Curve Information -----------------------------------------
DEPT  .FT    : DEPTH
CALDED.IN    : CALIPER FROM DENSITY LOG (ADJ TO RES.)
CALSED.IN    : CALIPER FROM SONIC LOG (ADJ TO RES.)
CALWS .IN    : CALIPER (CALDED)
CONDWS.MMHO  : CONDUCTIVITY (1000/DRESWS)
DCORWS.G/C3  : DENSITY CORRECTION (DRHOED)
DENWS .G/C3  : BULK DENSITY  (FROM DPOWS ASSUMED LS)
DPHIED.V/V   : DENSITY POROSITY  (ADJ TO RES.)
DPOWS .V/V   : DENSITY POROSITY (M=2.71 F=1 DPHIED)
DRESWS.OHMM  : DEEP RESISTIVITY (ILDED)
DRHOED.G/C3  : DENSITY CORRECTION (ADJ TO RES.)
DTED  .US/F  : DELTA TIME
DTWS  .US/F  : DELTA TIME  (DTED)
GRRED .GAPI  : GAMMA RAY FROM RESISTIVITY LOG
GRSED .GAPI  : GAMMA RAY FROM SONIC LOG (ADJ TO RES.)
GRWS  .GAPI  : GAMMA RAY (GRSED)
ILDED .OHMM  : DEEP INDUCTION RESISTIVITY
ILMED .OHMM  : MEDIUM INDUCTION RESISTIVITY
LL8ED .OHMM  : LATEROLOG-8 RESISTIVITY
MRESWS.OHMM  : MEDIUM RESISTIVITY (ILMED)
NPHIED.V/V   : NEUTRON POROSITY (ADJ TO RES.)
NPOWS .V/V   : NEUTRON POROSITY ASSUMED LIMESTONE (NPHIED)
RHOBED.G/C3  : BULK DENSITY (ADJ TO RES.)
SPRED .MV    : SPONTANEOUS POTENTIAL FROM RESISTIVITY
SPWS  .MV    : SPONTANEOUS POTENTIAL BASELINE 0 MV (SPRED) (INVALID TOP-6222)
SRESWS.OHMM  : SHALLOW RESISTIVITY (LL8ED)
~Params ----------------------------------------------------
PD  .                     GL : PERMANENT DATUM
EPD .FT                  790 : ELEVATION PERMANENT DATUM
LMF .                     KB : LOG MEASURED FROM
DMF .                     KB : DRILLING MEASURED FROM
EGL .FT                  790 : GROUND LEVEL
DATE.              9-24-1978 : RUN DATE
RUN .                      2 : RUN NUMBER
DD  .FT                 7270 : DEPTH DRILLER
DL  .FT                 7271 : DEPTH LOGGER
BLI .FT                 7265 : BOTTOM LOG INTERVAL
TLI .FT                 6232 : TOP LOG INTERVAL
CS  .IN                8.625 : CASING SIZE
CBD .FT                 6231 : CASING BOTTOM DRILLER
CBL .FT                 6232 : CASING BOTTOM LOGGER
BS  .IN                7.875 : BIT SIZE
BSD .FT                 7270 : BIT SIZE AT DEPTH
DFT .              LIGNOSULF : DRILLING FLUID TYPE
DFD .                   14.4 : DRILLING FLUID DENSITY
DFV .                     51 : DRILLING FLUID VISCOSITY
DFPH.                     10 : DRILLING FLUID PH
DFL .                    8.2 : DRILLING FLUID LOSS
MSS .             CIRC. TANK : MUD SAMPLE SOURCE
RMS .OHMM               1.94 : RESISTIVITY MUD SAMPLE
MST .DEGF                 82 : MUD SAMPLE TEMPERATURE
RMF .OHMM               1.45 : RESISTIVITY MUD FILTRATE SAMPLE
MFST.DEGF                 82 : MUD FILTRATE SAMPLE TEMPERATURE
RMC .OHMM               2.91 : RESISTIVITY MUD CAKE
MCST.DEGF                 82 : MUD CAKE SAMPLE TEMPERATURE
MFSS.                   MEAS : MUD FILTRATE SAMPLE SOURCE
MCSS.                   CALC : MUD CAKE SAMPLE SOURCE
RMB .OHMM              0.855 : RESISTIVITY MUD AT BHT
TCS .HRS                 600 : TIME CIRCULATED STOPPED
TLAB.HRS                1300 : TIME LOGGER AT BOTTOM
LUL .                 LAREDO : LOGGING UNIT LOCATION
ENGI.                RENFROW : RECORDING ENGINEER
WITN.                 WALKER : WITNESSED BY
CLNT.                A2DTECH : CLIENT CODE
ORIG.          1" 2.5" PRINT : ORIGIN OF DATA
UWI .         42323312660000 : UNIQUE WELL ID
DICO. A2D Technologies, Inc. : DIGITIZING COMPANY
~Other -----------------------------------------------------
~ASCII -----------------------------------------------------
# ...
 2050.00000   12.93900    -999.25   12.93900  130.21000    0.02520    2.40320    0.17940    0.17940    7.67990    0.02520   79.30640   79.30640   36.59640   36.59640   36.59640    7.67990    6.47970    4.10250    6.47970    0.18270    0.18270    2.46580 -118.97760    -999.25    4.10250
 2100.00000   12.27820    -999.25   12.27820   82.14700    0.00450    2.57110    0.08120    0.08120   12.17330    0.00450   70.72460   70.72460   32.75740   32.75740   32.75740   12.17330   12.96870   17.56190   12.96870    0.10430    0.10430    2.57530  -84.33730    -999.25   17.56190
 2150.00000   12.27070    -999.25   12.27070  119.80930    0.00460    2.52650    0.10730    0.10730    8.34660    0.00460   70.27020   70.27020   36.14570   36.14570   36.14570    8.34660    8.60310    7.70950    8.60310    0.14690    0.14690    2.52770 -103.91230    -999.25    7.70950
 2200.00000   12.24500    -999.25   12.24500   95.40070    0.00140    2.55930    0.08810    0.08810   10.48210    0.00140   65.30290   65.30290   28.01210   28.01210   28.01210   10.48210   11.42570   12.41730   11.42570    0.10430    0.10430    2.55350 -117.46990    -999.25   12.41730
 2250.00000   12.22150    -999.25   12.22150   90.15430    0.00180    2.58690    0.07200    0.07200   11.09210    0.00180   66.95720   66.95720   33.43350   33.43350   33.43350   11.09210   11.82530   17.62970   11.82530    0.10470    0.10470    2.57950  -95.18020    -999.25   17.62970
 2300.00000   12.23820    -999.25   12.23820   44.13200    0.00140    2.54940    0.09390    0.09390   22.65930    0.00140   68.61320   68.61320   70.70830   70.70830   70.70830   22.65930   24.27250   30.88640   24.27250    0.12670    0.12670    2.54900  -45.65350    -999.25   30.88640
 2350.00000   12.23790    -999.25   12.23790   41.74910    0.01190    2.60720    0.06010    0.06010   23.95260    0.01190   64.69900   64.69900   47.66570   47.66570   47.66570   23.95260   23.61030   26.84570   23.61030    0.09170    0.09170    2.59820  -39.15570    -999.25   26.84570
 2400.00000   12.22250    -999.25   12.22250   36.67810    0.00980    2.56020    0.08760    0.08760   27.26420    0.00980   61.80830   61.80830   46.08320   46.08320   46.08320   27.26420   28.07740   31.76460   28.07740    0.08690    0.08690    2.55720  -27.71080    -999.25   31.76460
 2450.00000   12.26780    -999.25   12.26780   11.17780   -0.01040    2.54770    0.09490    0.09490   89.46270   -0.01040   64.69880   64.69880   49.02130   49.02130   49.02130   89.46270  878.33090  123.74170  878.33090    0.10340    0.10340    2.56540   -8.43470    -999.25  123.74170
 2500.00000   12.26090    -999.25   12.26090   26.46200   -0.00300    2.55950    0.08800    0.08800   37.79010   -0.00300   69.21690   69.21690   53.31390   53.31390   53.31390   37.79010   39.48740   56.78110   39.48740    0.09110    0.09110    2.56540  -15.36580    -999.25   56.78110
 2550.00000   12.22390    -999.25   12.22390   31.19700    0.00220    2.56090    0.08720    0.08720   32.05440    0.00220   76.14360   76.14360   48.79590   48.79590   48.79590   32.05440   35.26110   52.98560   35.26110    0.13880    0.13880    2.57070  -32.22940    -999.25   52.98560
 2600.00000   12.37320    -999.25   12.37320   47.19230    0.02040    2.58590    0.07260    0.07260   21.18990    0.02040   68.01200   68.01200   47.89160   47.89160   47.89160   21.18990   29.45770   64.02610   29.45770    0.10520    0.10520    2.59370  -36.74700    -999.25   64.02610
 2650.00000   12.38810    -999.25   12.38810   40.60770    0.00960    2.53050    0.10500    0.10500   24.62590    0.00960   77.04840   77.04840   46.53720   46.53720   46.53720   24.62590   25.12550   40.31240   25.12550    0.13250    0.13250    2.54020  -39.15760    -999.25   40.31240
 2700.00000   12.42700    -999.25   12.42700  121.48160    0.03860    2.58890    0.07080    0.07080    8.23170    0.03860   81.86700   81.86700   40.66270   40.66270   40.66270    8.23170    7.08870   16.43590    7.08870    0.20020    0.20020    2.51490 -119.27710    -999.25   16.43590
 2750.00000   12.41780    -999.25   12.41780   17.87140    0.00940    2.42370    0.16740    0.16740   55.95540    0.00940   85.18070   85.18070   76.80650   76.80650   76.80650   55.95540   65.24440  112.17550   65.24440    0.22040    0.22040    2.42240   -9.63760    -999.25  112.17550
 2800.00000   12.34330    -999.25   12.34330   19.58190    0.01190    2.51280    0.11530    0.11530   51.06750    0.01190   76.74700   76.74700   86.29520   86.29520   86.29520   51.06750   38.81620   63.13770   38.81620    0.19920    0.19920    2.50150   -5.41940    -999.25   63.13770
 2850.00000   12.25360    -999.25   12.25360   16.71310    0.00320    2.44290    0.15620    0.15620   59.83340    0.00320   75.24050   75.24050   50.37690   50.37690   50.37690   59.83340   89.67860  213.77610   89.67860    0.20650    0.20650    2.45400    8.43370    -999.25  213.77610
 2900.00000   12.31340    -999.25   12.31340   29.64530    0.02380    2.56480    0.08490    0.08490   33.73220    0.02380   70.42170   70.42170   85.39190   85.39190   85.39190   33.73220   29.57950   38.11280   29.57950    0.15540    0.15540    2.54020   -3.61200    -999.25   38.11280
 2950.00000   12.52240    -999.25   12.52240   36.59340    0.01740    2.65220    0.03380    0.03380   27.32730    0.01740   55.21010   55.21010   21.23480   21.23480   21.23480   27.32730   28.06740   34.07180   28.06740    0.05090    0.05090    2.64630  -22.58790    -999.25   34.07180
 3000.00000   12.34330    -999.25   12.34330   27.92270    0.01190    2.66210    0.02800    0.02800   35.81310    0.01190   57.66540   57.66540   26.20480   26.20480   26.20480   35.81310   38.30790   40.67660   38.30790    0.04330    0.04330    2.64870  -12.65060    -999.25   40.67660
 3050.00000   12.31310    -999.25   12.31310   27.53810    0.01000    2.70540    0.00270    0.00270   36.31330    0.01000   54.45740   54.45740   39.75900   39.75900   39.75900   36.31330   47.46850   59.27500   47.46850    0.02800    0.02800    2.68960  -68.67280    -999.25   59.27500
 3100.00000   13.34250    -999.25   13.34250  414.49060    0.07570    2.55230    0.09220    0.09220    2.41260    0.07570   93.01200   93.01200   74.09640   74.09640   74.09640    2.41260    2.72990    3.50670    2.72990    0.32490    0.32490    2.53530    -999.25    -999.25    3.50670
 3150.00000   13.79090    -999.25   13.79090  482.92850    0.06600    2.46600    0.14270    0.14270    2.07070    0.06600   93.46210   93.46210   72.74100   72.74100   72.74100    2.07070    2.02790    2.99290    2.02790    0.36250    0.36250    2.47030    -999.25    -999.25    2.99290
 3200.00000   13.47760    -999.25   13.47760  313.14590    0.00740    2.59990    0.06440    0.06440    3.19340    0.00740   88.79520   88.79520   62.80120   62.80120   62.80120    3.19340    3.38090    4.19660    3.38090    0.27530    0.27530    2.59770    -999.25    -999.25    4.19660
 3250.00000   12.97010    -999.25   12.97010  270.64330    0.01930    2.64090    0.04040    0.04040    3.69490    0.01930   83.52410   83.52410   62.57640   62.57640   62.57640    3.69490    4.04890    4.68680    4.04890    0.23830    0.23830    2.63690    -999.25    -999.25    4.68680
 3300.00000   12.39180    -999.25   12.39180   62.42470   -0.01340    2.63900    0.04150    0.04150   16.01930   -0.01340   58.97590   58.97590   25.75300   25.75300   25.75300   16.01930   16.70910   26.47250   16.70910    0.06240    0.06240    2.63690  -37.34940    -999.25   26.47250
 3350.00000   12.43340    -999.25   12.43340   45.37250    0.00290    2.65130    0.03430    0.03430   22.03980    0.00290   57.01770   57.01770   21.23490   21.23490   21.23490   22.03980   25.30120   21.15210   25.30120    0.05760    0.05760    2.63610  -15.96390    -999.25   21.15210
 3400.00000   12.39040    -999.25   12.39040   32.97970    0.01180    2.65750    0.03070    0.03070   30.32170    0.01180   53.85540   53.85540   29.45530   29.45530   29.45530   30.32170   41.62540   45.73390   41.62540    0.02890    0.02890    2.65180 -127.00950    -999.25   45.73390
