~Version ---------------------------------------------------
VERS. 2.0 : CWLS log ASCII Standard -VERSION 2.0
WRAP. YES : Multiple lines per depth step
~Well ------------------------------------------------------
STRT.FT                    300.0 : START DEPTH
STOP.FT                   7750.0 : STOP DEPTH
STEP.FT                 50.00000 : STEP LENGTH
NULL.                    -999.25 : NULL VALUE
COMP. CHAMPLIN PETROLEUM COMPANY : COMPANY
WELL.             ALVIN DRGAC #1 : WELL
FLD .                CALDWELL NE : FIELD
LOC .                            : LOCATION
CNTY.                   BURLESON : COUNTY
STAT.                      TEXAS : STATE
CTRY.   UNITED STATES OF AMERICA : COUNTRY
SRVC.               Schlumberger : SERVICE COMPANY
DATE.                03-Apr-1981 : LOGDATE
API .             42051312420000 : API NUMBER
UWI .             42051312420000 : UNIQUE WELL ID
SLAT.WGS84         30.6064505753 : SURFACE LATITUDE
SLON.WGS84        -96.6018284968 : SURFACE LONGITUDE
~Curve Information -----------------------------------------
DEPT    .FT    : DEPTH FEET
CALRED  .IN    : CALIPER FROM RESISTIVITY FROM DUAL INDUCTION-SFL-COMPENSATED NEUTRON-FORMATION DENSITY LOG
CALWS   .IN    : CALIPER [CALRED SPL. TO DCALED+BIT SIZE @ 3487']
CONDWS  .MMHO  : CONDUCTIVITY [1000/DRESWS]
DCALED  .IN    : DIFFERENTIAL CALIPER FROM DUAL INDUCTION-SFL-COMPENSATED NEUTRON-FORMATION DENSITY LOG
DCORWS  .G/C3  : DENSITY CORRECTION [DRHOED]
DENWS   .G/C3  : BULK DENSITY [M=2.71 F=1.0] [CALCULATED FROM DPOWS]
DPHILSED.V/V   : DENSITY POROSITY LIMESTONE [M=2.71 F=1.0] FROM DUAL INDUCTION-SFL-COMPENSATED NEUTRON-FORMATION DENSITY LOG
DPHISSED.V/V   : DENSITY POROSITY SANDSTONE [M=2.65 F=1.0]  FROM DUAL INDUCTION-SFL-COMPENSATED NEUTRON-FORMATION DENSITY LOG
DPOWS   .V/V   : DENSITY POROSITY [DPHISSED  CONVERTED TO LIMESTONE (M=2.71, F=1.0) SPL. TO DPHILSED @ 6250']
DRESWS  .OHMM  : DEEP RESISTIVITY [ILDED]
DRHOED  .G/C3  : DENSITY CORRECTION FROM DUAL INDUCTION-SFL-COMPENSATED NEUTRON-FORMATION DENSITY LOG
DTED    .US/F  : COMPRESSIONAL SONIC FROM INDUCTION-VELOCITY LOG
DTWS    .US/F  : COMPRESSIONAL SONIC [VELED]
GRRED   .GAPI  : GAMMA RAY FROM FROM DUAL INDUCTION-SFL-COMPENSATED NEUTRON-FORMATION DENSITY-VELOCITY LOG [ GRRED IN CASING FROM 67' - 90']
GRWS    .GAPI  : GAMMA RAY [GRRED, GRRED+30 FROM 3520' to 3542']
GUARDED .OHMM  : GUARD RESISTIVITY FROM INDUCTION-VELOCITY LOG
ILDED   .OHMM  : DEEP INDUCTION FROM DUAL INDUCTION-SFL-COMPENSATED NEUTRON-FORMATION DENSITY-VELOCITY LOG
ILMED   .OHMM  : MEDIUM INDUCTION FROM DUAL INDUCTION-SFL-COMPENSATED NEUTRON-FORMATION DENSITY-VELOCITY LOG
MRESWS  .OHMM  : MEDIUM RESISTIVITY [ILMED]
NPHILSED.V/V   : NEUTRON POROSITY LIMESTONE FROM DUAL INDUCTION-SFL-COMPENSATED NEUTRON-FORMATION DENSITY LOG
NPHISSED.V/V   : NEUTRON POROSITY SANDSTONE FROM DUAL INDUCTION-SFL-COMPENSATED NEUTRON-FORMATION DENSITY LOG
NPOWS   .V/V   : NEUTRON POROSITY LIMESTONE[NPHISSED MATRIX CONVERTED TO LIMESTONE SPL. TO NPHILSED @ 6250']
SFLUED  .OHMM  : SHALLOW FOCUS RESISTIVITY UNAVERAGED FROM DUAL INDUCTION-SFL-COMPENSATED NEUTRON-FORMATION DENSITY-VELOCITY LOG
SPRED   .MV    : SPONTANEOUS POTENTIAL ROM DUAL INDUCTION-SFL-COMPENSATED NEUTRON-FORMATION DENSITY-VELOCITY LOG
SPWS    .MV    : SPONTANEOUS POTENTIAL [BASELINE 0 MV] [SPRED]
SRESWS  .OHMM  : SHALLOW RESISTIVITY [SFLUED SPLICED GUARDED AT 3540']
~Params ----------------------------------------------------
PD  .                     GL : PERMANENT DATUM
EPD .FT                  353 : ELEVATION PERMANENT DATUM
LMF .                     KB : LOG MEASURED FROM
DAPD.FT                   18 : FEET ABOVE PERMANENT DATUM
DMF .                     KB : DRILLING MEASURED FROM
EKB .FT                  371 : KELLY BUSHING
EDF .FT                  370 : DRILLING FLOOR
EGL .FT                  353 : GROUND LEVEL
DATE.               04/03/81 : RUN DATE
RUN .                      1 : RUN NUMBER
DD  .FT                 7797 : DEPTH DRILLER
DL  .FT                 7760 : DEPTH LOGGER
BLI .FT                 7754 : BOTTOM LOG INTERVAL
TLI .FT                 3537 : TOP LOG INTERVAL
CS  .IN                9.625 : CASING SIZE
CBD .FT                 3543 : CASING BOTTOM DRILLER
CBL .FT                 3537 : CASING BOTTOM LOGGER
BS  .IN                 8.75 : BIT SIZE
BSD .FT                 7797 : BIT SIZE AT DEPTH
DFT .             LOW SOLIDS : DRILLING FLUID TYPE
DFD .                    9.4 : DRILLING FLUID DENSITY
DFV .                     43 : DRILLING FLUID VISCOSITY
DFPH.                    9.5 : DRILLING FLUID PH
DFL .                    6.8 : DRILLING FLUID LOSS
MSS .               FLOWLINE : MUD SAMPLE SOURCE
RMS .OHMM               1.99 : RESISTIVITY MUD SAMPLE
MST .DEGF                 75 : MUD SAMPLE TEMPERATURE
RMF .OHMM               1.49 : RESISTIVITY MUD FILTRATE SAMPLE
MFST.DEGF                 75 : MUD FILTRATE SAMPLE TEMPERATURE
RMC .OHMM               2.98 : RESISTIVITY MUD CAKE
MCST.DEGF                 75 : MUD CAKE SAMPLE TEMPERATURE
MFSS.                      M : MUD FILTRATE SAMPLE SOURCE
MCSS.                      C : MUD CAKE SAMPLE SOURCE
RMB .OHMM               0.87 : RESISTIVITY MUD AT BHT
TCS .HRS                 700 : TIME CIRCULATED STOPPED
TLAB.HRS                1430 : TIME LOGGER AT BOTTOM
LUN .                   8138 : LOGGING UNIT NUMBER
LUL .                BRENHAM : LOGGING UNIT LOCATION
ENGI.              STAVINOHA : RECORDING ENGINEER
WITN.                  VODAK : WITNESSED BY
CLNT.                A2DTECH : CLIENT CODE
ORIG.            2" 5" PRINT : ORIGIN OF DATA
UWI .         42051312420000 : UNIQUE WELL ID
DICO. A2D Technologies, Inc. : DIGITIZING COMPANY
~Other -----------------------------------------------------
~ASCII -----------------------------------------------------
# ...
 5700.00000    -999.25    6.07160  949.03670    2.32160    0.08580    2.43140    -999.25    0.13250    0.16290    1.05370    0.08580    -999.25    -999.25  100.19390  100.19390    -999.25    1.05370    1.12100    1.12100    0.08580    0.32950    0.28570    1.22740  -12.47270   -5.29600    1.22740
 5750.00000    -999.25    5.27340  948.85660    1.52340    -999.25    2.30870    -999.25    0.20690    0.23470    1.05390    -999.25    -999.25    -999.25   91.93050   91.93050    -999.25    1.05390    1.15730    1.15730    -999.25    0.39580    0.35280    1.35490  -14.82910   -7.84580    1.35490
 5800.00000    -999.25    4.45100  804.37580    0.70100    -999.25    2.45040    -999.25    0.12100    0.15180    1.24320    -999.25    -999.25    -999.25   89.96880   89.96880    -999.25    1.24320    1.34050    1.34050    -999.25    0.33550    0.29170    1.60180  -13.52380   -6.73390    1.60180
 5850.00000    -999.25    4.47650  399.88800    0.72650    0.00120    2.54570    -999.25    0.06320    0.09610    2.50070    0.00120    -999.25    -999.25   39.99500   39.99500    -999.25    2.50070    2.71210    2.71210    0.00120    0.19470    0.15130    3.03220  -16.96540  -10.36890    3.03220
 5900.00000    -999.25    4.85710  390.94570    1.10710    0.00230    2.53630    -999.25    0.06890    0.10160    2.55790    0.00230    -999.25    -999.25   54.65500   54.65500    -999.25    2.55790    2.63480    2.63480    0.00230    0.20230    0.15880    3.05230  -12.24640   -5.84330    3.05230
 5950.00000    -999.25    4.75990  354.35860    1.00990    0.01910    2.56210    -999.25    0.05330    0.08650    2.82200    0.01910    -999.25    -999.25   52.47720   52.47720    -999.25    2.82200    3.05450    3.05450    0.01910    0.17970    0.13660    3.43180  -14.20830   -7.99860    3.43180
 6000.00000    -999.25    5.25770  513.55790    1.50770    0.03270    2.44670    -999.25    0.12320    0.15400    1.94720    0.03270    -999.25    -999.25   76.41460   76.41460    -999.25    1.94720    2.03390    2.03390    0.03270    0.24870    0.20480    2.06250  -26.61910  -20.60280    2.06250
 6050.00000    -999.25    5.14690  452.01830    1.39690    0.03480    2.52790    -999.25    0.07400    0.10650    2.21230    0.03480    -999.25    -999.25   85.02100   85.02100    -999.25    2.21230    2.37130    2.37130    0.03480    0.24420    0.20030    2.66500   -9.45150   -3.62860    2.66500
 6100.00000    -999.25    5.38770  463.24180    1.63770    0.03710    2.51730    -999.25    0.08040    0.11270    2.15870    0.03710    -999.25    -999.25   85.50960   85.50960    -999.25    2.15870    2.32410    2.32410    0.03710    0.24870    0.20480    2.54220   -9.18280   -3.55330    2.54220
 6150.00000    -999.25    5.46250  352.36080    1.71250    0.05150    2.51850    -999.25    0.07970    0.11200    2.83800    0.05150    -999.25    -999.25   70.00180   70.00180    -999.25    2.83800    3.00390    3.00390    0.05150    0.21040    0.16680    3.31990  -11.56110   -6.12500    3.31990
 6200.00000    -999.25    4.80740  399.07410    1.05740    0.02490    2.51400    -999.25    0.08240    0.11460    2.50580    0.02490    -999.25    -999.25   79.19480   79.19480    -999.25    2.50580    2.76390    2.76390    0.02490    0.23690    0.19310    2.90580  -10.87120   -5.62850    2.90580
 6250.00000    -999.25    5.15950  541.44780    1.40950    -999.25    2.70200    0.00470    0.00640    0.00470    1.84690    -999.25    -999.25    -999.25   81.24840   81.24840    -999.25    1.84690    2.00580    2.00580    -999.25    0.28300    0.23900    2.36720   -8.81970   -3.77040    2.36720
 6300.00000    -999.25    5.60250  660.37110    1.85250    -999.25    2.55800    0.08890    -999.25    0.08890    1.51430    -999.25    -999.25    -999.25   86.03870   86.03870    -999.25    1.51430    1.67410    1.67410    -999.25    -999.25    0.29310    1.99690   -8.83270   -3.97680    1.99690
 6350.00000    -999.25    5.75570  793.65080    2.00570    -999.25    2.50270    0.12120    -999.25    0.12120    1.26000    -999.25    -999.25    -999.25  106.29790  106.29790    -999.25    1.26000    1.39280    1.39280    -999.25    -999.25    0.26750    1.67090   -7.95220   -3.28970    1.67090
 6400.00000    -999.25    5.39980  632.55110    1.64980    -999.25    2.52670    0.10720    -999.25    0.10720    1.58090    -999.25    -999.25    -999.25   87.91920   87.91920    -999.25    1.58090    1.72720    1.72720    -999.25    -999.25    0.25610    2.05580   -8.58050   -4.11150    2.05580
 6450.00000    -999.25    5.20890  599.30480    1.45890    -999.25    2.50480    0.12000    -999.25    0.12000    1.66860    -999.25    -999.25    -999.25   94.08640   94.08640    -999.25    1.66860    1.83550    1.83550    -999.25    -999.25    0.26360    2.25620   -8.79010   -4.51450    2.25620
 6500.00000    -999.25    5.33560  641.43680    1.58560    -999.25    2.49680    0.12470    -999.25    0.12470    1.55900    -999.25    -999.25    -999.25   87.22580   87.22580    -999.25    1.55900    1.70820    1.70820    -999.25    -999.25    0.27320    2.03900   -8.84700   -4.76480    2.03900
 6550.00000    -999.25    5.49620  667.55670    1.74620    -999.25    2.49950    0.12310    -999.25    0.12310    1.49800    -999.25    -999.25    -999.25   85.69170   85.69170    -999.25    1.49800    1.66010    1.66010    -999.25    -999.25    0.28550    1.98840   -7.29610   -3.40730    1.98840
 6600.00000    -999.25    5.80710  674.08160    2.05710    -999.25    2.49850    0.12370    -999.25    0.12370    1.48350    -999.25    -999.25    -999.25   91.20820   91.20820    -999.25    1.48350    1.61150    1.61150    -999.25    -999.25    0.29980    1.95900   -6.90940   -3.21400    1.95900
 6650.00000    -999.25    5.43230  716.07590    1.68230    -999.25    2.45760    0.14760    -999.25    0.14760    1.39650    -999.25    -999.25    -999.25   88.34620   88.34620    -999.25    1.39650    1.53350    1.53350    -999.25    -999.25    0.30430    1.82330   -5.41930   -1.91730    1.82330
 6700.00000    -999.25    5.88430  730.94070    2.13430    -999.25    2.53400    0.10290    -999.25    0.10290    1.36810    -999.25    -999.25    -999.25   89.20280   89.20280    -999.25    1.36810    1.50390    1.50390    -999.25    -999.25    0.32480    1.77720   -5.76160   -2.45300    1.77720
 6750.00000    -999.25    5.89850  745.37870    2.14850    -999.25    2.51080    0.11650    -999.25    0.11650    1.34160    -999.25    -999.25    -999.25   90.85410   90.85410    -999.25    1.34160    1.48780    1.48780    -999.25    -999.25    0.29640    1.80360   -9.36620   -6.30430    1.80360
 6800.00000    -999.25    5.69520  649.39280    1.94520    -999.25    2.50120    0.12210    -999.25    0.12210    1.53990    -999.25    -999.25    -999.25   88.10180   88.10180    -999.25    1.53990    1.69960    1.69960    -999.25    -999.25    0.29230    1.98730   -7.67380   -5.47240    1.98730
 6850.00000    -999.25    5.41670  629.48510    1.66670    -999.25    2.52990    0.10530    -999.25    0.10530    1.58860    -999.25    -999.25    -999.25   86.28410   86.28410    -999.25    1.58860    1.74660    1.74660    -999.25    -999.25    0.29270    2.06030   -9.07410   -7.73310    2.06030
 6900.00000    -999.25    5.91740  596.65870    2.16740    -999.25    2.58690    0.07200    -999.25    0.07200    1.67600    -999.25    -999.25    -999.25   84.02900   84.02900    -999.25    1.67600    1.84350    1.84350    -999.25    -999.25    0.25960    2.20140  -12.65640  -12.17590    2.20140
 6950.00000    -999.25    6.15800  659.50010    2.40800    -999.25    2.57370    0.07970    -999.25    0.07970    1.51630    -999.25    -999.25    -999.25   88.01010   88.01010    -999.25    1.51630    1.68930    1.68930    -999.25    -999.25    0.27950    2.00860  -10.72800  -11.10790    2.00860
 7000.00000    -999.25    5.34900  504.64270    1.59900    0.09840    2.64690    0.03690    -999.25    0.03690    1.98160    0.09840    -999.25    -999.25   77.33500   77.33500    -999.25    1.98160    2.21370    2.21370    0.09840    -999.25    0.22530    2.39550   -9.00090  -10.24120    2.39550
