~Version ---------------------------------------------------
VERS. 2.0 : CWLS log ASCII Standard -VERSION 2.0
WRAP. YES : MULTIPLE LINES PER DEPTH STEP
~Well ------------------------------------------------------
STRT.FT                        2500.0 : START DEPTH
STOP.FT                       18000.0 : STOP DEPTH
STEP.FT                      50.00000 : STEP LENGTH
NULL.                         -999.25 : NULL VALUE
COMP. UNION PACIFIC RESOURCES COMPANY : COMPANY
WELL.       UPR T-BAR-X KING COBRA #1 : WELL
FLD .                         WILDCAT : FIELD
LOC .                                 : LOCATION
CNTY.                            LEON : COUNTY
STAT.                           TEXAS : STATE
CTRY.        UNITED STATES OF AMERICA : COUNTRY
SRVC.                    Schlumberger : SERVICE COMPANY
DATE.                     05-Nov-1997 : LOGDATE
API .                  42289312660000 : API NUMBER
UWI .                  42289312660000 : UNIQUE WELL ID
SLAT.WGS84              31.2008912115 : SURFACE LATITUDE
SLON.WGS84             -96.2874133979 : SURFACE LONGITUDE
~Curve Information -----------------------------------------
DEPT    .FT    : DEPTH FEET
AT10ED  .OHMM  : 10 INCH RESISTIVITY TWO FOOT RESOLUTION FROM AIT LOG
AT20ED  .OHMM  : 20 INCH RESISTIVITY TWO FOOT RESOLUTION FROM AIT LOG
AT30ED  .OHMM  : 30 INCH RESISTIVITY TWO FOOT RESOLUTION FROM AIT LOG
AT60ED  .OHMM  : 60 INCH RESISTIVITY TWO FOOT RESOLUTION FROM AIT LOG
AT90ED  .OHMM  : 90 INCH RESISTIVITY TWO FOOT RESOLUTION FROM AIT LOG
CALDED  .IN    : CALIPER FROM DENSITY LOG [DEP ADJ TO GRRED]
CALRED  .IN    : CALIPER FROM RESISTIVITY LOG
CALWS   .IN    : CALIPER [2484 CALICAL 15888 CALRED]
CGRDED  .GAPI  : GAMMA RAY FROM DENSITY LOG [DEP ADJ TO GRRED]
CONDWS  .MMHO  : CONDUCTIVITY [1000/DRESWS]
DCALED  .IN    : DIFFERENTIAL CALIPER FROM DENSITY LOG
DCORWS  .G/C3  : DENSITY CORRECTION [2484 DRHOED 9946 DRHED 15888.5 DRHOED]
DENWS   .G/C3  : BULK DENSITY [M=2.71 F=1.0] [CALCULATED FROM DPOWS]
DPHILSED.V/V   : DENSITY POROSITY [M=2.71 F=1.0] FROM DENSITY LOG [DEP ADJ TO GRRED]
DPOLSED .V/V   : DENSITY POROSITY HIGH RESOLUTION [M=2.71 F=1.0] FROM DENSITY LOG
DPOWS   .V/V   : DENSITY POROSITY [M=2.71 F=1.0] [2484 DPHILSED 9942 DPOLSED 15888 DPHILSED]
DRESWS  .OHMM  : DEEP RESISTIVITY [A2484 AT90ED 9948.5 IDPHED 15892 LLDED]
DRHED   .G/C3  : DENSITY CORRECTION
DRHOED  .G/C3  : DENSITY CORRECTION FROM DENSITY LOG [DEP ADJ TO GRRED]
DTCOED  .US/F  : DELTA TIME COMPRESSIONAL FROM SONIC LOG [DEP ADJ TO GRRED]
DTED    .US/F  : DELTA TIME FROM SONIC LOG
DTLED   .US/F  : DELTA TIME LONG SPACING FROM SONIC LOG
DTLFED  .US/F  : DELTA TIME LONG SPACING FAR DETECTOR FROM SONIC LOG
DTLNED  .US/F  : DELTA TIME LONG SPACING NEAR DETECTOR FROM SONIC LOG
DTSMED  .US/F  : DELTA TIME SHEAR WAVE FROM SONIC LOG [DEP ADJ TO GRRED]
DTSWS   .US/F  : DELTA TIME SHEAR [DTSMED]
DTWS    .US/F  : DELTA TIME [2484 DTLNED 10155.5 DTLFED 10297.5 DTLNED 10506.5 DTLFED 10628.5 DTLNED 10694 DTLFED 10859 DTLNED 11620 DTLFED 13285.5 DTLNED 14723 DTLFED 15057 DTLNED 15798 DTLFED 15889.5 DTED 15912.5 DTCOED]
GRRED   .GAPI  : GAMMA RAY FROM RESISTIVITY LOG
GRSED   .GAPI  : GAMMA RAY FROM SONIC LOG [DEP ADJ TO GRRED]
GRWS    .GAPI  : GAMMA RAY [2484 GRRED 9881.5 GRREDNRM 9946 GRRED 15728.5 GRSEDNRM 15878 CGRDED 16070 GRRED]
IDPHED  .OHMM  : INDUCTION DEEP PHASE RESISTIVITY
IMPHED  .OHMM  : INDUCTION MEDIUM PHASE RESISTIVITY
LLDED   .OHMM  : LATEROLOG DEEP RESISTIVITY
LLSED   .OHMM  : LATEROLOG SHALLOW RESISTIVITY
MRESWS  .OHMM  : MEDIUM RESISTIVITY [2484 AT30ED 9949.5 IMPHED]
NPHILSED.V/V   : NEUTRON POROSITY LIMESTONE FROM DENSITY LOG [DEP ADJ TO GRRED]
NPOWS   .V/V   : NEUTRON POROSITY LIMESTONE [2484 NPHILSED 15780.5 NPHILNRM 15883.5 NPHILSED]
PEFED   .B/E   : PHOTOELECTRIC FACTOR FROM DENSITY LOG
PEFLED  .B/E   : PHOTOELECTRIC FACTOR FROM DENSITY LOG
PEFWS   .B/E   : PHOTOELECTRIC FACTOR [2484 PEFED 9952.5 PEFLED]
RESED   .OHMM  : SYNTHETIC RESISTIVITY
SFLUED  .OHMM  : SPHERICALLY FOCUSED LOG RESISTIVITY
SPHILSED.V/V   : SONIC POROSITY FROM SONIC LOG [DEP ADJ TO GRRED]
SPOWS   .V/V   : SONIC POROSITY [CAL FR DTWS; M= 47.6, F=189]
SPRED   .MV    : SPONTANEOUS POTENTIAL FROM RESISTIVITY LOG [SHIFTS ARE REMOVED]
SPWS    .MV    : SPONTANEOUS POTENTIAL [BASELINE 0 MV] [SPRED]
SRESWS  .OHMM  : SHALLOW RESISTIVITY [2484 AT10ED 9945.5 SFLUED 15891.5 LLSED]
TENDED  .LBF   : TENSION FROM DENSITY LOG [DEP ADJ TO GRRED]
TENRED  .LBF   : TENSION FROM RESISTIVITY LOG
~Params ----------------------------------------------------
PD  .                     GL : PERMANENT DATUM
EPD .FT                  348 : ELEVATION PERMANENT DATUM
LMF .                     KB : LOG MEASURED FROM
DAPD.FT                   28 : FEET ABOVE PERMANENT DATUM
DMF .                     KB : DRILLING MEASURED FROM
EKB .FT                  376 : KELLY BUSHING
EDF .FT                  374 : DRILLING FLOOR
EGL .FT                  348 : GROUND LEVEL
DATE.               11/05/97 : RUN DATE
RUN .                      3 : RUN NUMBER
DD  .FT                18038 : DEPTH DRILLER
DL  .FT                18024 : DEPTH LOGGER
BLI .FT                 1800 : BOTTOM LOG INTERVAL
TLI .FT                15888 : TOP LOG INTERVAL
CS  .IN                7.625 : CASING SIZE
CBD .FT                15888 : CASING BOTTOM DRILLER
CBL .FT                15888 : CASING BOTTOM LOGGER
BS  .IN                    6 : BIT SIZE
BSD .FT                18038 : BIT SIZE AT DEPTH
DFT .                POLYMER : DRILLING FLUID TYPE
DFD .                   18.2 : DRILLING FLUID DENSITY
DFV .                     40 : DRILLING FLUID VISCOSITY
DFPH.                      9 : DRILLING FLUID PH
DFL .                    5.6 : DRILLING FLUID LOSS
MSS .       CIRCULATION TANK : MUD SAMPLE SOURCE
RMS .OHMM               1.14 : RESISTIVITY MUD SAMPLE
MST .DEGF                 90 : MUD SAMPLE TEMPERATURE
RMF .OHMM              0.969 : RESISTIVITY MUD FILTRATE SAMPLE
MFST.DEGF                 90 : MUD FILTRATE SAMPLE TEMPERATURE
RMC .OHMM              1.311 : RESISTIVITY MUD CAKE
MCST.DEGF                 90 : MUD CAKE SAMPLE TEMPERATURE
MFSS.             CALCULATED : MUD FILTRATE SAMPLE SOURCE
MCSS.             CALCULATED : MUD CAKE SAMPLE SOURCE
RMB .OHMM              0.278 : RESISTIVITY MUD AT BHT
TCS .HRS                2200 : TIME CIRCULATED STOPPED
TLAB.HRS                 445 : TIME LOGGER AT BOTTOM
LUN .                   8400 : LOGGING UNIT NUMBER
LUL .                   6450 : LOGGING UNIT LOCATION
ENGI.                SKRBICH : RECORDING ENGINEER
WITN.          BLANKE WEAVER : WITNESSED BY
CLNT.                A2DTECH : CLIENT CODE
ORIG.         1" 2" 5" PRINT : ORIGIN OF DATA
UWI .         42289312660000 : UNIQUE WELL ID
DICO. A2D Technologies, Inc. : DIGITIZING COMPANY
~Other -----------------------------------------------------
~ASCII -----------------------------------------------------
# ...
 4750.00000    1.20470    1.36870    1.48120    1.55200    1.62300    -999.25    -999.25   17.51550    -999.25  616.14290    5.26550    0.10730    2.25980    0.26330    -999.25    0.26330    1.62300    -999.25    0.10730    -999.25    -999.25    -999.25    -999.25    -999.25    -999.25    -999.25    -999.25   64.41550    -999.25   64.41550    -999.25    -999.25    -999.25    -999.25    1.48120    0.30370    0.30370    5.08180    -999.25    5.08180    5.08180    -999.25    -999.25    -999.25  -53.16580  -10.14670    1.20470    -999.25 2396.64480
 4800.00000    1.00040    1.06260    1.08930    1.13110    1.14420    -999.25    -999.25   15.06490    -999.25  873.97310    2.81490    0.00630    2.20610    0.29470    -999.25    0.29470    1.14420    -999.25    0.00630    -999.25    -999.25    -999.25    -999.25    -999.25    -999.25    -999.25    -999.25   55.41910    -999.25   55.41910    -999.25    -999.25    -999.25    -999.25    1.08930    0.28990    0.28990    4.79120    -999.25    4.79120    4.79120    -999.25    -999.25    -999.25  -49.00200   -5.98290    1.00040    -999.25 2345.74580
 4850.00000    1.96680    2.25240    2.42730    2.48960    2.59500    -999.25    -999.25   15.21980    -999.25  385.35640    2.96980    0.02970    2.50120    0.12210    -999.25    0.12210    2.59500    -999.25    0.02970    -999.25    -999.25    -999.25    -999.25    -999.25    -999.25    -999.25    -999.25   49.31000    -999.25   49.31000    -999.25    -999.25    -999.25    -999.25    2.42730    0.25100    0.25100    4.99030    -999.25    4.99030    4.99030    -999.25    -999.25    -999.25  -46.62360   -3.60450    1.96680    -999.25 2378.30370
 4900.00000    1.05400    1.26330    1.29480    1.33300    1.36400    -999.25    -999.25   18.22390    -999.25  733.13790    5.97390    0.02530    2.49130    0.12790    -999.25    0.12790    1.36400    -999.25    0.02530    -999.25    -999.25    -999.25    -999.25    -999.25    -999.25    -999.25    -999.25   60.38930    -999.25   60.38930    -999.25    -999.25    -999.25    -999.25    1.29480    0.28220    0.28220    4.08370    -999.25    4.08370    4.08370    -999.25    -999.25    -999.25  -54.41250  -11.33830    1.05400    -999.25 2413.94560
 4950.00000    1.60210    1.82350    2.07040    2.37510    2.85790    -999.25    -999.25   16.68370    -999.25  349.90730    4.43370    0.03470    2.51250    0.11550    -999.25    0.11550    2.85790    -999.25    0.03470    -999.25    -999.25    -999.25    -999.25    -999.25    -999.25    -999.25    -999.25   46.47880    -999.25   46.47880    -999.25    -999.25    -999.25    -999.25    2.07040    0.23020    0.23020    5.07500    -999.25    5.07500    5.07500    -999.25    -999.25    -999.25  -60.06950  -16.44450    1.60210    -999.25 2397.08790
 5000.00000    1.57570    1.82940    1.84210    1.95550    2.07780    -999.25    -999.25   14.26300    -999.25  481.27830    2.01300   -0.00400    -999.25    -999.25    -999.25    -999.25    2.07780    -999.25   -0.00400    -999.25    -999.25    -999.25    -999.25    -999.25    -999.25    -999.25    -999.25   48.04770    -999.25   48.04770    -999.25    -999.25    -999.25    -999.25    1.84210    0.34920    0.34920    9.61650    -999.25    9.61650    9.61650    -999.25    -999.25    -999.25  -61.65690  -17.48110    1.57570    -999.25 2372.96660
 5050.00000    3.89110    4.15530    4.29200    4.34620    4.43390    -999.25    -999.25   12.30380    -999.25  225.53510    0.05380    0.00610    2.51080    0.11650    -999.25    0.11650    4.43390    -999.25    0.00610    -999.25    -999.25    -999.25    -999.25    -999.25    -999.25    -999.25    -999.25   25.31160    -999.25   25.31160    -999.25    -999.25    -999.25    -999.25    4.29200    0.15660    0.15660    5.37060    -999.25    5.37060    5.37060    -999.25    -999.25    -999.25  -68.53850  -23.81190    3.89110    -999.25 2446.11130
 5100.00000    3.05980    3.11240    3.23280    3.28020    3.35010    -999.25    -999.25   12.36920    -999.25  298.49850    0.11920   -0.00980    2.52620    0.10750    -999.25    0.10750    3.35010    -999.25   -0.00980    -999.25    -999.25    -999.25    -999.25    -999.25    -999.25    -999.25    -999.25   31.87690    -999.25   31.87690    -999.25    -999.25    -999.25    -999.25    3.23280    0.16230    0.16230    5.06200    -999.25    5.06200    5.06200    -999.25    -999.25    -999.25  -69.14650  -23.86900    3.05980    -999.25 2452.24070
 5150.00000    2.40800    2.55860    2.76180    2.81950    2.94550    -999.25    -999.25   12.52310    -999.25  339.50090    0.27310    0.00470    2.49320    0.12680    -999.25    0.12680    2.94550    -999.25    0.00470    -999.25    -999.25    -999.25    -999.25    -999.25    -999.25    -999.25    -999.25   38.93860    -999.25   38.93860    -999.25    -999.25    -999.25    -999.25    2.76180    0.18770    0.18770    4.83230    -999.25    4.83230    4.83230    -999.25    -999.25    -999.25  -78.20260  -32.37430    2.40800    -999.25 2415.54880
 5200.00000    3.10310    3.18890    3.28160    3.42540    3.64840    -999.25    -999.25   12.36830    -999.25  274.09270    0.11830   -0.00150    2.52500    0.10820    -999.25    0.10820    3.64840    -999.25   -0.00150    -999.25    -999.25    -999.25    -999.25    -999.25    -999.25    -999.25    -999.25   35.50500    -999.25   35.50500    -999.25    -999.25    -999.25    -999.25    3.28160    0.13480    0.13480    5.32080    -999.25    5.32080    5.32080    -999.25    -999.25    -999.25  -72.14610  -25.76700    3.10310    -999.25 2424.32280
 5250.00000    2.77250    2.87900    2.97420    2.99830    3.03700    -999.25    -999.25   13.09560    -999.25  329.27230    0.84560    0.00330    2.53760    0.10080    -999.25    0.10080    3.03700    -999.25    0.00330    -999.25    -999.25    -999.25    -999.25    -999.25    -999.25    -999.25    -999.25   39.77840    -999.25   39.77840    -999.25    -999.25    -999.25    -999.25    2.97420    0.17410    0.17410    5.11100    -999.25    5.11100    5.11100    -999.25    -999.25    -999.25  -53.66700   -6.73710    2.77250    -999.25 2492.22140
 5300.00000    4.48530    4.25650    4.20320    4.09870    4.05180    -999.25    -999.25   12.43210    -999.25  246.80390    0.18210    0.00230    2.53100    0.10470    -999.25    0.10470    4.05180    -999.25    0.00230    -999.25    -999.25    -999.25    -999.25    -999.25    -999.25    -999.25    -999.25   19.25990    -999.25   19.25990    -999.25    -999.25    -999.25    -999.25    4.20320    0.14030    0.14030    5.47460    -999.25    5.47460    5.47460    -999.25    -999.25    -999.25  -69.14390  -21.66320    4.48530    -999.25 2479.20630
 5350.00000    1.53860    1.85480    2.19980    2.50760    2.77880    -999.25    -999.25   14.17740    -999.25  359.86760    1.92740    0.07110    2.37980    0.19310    -999.25    0.19310    2.77880    -999.25    0.07110    -999.25    -999.25    -999.25    -999.25    -999.25    -999.25    -999.25    -999.25   50.26770    -999.25   50.26770    -999.25    -999.25    -999.25    -999.25    2.19980    0.29130    0.29130    6.18590    -999.25    6.18590    6.18590    -999.25    -999.25    -999.25  -49.94390   -1.91240    1.53860    -999.25 2496.11960
 5400.00000    2.22380    2.15740    2.08510    2.11400    2.39400    -999.25    -999.25   14.25240    -999.25  417.71090    2.00240    0.05330    2.45850    0.14710    -999.25    0.14710    2.39400    -999.25    0.05330    -999.25    -999.25    -999.25    -999.25    -999.25    -999.25    -999.25    -999.25   57.72020    -999.25   57.72020    -999.25    -999.25    -999.25    -999.25    2.08510    0.21470    0.21470    3.92480    -999.25    3.92480    3.92480    -999.25    -999.25    -999.25  -55.97980   -7.39750    2.22380    -999.25 2482.27980
 5450.00000    0.72990    0.83460    0.91210    1.13350    1.17870    -999.25    -999.25   18.61450    -999.25  848.39230    6.36450    0.00650    -999.25    -999.25    -999.25    -999.25    1.17870    -999.25    0.00650    -999.25    -999.25    -999.25    -999.25    -999.25    -999.25    -999.25    -999.25   50.01600    -999.25   50.01600    -999.25    -999.25    -999.25    -999.25    0.91210    -999.25    -999.25    7.81670    -999.25    7.81670    7.81670    -999.25    -999.25    -999.25  -55.62130   -4.95790    0.72990    -999.25 2486.33420
