~Version ---------------------------------------------------
VERS. 2.0 : CWLS log ASCII Standard -VERSION 2.0
WRAP. YES : Multiple lines per depth step
~Well ------------------------------------------------------
STRT.FT                    1500.0 : START DEPTH
STOP.FT                    9700.0 : STOP DEPTH
STEP.FT                  50.00000 : STEP LENGTH
NULL.                     -999.25 : NULL VALUE
COMP.        MARATHON OIL COMPANY : COMPANY
WELL.                 NEWELL A #5 : WELL
FLD .                  BEAR GRASS : FIELD
LOC .                             : LOCATION
CNTY.                        LEON : COUNTY
STAT.                       TEXAS : STATE
CTRY.    UNITED STATES OF AMERICA : COUNTRY
SRVC. HALLIBURTON Sperry Drilling : SERVICE COMPANY
DATE.                 18-May-2000 : LOGDATE
API .              42289313250000 : API NUMBER
UWI .              42289313250000 : UNIQUE WELL ID
SLAT.WGS84          31.3623770117 : SURFACE LATITUDE
SLON.WGS84           -96.26513599 : SURFACE LONGITUDE
~Curve Information -----------------------------------------
DEPT    .FT    : DEPTH.FT
CALDED  .IN    : CALIPER FROM CNFD LOG
CALWS   .IN    : CALIPER [DCARLED+BIT SIZE]
CONDWS  .MMHO  : CONDUCTIVITY [1000/DRESWS]
DCALED  .IN    : DIFFERENTIAL CALIPER FROM HRIDN LOG
DCORED  .G/C3  : DENSITY CORRECTION FROM HRIDN LOG
DCORWS  .G/C3  : DENSITY CORRECTION [DCORED]
DENWS   .G/C3  : BULK DENSITY [M=2.71 F=1.0] [CALCULATED FROM DPOWS]
DFLED   .OHMM  : DIGITALLY FOCUSED LATEROLOG FROM HRIDN LOG
DPORLSED.V/V   : DENSITY POROSITY LIMESTONE FROM CNFD LOG
DPOWS   .V/V   : DENSITY POROSITY [M=2.71 F=1.0] [DPHILSED]
DRESWS  .OHMM  : DEEP RESISTIVITY [RILDED]
GRRED   .GAPI  : GAMMA RAY FROM IDN LOG
GRWS    .GAPI  : GAMMA RAY [GRRED]
MRESWS  .OHMM  : MEDIUM RESISTIVITY [RILMED]
NPORLSED.V/V   : NEUTRON POROSITY LIMESTONE FROM CNFD LOG
NPOWS   .V/V   : NEUTRON POROSITY LIMESTONE [NPHILSED]
RILDED  .OHMM  : INDUCTION DEEP RESISTIVITY FROM HRIDN LOG
RILMED  .OHMM  : INDUCTION MEDIUM RESISTIVITY FROM HRIDN LOG
SPRED   .MV    : SPONTANEOUS POTENTIAL FROM HRIDN LOG
SPWS    .MV    : SPONTANEOUS POTENTIAL [BASELINE 0 MV] [SPRED]
SRESWS  .OHMM  : SHALLOW RESISTIVITY [DFLED]
TENDED  .LBF   : TENSION FROM CNFD LOG
TENRED  .LBF   : TENSION FROM HRIDN LOG
~Params ----------------------------------------------------
PD  .                     GL : PERMANENT DATUM
EPD .FT                  501 : ELEVATION PERMANENT DATUM
LMF .                     KB : LOG MEASURED FROM
DAPD.FT                   12 : FEET ABOVE PERMANENT DATUM
DMF .                     KB : DRILLING MEASURED FROM
EKB .FT                  513 : KELLY BUSHING
EDF .FT                  512 : DRILLING FLOOR
EGL .FT                  501 : GROUND LEVEL
DATE.               05/18/00 : RUN DATE
RUN .                      1 : RUN NUMBER
DD  .FT                 9700 : DEPTH DRILLER
DL  .FT                 9688 : DEPTH LOGGER
BLI .FT                 9676 : BOTTOM LOG INTERVAL
TLI .FT                 1523 : TOP LOG INTERVAL
CS  .IN                9.625 : CASING SIZE
CBD .FT                 1530 : CASING BOTTOM DRILLER
CBL .FT                 1523 : CASING BOTTOM LOGGER
BS  .IN                7.875 : BIT SIZE
BSD .FT                 9700 : BIT SIZE AT DEPTH
DFT .         WATERBASED MUD : DRILLING FLUID TYPE
DFD .                    9.8 : DRILLING FLUID DENSITY
DFV .                     52 : DRILLING FLUID VISCOSITY
DFPH.                     10 : DRILLING FLUID PH
DFL .                    9.6 : DRILLING FLUID LOSS
MSS .               MUD TANK : MUD SAMPLE SOURCE
RMS .OHMM                1.9 : RESISTIVITY MUD SAMPLE
MST .DEGF                 84 : MUD SAMPLE TEMPERATURE
RMF .OHMM               1.56 : RESISTIVITY MUD FILTRATE SAMPLE
MFST.DEGF                 82 : MUD FILTRATE SAMPLE TEMPERATURE
RMC .OHMM               2.35 : RESISTIVITY MUD CAKE
MCST.DEGF                 82 : MUD CAKE SAMPLE TEMPERATURE
MFSS.                   MEAS : MUD FILTRATE SAMPLE SOURCE
MCSS.                   MEAS : MUD CAKE SAMPLE SOURCE
RMB .OHMM              0.738 : RESISTIVITY MUD AT BHT
TCS .HRS                1830 : TIME CIRCULATED STOPPED
TLAB.HRS                 200 : TIME LOGGER AT BOTTOM
LUN .                  52552 : LOGGING UNIT NUMBER
LUL .                KILGORE : LOGGING UNIT LOCATION
ENGI.                 GLEITZ : RECORDING ENGINEER
WITN.       EWBANK GALLAGHER : WITNESSED BY
CLNT.                A2DTECH : CLIENT CODE
ORIG.         1" 2" 5" PRINT : ORIGIN OF DATA
UWI .         42289313250000 : UNIQUE WELL ID
DICO. A2D Technologies, Inc. : DIGITIZING COMPANY
~Other -----------------------------------------------------
1. ALL CURVES APPEAR ON DEPTH. MATRIX LIMESTONE M=2.71 F=1
~ASCII -----------------------------------------------------
# ...
 4600.00000    -999.25    -999.25  396.99870    -999.25    -999.25    -999.25    -999.25    2.21180    -999.25    -999.25    2.51890   44.47880   44.47880    2.71810    -999.25    -999.25    2.51890    2.71810  -38.57300   -7.74030    2.21180    -999.25 2771.69040
 4650.00000    -999.25    -999.25  646.32890    -999.25    -999.25    -999.25    -999.25    2.57130    -999.25    -999.25    1.54720   70.18260   70.18260    1.89580    -999.25    -999.25    1.54720    1.89580  -32.34810   -1.67050    2.57130    -999.25 2727.93140
 4700.00000    -999.25    -999.25  291.76640    -999.25    -999.25    -999.25    -999.25    3.92130    -999.25    -999.25    3.42740   37.68910   37.68910    3.56460    -999.25    -999.25    3.42740    3.56460  -36.27490   -5.75230    3.92130    -999.25 2788.47140
 4750.00000    -999.25    -999.25  479.73140    -999.25    -999.25    -999.25    -999.25    2.11790    -999.25    -999.25    2.08450   86.47980   86.47980    2.16680    -999.25    -999.25    2.08450    2.16680  -32.73670   -2.36910    2.11790    -999.25 2788.64580
 4800.00000    -999.25    -999.25  290.09050    -999.25    -999.25    -999.25    -999.25    6.06510    -999.25    -999.25    3.44720   45.47230   45.47230    3.58410    -999.25    -999.25    3.44720    3.58410  -51.44790  -21.23540    6.06510    -999.25 2808.98270
 4850.00000    -999.25    -999.25  289.85510    -999.25    -999.25    -999.25    -999.25    4.51320    -999.25    -999.25    3.45000   26.75370   26.75370    3.58780    -999.25    -999.25    3.45000    3.58780  -55.90120  -25.84370    4.51320    -999.25 2843.71610
 4900.00000    -999.25    -999.25 1134.17260    -999.25    -999.25    -999.25    -999.25    1.19490    -999.25    -999.25    0.88170   92.00260   92.00260    0.91620    -999.25    -999.25    0.88170    0.91620  -31.64580   -1.74330    1.19490    -999.25 2856.70970
 4950.00000    -999.25    -999.25  453.57650    -999.25    -999.25    -999.25    -999.25    2.44130    -999.25    -999.25    2.20470   94.47810   94.47810    2.30740    -999.25    -999.25    2.20470    2.30740  -40.39660  -11.53570    2.44130    -999.25 2868.38960
 5000.00000    -999.25    -999.25  571.13480    -999.25    -999.25    -999.25    -999.25    1.96400    -999.25    -999.25    1.75090   96.18440   96.18440    1.81870    -999.25    -999.25    1.75090    1.81870  -37.52510   -9.71470    1.96400    -999.25 2875.43630
 5050.00000    -999.25    -999.25  811.55660    -999.25    -999.25    -999.25    -999.25    1.55070    -999.25    -999.25    1.23220   91.20730   91.20730    1.28280    -999.25    -999.25    1.23220    1.28280  -29.89870   -3.13890    1.55070    -999.25 2979.61770
 5100.00000    -999.25    -999.25  802.18190    -999.25    -999.25    -999.25    -999.25    1.49760    -999.25    -999.25    1.24660   93.71880   93.71880    1.30370    -999.25    -999.25    1.24660    1.30370  -28.70190   -2.69410    1.49760    -999.25 2882.28120
 5150.00000    -999.25    -999.25  763.88360    -999.25    -999.25    -999.25    -999.25    1.65810    -999.25    -999.25    1.30910  111.24120  111.24120    1.36290    -999.25    -999.25    1.30910    1.36290  -30.85790   -3.91110    1.65810    -999.25 2962.05050
 5200.00000    -999.25    -999.25  680.59620    -999.25    -999.25    -999.25    -999.25    1.88800    -999.25    -999.25    1.46930  118.41740  118.41740    1.54720    -999.25    -999.25    1.46930    1.54720  -31.09380   -3.20800    1.88800    -999.25 2985.22880
 5250.00000    -999.25    -999.25  408.38000    -999.25    -999.25    -999.25    -999.25    3.49240    -999.25    -999.25    2.44870  104.87980  104.87980    2.54360    -999.25    -999.25    2.44870    2.54360  -29.99860   -1.17380    3.49240    -999.25 3019.71920
 5300.00000    -999.25    -999.25  338.39800    -999.25    -999.25    -999.25    -999.25    4.93310    -999.25    -999.25    2.95510  110.61890  110.61890    3.06940    -999.25    -999.25    2.95510    3.06940  -30.98000   -1.21620    4.93310    -999.25 2974.33500
 5350.00000    -999.25    -999.25  321.45040    -999.25    -999.25    -999.25    -999.25    5.42230    -999.25    -999.25    3.11090   83.09930   83.09930    3.82780    -999.25    -999.25    3.11090    3.82780  -39.25280   -8.55000    5.42230    -999.25 3005.20170
 5400.00000    -999.25    -999.25  507.64000    -999.25    -999.25    -999.25    -999.25    2.20360    -999.25    -999.25    1.96990   96.30860   96.30860    2.04620    -999.25    -999.25    1.96990    2.04620  -34.49420   -2.85240    2.20360    -999.25 3009.71170
 5450.00000    -999.25    -999.25  541.59450    -999.25    -999.25    -999.25    -999.25    1.57110    -999.25    -999.25    1.84640   83.32550   83.32550    1.94060    -999.25    -999.25    1.84640    1.94060  -36.64610   -4.06530    1.57110    -999.25 3031.31790
 5500.00000    -999.25    -999.25  680.36470    -999.25    -999.25    -999.25    -999.25    1.75790    -999.25    -999.25    1.46980   66.46580   66.46580    1.52830    -999.25    -999.25    1.46980    1.52830  -37.36720   -3.84740    1.75790    -999.25 3066.11130
 5550.00000    -999.25    -999.25  542.06420    -999.25    -999.25    -999.25    -999.25    2.60650    -999.25    -999.25    1.84480   72.62200   72.62200    1.92710    -999.25    -999.25    1.84480    1.92710  -36.48850   -2.02970    2.60650    -999.25 3059.54980
 5600.00000    -999.25    -999.25  976.84870    -999.25    -999.25    -999.25    -999.25    1.46200    -999.25    -999.25    1.02370   80.67430   80.67430    1.06330    -999.25    -999.25    1.02370    1.06330  -37.63970   -2.24190    1.46200    -999.25 3085.72660
 5650.00000    -999.25    -999.25  513.82180    -999.25    -999.25    -999.25    -999.25    2.60370    -999.25    -999.25    1.94620   79.39810   79.39810    2.03270    -999.25    -999.25    1.94620    2.03270  -39.66400   -3.32720    2.60370    -999.25 3043.95020
 5700.00000    -999.25    -999.25  112.82350    -999.25    -999.25    -999.25    -999.25   14.27790    -999.25    -999.25    8.86340   25.56860   25.56860    9.20890    -999.25    -999.25    8.86340    9.20890  -46.40780   -9.13190   14.27790    -999.25 3072.05760
 5750.00000    -999.25    -999.25  186.37240    -999.25    -999.25    -999.25    -999.25    6.23270    -999.25    -999.25    5.36560   37.20770   37.20770    5.57320    -999.25    -999.25    5.36560    5.57320  -42.49940   -4.28450    6.23270    -999.25 3130.87820
 5800.00000    -999.25    -999.25  254.69270    -999.25    -999.25    -999.25    -999.25    4.55800    -999.25    -999.25    3.92630   54.77960   54.77960    4.05150    -999.25    -999.25    3.92630    4.05150  -41.12840   -1.97450    4.55800    -999.25 3184.36790
 5850.00000    -999.25    -999.25   72.99160    -999.25    -999.25    -999.25    -999.25   16.61210    -999.25    -999.25   13.70020   21.09740   21.09740   14.99220    -999.25    -999.25   13.70020   14.99220  -47.89910   -8.73570   16.61210    -999.25 3170.53050
 5900.00000    -999.25    -999.25   64.56240    -999.25    -999.25    -999.25    -999.25   22.74430    -999.25    -999.25   15.48890   18.93760   18.93760   16.43910    -999.25    -999.25   15.48890   16.43910  -66.10740  -27.12480   22.74430    -999.25 3182.55880
 5950.00000    -999.25    -999.25   85.19340    -999.25    -999.25    -999.25    -999.25   11.96770    -999.25    -999.25   11.73800   18.79980   18.79980   12.22200    -999.25    -999.25   11.73800   12.22200  -58.55910  -19.75730   11.96770    -999.25 3221.10250
 6000.00000    -999.25    -999.25  119.06750    -999.25    -999.25    -999.25    -999.25   10.13020    -999.25    -999.25    8.39860   21.97140   21.97140    8.93100    -999.25    -999.25    8.39860    8.93100  -49.04560  -10.42460   10.13020    -999.25 3225.63260
 6050.00000    -999.25    -999.25   68.29620    -999.25    -999.25    -999.25    -999.25   20.54870    -999.25    -999.25   14.64210   17.80890   17.80890   16.86360    -999.25    -999.25   14.64210   16.86360  -47.81970   -9.37950   20.54870    -999.25 3233.50780
 6100.00000    -999.25    -999.25   57.11610    -999.25    -999.25    -999.25    -999.25   24.89030    -999.25    -999.25   17.50820   19.33810   19.33810   21.49380    -999.25    -999.25   17.50820   21.49380  -51.66460  -13.40530   24.89030    -999.25 3267.63230
