~Version ---------------------------------------------------
VERS. 2.0 : CWLS log ASCII Standard -VERSION 2.0
WRAP. YES : Multiple lines per depth step
~Well ------------------------------------------------------
STRT.FT                   3900.0 : START DEPTH
STOP.FT                   8000.0 : STOP DEPTH
STEP.FT                 50.00000 : STEP LENGTH
NULL.                    -999.25 : NULL VALUE
COMP. CHAMPLIN PETROLEUM COMPANY : COMPANY
WELL.             C. D. HENRY #1 : WELL
FLD .                   GIDDINGS : FIELD
LOC .                            : LOCATION
CNTY.                   BURLESON : COUNTY
STAT.                      TEXAS : STATE
CTRY.   UNITED STATES OF AMERICA : COUNTRY
SRVC.               Schlumberger : SERVICE COMPANY
DATE.                23-Jun-1980 : LOGDATE
API .             42051307640000 : API NUMBER
UWI .             42051307640000 : UNIQUE WELL ID
SLAT.WGS84         30.4843160848 : SURFACE LATITUDE
SLON.WGS84         -96.682642194 : SURFACE LONGITUDE
~Curve Information -----------------------------------------
DEPT    .FT    : DEPTH FEET
CALDED  .IN    : CALIPER FROM CNFD LOG [ADJ. TO SFLUED]
CALWS   .IN    : CALIPER [CALDED]
CONDWS  .MMHO  : CONDUCTIVITY [1000/DRESWS]
DCORWS  .G/C3  : DENSITY CORRECTION [DRHOED]
DENWS   .G/C3  : FORMATION BULK DENSITY [RHOBED]
DPHILSED.V/V   : DENSITY POROSITY LIMESTONE [M=2.71, F=1.0] FROM CNFD LOG [ADJ. TO SFLUED]
DPHISSED.V/V   : DENSITY POROSITY SANDSTONE [M=2.65, F=1.0] FROM CNFD LOG [ADJ. TO SFLUED]
DPOWS   .V/V   : DENSITY POROSITY LIMESTONE [DPHISSED CONVERTED TO LIMESTONE (M=2.71, F=1.0),SPL. TO DPHILSED @ 6000']
DRESWS  .OHMM  : DEEP RESISTIVITY [ILDED]
DRHOED  .G/C3  : BULK DENSITY CORRECTION FROM CNFD LOG [ADJ. TO SFLUED]
DTED    .US/F  : DELTA-T (INTERVAL TRANSIT TIME) FROM DIL-SFL-SONIC LOG
DTWS    .US/F  : COMPRESSIONAL SONIC [DTED]
GRDED   .GAPI  : GAMMA RAY FROM CNFD LOG [ADJ. TO SFLUED]
GRRED   .GAPI  : GAMMA RAY FROM DIL-SFL-SONIC LOG
GRWS    .GAPI  : GAMMA RAY [GRDED]
ILDED   .OHMM  : DEEP INDUCTION RESISTIVITY FROM DIL-SFL-SONIC LOG
ILMED   .OHMM  : MEDIUM INDUCTION RESISTIVITY FROM DIL-SFL-SONIC LOG
MRESWS  .OHMM  : MEDIUM RESISTIVITY [ILMED]
NPHILSED.V/V   : NEUTRON POROSITY LIMESTONE FROM CNFD LOG [ADJ. TO SFLUED]
NPHISSED.V/V   : NEUTRON POROSITY SANDSTONE FROM CNFD LOG [ADJ. TO SFLUED]
NPOWS   .V/V   : NEUTRON POROSITY LIMESTONE [NPHISSED MATRIX CONVERTED TO LIMESTONE, SPL. TO NPHILSED @ 6000']
RHOBED  .G/C3  : BULK DENSITY FROM CNFD LOG [ADJ. TO SFLUED]
SFLUED  .OHMM  : SHALLOW FOCUSED RESISTIVITY (UNAVERAGED) FROM DIL-SFL-SONIC LOG
SPHILSED.V/V   : SONIC POROSITY LIMESTONE [DTM=56.0,DTF=189.0] FROM SONIC LOG [ADJ. TO SFLUED]
SPHISSED.V/V   : SONIC POROSITY SANDSTONE [DTM=56.0,DTF=189.0] FROM SONIC LOG [ADJ. TO SFLUED]
SPOWS   .V/V   : SONIC POROSITY [SPHISSED SPL. TO SPHILSED @ 6000']
SPRED   .MV    : SPONTANEOUS POTENTIAL FROM DIL-SFL-SONIC LOG
SPWS    .MV    : SPONTANEOUS POTENTIAL [BASELINE 0 MV, SPRED]
SRESWS  .OHMM  : SHALLOW RESISTIVITY [SFLUED]
~Params ----------------------------------------------------
PD  .                     GL : PERMANENT DATUM
EPD .FT                  335 : ELEVATION PERMANENT DATUM
LMF .                     KB : LOG MEASURED FROM
DAPD.FT                   19 : FEET ABOVE PERMANENT DATUM
DMF .                     KB : DRILLING MEASURED FROM
EKB .FT                  354 : KELLY BUSHING
EDF .FT                  353 : DRILLING FLOOR
EGL .FT                  335 : GROUND LEVEL
DATE.               06/23/80 : RUN DATE
RUN .                      1 : RUN NUMBER
DD  .FT                 8040 : DEPTH DRILLER
DL  .FT                 8024 : DEPTH LOGGER
BLI .FT                 8018 : BOTTOM LOG INTERVAL
TLI .FT                 3907 : TOP LOG INTERVAL
CS  .IN                9.625 : CASING SIZE
CBD .FT                 3864 : CASING BOTTOM DRILLER
CBL .FT                 3907 : CASING BOTTOM LOGGER
BS  .IN                 8.75 : BIT SIZE
BSD .FT                 8040 : BIT SIZE AT DEPTH
DFT .       CAC 12 INHIBITED : DRILLING FLUID TYPE
DFD .                    9.8 : DRILLING FLUID DENSITY
DFV .                     42 : DRILLING FLUID VISCOSITY
DFPH.                      9 : DRILLING FLUID PH
DFL .                    8.9 : DRILLING FLUID LOSS
MSS .                   TANK : MUD SAMPLE SOURCE
RMS .OHMM               0.72 : RESISTIVITY MUD SAMPLE
MST .DEGF                 97 : MUD SAMPLE TEMPERATURE
RMF .OHMM               0.54 : RESISTIVITY MUD FILTRATE SAMPLE
MFST.DEGF                 97 : MUD FILTRATE SAMPLE TEMPERATURE
RMC .OHMM               1.08 : RESISTIVITY MUD CAKE
MCST.DEGF                 97 : MUD CAKE SAMPLE TEMPERATURE
MFSS.                      M : MUD FILTRATE SAMPLE SOURCE
MCSS.                      C : MUD CAKE SAMPLE SOURCE
RMB .OHMM               0.35 : RESISTIVITY MUD AT BHT
TCS .HRS                2230 : TIME CIRCULATED STOPPED
TLAB.HRS                 200 : TIME LOGGER AT BOTTOM
LUN .                   8101 : LOGGING UNIT NUMBER
LUL .                BRENHAM : LOGGING UNIT LOCATION
ENGI.        GILLILAND WYATT : RECORDING ENGINEER
WITN.                CAMERON : WITNESSED BY
CLNT.                A2DTECH : CLIENT CODE
ORIG.          1" 2.5" PRINT : ORIGIN OF DATA
UWI .         42051307640000 : UNIQUE WELL ID
DICO. A2D Technologies, Inc. : DIGITIZING COMPANY
~Other -----------------------------------------------------
GAMMA RAY DIED COMING UPHOLE COULDN'T REACH DRILLERS TD.
~ASCII -----------------------------------------------------
# ...
 6400.00000    9.14990    9.14990  244.48080    0.02410    2.57130    0.07900    -999.25    0.07900    4.09030    0.02410   69.04650   69.04650   44.89410   52.60950   44.89410    4.09030    3.92290    3.92290    0.09580    -999.25    0.09580    2.57130    5.11970    0.11420    -999.25    0.11420   -7.51200   -6.45500    5.11970
 6450.00000    9.15690    9.15690  201.39770    0.03260    2.59170    0.06560    -999.25    0.06560    4.96530    0.03260   71.21300   71.21300   45.56880    2.50420   45.56880    4.96530    4.42290    4.42290    0.09560    -999.25    0.09560    2.59170    5.59850    0.11700    -999.25    0.11700   -7.31030   -6.32840    5.59850
 6500.00000    9.45160    9.45160  490.55680    0.02860    2.56920    0.07950    -999.25    0.07950    2.03850    0.02860   84.03400   84.03400  104.14150    2.93020  104.14150    2.03850    2.14120    2.14120    0.17220    -999.25    0.17220    2.56920    2.90540    0.20750    -999.25    0.20750   -5.80480   -4.89800    2.90540
 6550.00000    9.63530    9.63530  505.61230    0.09530    2.55790    0.08740    -999.25    0.08740    1.97780    0.09530   86.60340   86.60340  107.45180   38.47830  107.45180    1.97780    1.88480    1.88480    0.18370    -999.25    0.18370    2.55790    2.47990    0.23180    -999.25    0.23180   -6.64770   -5.81600    2.47990
 6600.00000    9.45170    9.45170  418.67280    0.04090    2.53950    0.09650    -999.25    0.09650    2.38850    0.04090   83.26140   83.26140   89.62060   33.70570   89.62060    2.38850    2.29830    2.29830    0.17900    -999.25    0.17900    2.53950    2.82210    0.21050    -999.25    0.21050   -7.00650   -6.24990    2.82210
 6650.00000    9.76430    9.76430  474.31580    0.08840    2.54540    0.09620    -999.25    0.09620    2.10830    0.08840   87.75140   87.75140  105.68180  115.41700  105.68180    2.10830    2.01460    2.01460    0.19790    -999.25    0.19790    2.54540    2.60290    0.24030    -999.25    0.24030   -6.32140   -5.63990    2.60290
 6700.00000    9.91920    9.91920  523.58760    0.21770    2.58780    0.06680    -999.25    0.06680    1.90990    0.21770   92.85860   92.85860  105.77980  138.04870  105.77980    1.90990    1.98790    1.98790    0.18110    -999.25    0.18110    2.58780    2.12840    0.28370    -999.25    0.28370   -5.78160   -5.17520    2.12840
 6750.00000   10.18280   10.18280  577.50060    0.16760    2.55120    0.09030    -999.25    0.09030    1.73160    0.16760   91.78970   91.78970  102.48930  133.82590  102.48930    1.73160    1.84370    1.84370    0.23110    -999.25    0.23110    2.55120    2.00860    0.27260    -999.25    0.27260   -5.79060   -5.25930    2.00860
 6800.00000   11.28380   11.28380  684.13490    0.19910    2.52580    0.10470    -999.25    0.10470    1.46170    0.19910   96.95520   96.95520  114.94970  127.31330  114.94970    1.46170    1.57540    1.57540    0.24650    -999.25    0.24650    2.52580    1.68550    0.30950    -999.25    0.30950   -5.01360   -4.55730    1.68550
 6850.00000   10.87150   10.87150  553.46470    0.18320    2.56290    0.08430    -999.25    0.08430    1.80680    0.18320   92.40180   92.40180  102.59100  124.35950  102.59100    1.80680    1.89030    1.89030    0.22270    -999.25    0.22270    2.56290    2.25950    0.27360    -999.25    0.27360   -5.46680   -5.08560    2.25950
 6900.00000   11.49270   11.49270  644.03940    0.16130    2.56100    0.08600    -999.25    0.08600    1.55270    0.16130   93.47780   93.47780  105.15370  124.11120  105.15370    1.55270    1.64090    1.64090    0.25170    -999.25    0.25170    2.56100    1.99380    0.28660    -999.25    0.28660   -4.38730   -4.08120    1.99380
 6950.00000   10.92670   10.92670  573.88810    0.19550    2.52820    0.10270    -999.25    0.10270    1.74250    0.19550   92.25030   92.25030  106.20000  127.04610  106.20000    1.74250    1.80680    1.80680    0.24470    -999.25    0.24470    2.52820    2.18110    0.27620    -999.25    0.27620   -4.57460   -4.34360    2.18110
 7000.00000   10.36900   10.36900  547.19560    0.21960    2.55640    0.08540    -999.25    0.08540    1.82750    0.21960   90.85720   90.85720  103.45070  129.54310  103.45070    1.82750    2.03450    2.03450    0.25850    -999.25    0.25850    2.55640    2.34560    0.26570    -999.25    0.26570   -3.46530   -3.30940    2.34560
 7050.00000   11.47640   11.47640  574.18470    0.16750    2.57500    0.07740    -999.25    0.07740    1.74160    0.16750   92.91420   92.91420   99.96890  116.29580   99.96890    1.74160    1.79360    1.79360    0.26040    -999.25    0.26040    2.57500    2.18990    0.27910    -999.25    0.27910   -3.15630   -3.07550    2.18990
 7100.00000   11.52730   11.52730  591.92610    0.17380    2.58160    0.07160    -999.25    0.07160    1.68940    0.17380   93.40410   93.40410  103.71590  131.40820  103.71590    1.68940    1.77380    1.77380    0.25080    -999.25    0.25080    2.58160    2.15660    0.28450    -999.25    0.28450   -3.63760   -3.63190    2.15660
 7150.00000   11.05350   11.05350  537.14350    0.12740    2.55830    0.08300    -999.25    0.08300    1.86170    0.12740   91.78810   91.78810  109.59090  136.49250  109.59090    1.86170    1.95020    1.95020    0.23580    -999.25    0.23580    2.55830    2.37160    0.27150    -999.25    0.27150   -2.28150   -2.35090    2.37160
 7200.00000   12.63270   12.63270  627.54940    0.11700    2.55370    0.08890    -999.25    0.08890    1.59350    0.11700   93.87100   93.87100   99.74630  130.93950   99.74630    1.59350    1.64090    1.64090    0.26310    -999.25    0.26310    2.55370    2.03180    0.28910    -999.25    0.28910   -2.86790   -2.87390    2.03180
 7250.00000   10.93280   10.93280  588.82410    0.15510    2.58310    0.07130    -999.25    0.07130    1.69830    0.15510   91.91840   91.91840  110.05480  127.38390  110.05480    1.69830    1.75990    1.75990    0.22830    -999.25    0.22830    2.58310    2.21180    0.27420    -999.25    0.27420   -2.13020   -1.89650    2.21180
 7300.00000    9.80140    9.80140  155.61300    0.03590    2.63540    0.04100    -999.25    0.04100    6.42620    0.03590   65.00740   65.00740   40.57370   88.51850   40.57370    6.42620    4.82110    4.82110    0.06250    -999.25    0.06250    2.63540    7.15260    0.07500    -999.25    0.07500   -5.72760   -5.25430    7.15260
 7350.00000    9.97270    9.97270  191.29970    0.02370    2.60690    0.05690    -999.25    0.05690    5.22740    0.02370   67.84530   67.84530   42.97390   79.79860   42.97390    5.22740    4.18520    4.18520    0.06960    -999.25    0.06960    2.60690    6.37370    0.08980    -999.25    0.08980   -6.10070   -5.38770    6.37370
 7400.00000    9.73380    9.73380  162.25070    0.03530    2.61590    0.04880    -999.25    0.04880    6.16330    0.03530   65.34840   65.34840   51.43660   96.99100   51.43660    6.16330    5.06960    5.06960    0.05800    -999.25    0.05800    2.61590   10.54510    0.06460    -999.25    0.06460   -6.46530   -5.51260   10.54510
 7450.00000    9.60670    9.60670  109.81290    0.03260    2.61800    0.05510    -999.25    0.05510    9.10640    0.03260   65.82210   65.82210   54.37540  102.30930   54.37540    9.10640    5.45070    5.45070    0.04620    -999.25    0.04620    2.61800    9.77110    0.07490    -999.25    0.07490   -7.82660   -6.63420    9.77110
 7500.00000    9.59290    9.59290  130.00520    0.04390    2.59980    0.06200    -999.25    0.06200    7.69200    0.04390   65.70170   65.70170   65.04390   91.42160   65.04390    7.69200    6.28870    6.28870    0.08030    -999.25    0.08030    2.59980    8.49070    0.07830    -999.25    0.07830  -16.31240  -14.88030    8.49070
 7550.00000    9.35960    9.35960   51.62360    0.04780    2.58590    0.07290    -999.25    0.07290   19.37100    0.04780   63.77270   63.77270   33.66190   83.65800   33.66190   19.37100   10.10090   10.10090    0.06140    -999.25    0.06140    2.58590   32.60410    0.05760    -999.25    0.05760  -20.09020  -18.41840   32.60410
 7600.00000    9.15980    9.15980   50.69270    0.04610    2.57130    0.07830    -999.25    0.07830   19.72670    0.04610   63.98260   63.98260   31.19500   79.74240   31.19500   19.72670    9.57080    9.57080    0.07480    -999.25    0.07480    2.57130   22.33790    0.06440    -999.25    0.06440  -15.68470  -13.77320   22.33790
