~Version ---------------------------------------------------
VERS. 2.0 : CWLS log ASCII Standard -VERSION 2.0
WRAP.  NO : ONE LINE PER DEPTH STEP
~Well ------------------------------------------------------
STRT.F                    2000.0 : START DEPTH
STOP.F                   13500.0 : STOP DEPTH
STEP.F                  50.00000 : STEP LENGTH
NULL.                    -999.25 : NULL VALUE
COMP. CHAMPLIN PETROLEUM COMPANY : COMPANY
WELL.            J. M. EDWARD #1 : WELL
FLD .      EAST EDGE AREA BRAZOS : FIELD
LOC .                            : LOCATION
CNTY.                     BRAZOS : COUNTY
STAT.                      TEXAS : STATE
CTRY.   UNITED STATES OF AMERICA : COUNTRY
SRVC.              Dresser Atlas : SERVICE COMPANY
DATE.                20-Dec-1978 : LOGDATE
API .             42041304220000 : API NUMBER
UWI .             42041304220000 : UNIQUE WELL ID
SLAT.WGS84         30.9316789084 : SURFACE LATITUDE
SLON.WGS84        -96.2220478989 : SURFACE LONGITUDE
~Curve Information -----------------------------------------
DEPT.F                 : 
SP  .MV   07 010 01 00 : SPONTANEOUS POTENTIAL FROM DUAL INDUCTION LOG
ILM .OHMM 07 120 44 00 : INDUCTION LOG, MEDIUM (5FF40) FROM DUAL INDUCTION LOG
ILD .OHMM 07 120 46 00 : DEEP (6FF40) FROM DUAL INDUCTION LOG
SFL .OHMM 07 220 01 00 : SPHERICALLY FOCUSED RESISTIVITY FROM DUAL INDUCTION LOG
CALD.IN   42 280 60 00 : CALIPER
GRD .GAPI 45 310 01 00 : GAMMA RAY
NPHI.DEC  42 890 01 00 : NEUTRON POROSITY LIME
DPHI.DEC  45 890 10 00 : DENSITY POROSITY LIME
DT  .US/F 60 520 24 00 : SPECIFIC ACOUSTIC TIME
~Params ----------------------------------------------------
EKB .F                           277.0 : KELLY BUSHING
EGL .F                             261 : ELEVATION GROUND LEVEL
EDF .F                             276 : ELEVATION DERRICK FLOOR
EPD .F                             261 : ELEVATION PERMANENT DATUM
TD  .F                         12090.0 : TOTAL DEPTH
DATE.                      29-NOV-1978 : DATE LOGGED
CLNT.                          A2DTECH : CLIENT CODE
PD  .                               GL : PERMANENT DATUM
LMF .                               KB : LOG MEASURED FROM
DMF .                               KB : DRILLING MEASURED FROM
DAPD.F                              15 : FEET ABOVE PERMANENT DATUM
DD  .F                           12078 : DEPTH DRILLER
DL  .F                           12090 : DEPTH LOGGER
BLI .F                           12089 : BOTTOM LOG INTERVAL
TLI .F                            2018 : TOP LOG INTERVAL
CS1 .IN                          10.75 : CASING SIZE
CBD1.                   10.75" @ 2000' : CASING DRILLER 1
CBL1.F                            2018 : CASING LOGGER 1
BS1 .IN                          9.875 : BIT SIZE
BSD1.F                           12078 : DEPTH DRILLED WITH BIT1
DFT .                            LIGNO : TYPE FLUID IN HOLE
DFD .                              9.3 : DENSITY
DFV .                               40 : VISCOSITY
DFPH.                               10 : PH
DFL .                              6.4 : FLUID LOSS
MSS .                         FLOWLINE : SOURCE OF SAMPLE
RMS .OHMM                         1.38 : RM
RMF .OHMM                         1.03 : RMF
RMC .OHMM                         1.72 : RMC
MFSS.                             CALC : SOURCE RMF.
MCSS.                             CALC : SOURCE RMC.
RMB .OHMM                         0.42 : RM. AT BHT
BHT .F                             209 : BHT.
TCS .HRS                             4 : TIME CIRC. STOPPED
LUN .                             6082 : LOGGING UNIT NUMBER
LUL .                             PEAR : LOGGING UNIT LOCATION
ENGI.                  FISHER/JOHNSTON : RECORDED BY
WITN. REVE/PRITCHARD/STILLWELL/FARNHAM : WITNESSED BY
ORIG.                         5" PRINT : ORIGIN OF DATA
UWI .                   42041304220000 : UNIQUE WELL ID
DICO.           A2D TECHNOLOGIES, INC. : DIGITIZING COMPANY
~Other -----------------------------------------------------
# THIS JOB HAS CURVE NPHI LIMESTONE AND DPHI LIMESTONE.
~ASCII -----------------------------------------------------
# ...
 5650.00000  -47.81500    1.52900    1.49400    1.99700   12.86270   73.14890    0.36190    0.28110  106.35760
 5700.00000  -47.66800    1.72000    1.61300    2.13700   14.98460   70.14020    0.30030    0.22640  101.19270
 5750.00000  -47.39500    2.02100    1.88600    2.31100   14.21450   72.68590    0.28360    0.20610   97.90930
 5800.00000  -46.55600    1.78200    1.52600    2.54100   13.55060   76.15670    0.33240    0.24610   95.29420
 5850.00000  -46.78300    1.66200    1.59000    2.13000   14.78860   66.43590    0.28890    0.18030  104.25840
 5900.00000  -47.60800    2.64500    2.44500    2.86100   15.41850   74.07480    0.26620    0.19490   86.12210
 5950.00000  -47.27100    1.84800    1.70500    2.27400   15.41070   62.96600    0.32350    0.29730   99.61520
 6000.00000  -46.44500    1.57000    1.47100    2.20800   14.81620   60.64850   -0.07690    0.22050   99.62000
 6050.00000  -46.18700    1.43600    1.36300    1.90700   14.38760   61.34330    0.38610    0.22150  106.65190
 6100.00000  -46.07700    1.57600    1.43300    1.95400   13.99520   57.86810    0.31270    0.20700  102.52750
 6150.00000  -45.63300    1.51400    1.34000    1.95600   13.23440   67.13040    0.45000    0.24180  103.25430
 6200.00000  -48.14800    1.75900    1.58500    1.99000   13.19380   60.88340    0.31810    0.17960  103.52640
 6250.00000  -47.41400    1.57600    1.41600    1.98500   13.13960   63.65740    0.37150    0.26880  105.27750
 6300.00000  -47.08800    1.48200    1.32900    1.99100   13.55810   65.51080    0.32090    0.19270  104.81220
 6350.00000  -47.36700    1.49900    1.37600    1.88200   12.64340   81.01830    0.31490    0.24800  107.36140
 6400.00000  -47.27400    2.68500    2.39100    2.77700   10.19380   59.72200   -0.08960    0.14210   94.72610
 6450.00000  -47.22170    2.53700    2.20300    2.96700   11.44960   61.80820    0.29350    0.20650   94.00310
 6500.00000  -48.14820    2.71200    2.30900    2.66400   11.00000   48.14700    0.18160    0.08880  100.35610
 6550.00000  -46.45060    2.25300    1.99400    2.72900   13.30980   65.04710    0.30370    0.17600   96.89220
 6600.00000  -46.75980    3.04900    2.73400    3.45200   13.16480   62.73300    0.26560    0.17130   88.32250
 6650.00000  -46.91330    2.21800    1.99000    2.71800   13.78190   67.12960    0.27820    0.20290   96.99350
 6700.00000  -47.08400    1.99900    1.78300    2.29500   14.16270   66.89890    0.28140    0.17780  102.33130
 6750.00000  -46.23700    2.10900    1.93600    2.48900   13.99820   66.89950    0.29670    0.18150   98.51960
 6800.00000  -45.60400    2.16700    1.95000    2.49500   15.04590   64.81590    0.30090    0.19140   95.63330
 6850.00000  -46.00900    2.75000    2.40500    3.15100   14.31720   65.50960    0.26470    0.14170   92.00620
 6900.00000  -46.32800    2.45000    2.20400    2.96200   14.59810   65.74190    0.27350    0.15600   90.53990
 6950.00000  -46.20100    4.00470    3.54900    4.28300   12.88080   54.86110    0.20290    0.06420   84.92310
 7000.00000  -46.37500    3.48800    3.11100    3.40100   12.47410   64.12040    0.25120    0.07770   93.80260
 7050.00000  -47.05800    3.49600    2.92000    3.91100   11.79910   57.40740    0.27590    0.10870   89.03580
 7100.00000  -46.13000    3.18700    2.83200    3.68000   12.31120   64.35260    0.28140    0.16230   86.08230
 7150.00000  -46.62400    2.99600    2.72600    4.09000   11.32060   56.48150    0.27820    0.14120   84.29120
 7200.00000  -46.51100    5.40300    5.14900    4.67100   10.42660   38.42730    0.18250    0.07400   77.63110
 7250.00000  -47.32000    6.41100    5.73400    5.41900   10.43050   37.73040    0.17320    0.05960   76.99460
 7300.00000  -47.29300    6.88100    6.14200    7.07000   11.02680   38.65650    0.19460    0.09200   73.56460
 7350.00000  -48.71500    7.54700    6.81100    8.04100   11.04650   34.49110    0.20940    0.11150   72.56170
 7400.00000  -53.41500   14.19800    9.37300   13.38000   10.89720   34.25960    0.17140    0.07530   67.66270
 7450.00000  -59.95200   16.66700   14.78500   12.12900   11.27430   22.68560    0.15140    0.08020   62.68440
 7500.00000  -46.63200    2.43700    2.12900    3.74500   15.52940   63.65740    0.36450    0.20470   97.28220
 7550.00000  -47.58800    1.82100    1.71100    2.67200   15.56970   58.79780    0.41560    0.33830  103.14190
 7600.00000  -47.41800    1.51200    1.35900    2.30400   15.61080   61.34260    0.40080    0.45000  104.58790
 7650.00000  -45.63300    2.82200    2.45300    3.58800   15.32250   54.63080    0.32230    0.34800   94.86490
 7700.00000  -45.32000    2.41700    2.17400    3.10000   14.67190   67.36110    0.36450    0.22880   90.61730
 7750.00000  -44.29500    2.17000    1.85800    3.11200   12.75970   74.30780    0.35710    0.21070   92.00520
 7800.00000  -45.47200    1.93000    1.69800    2.56000   13.17860   67.59300    0.34880    0.29560   98.29490
 7850.00000  -45.22200    2.61600    2.35800    3.47700   12.67710   71.29330    0.36180    0.21770   89.45090
 7900.00000  -45.47200    3.80700    3.79000    4.74200   11.93800   73.38060    0.33810    0.27060  102.49950
 7950.00000  -45.03100    3.36100    2.77000    4.41200   11.38760   63.88890    0.31300    0.23530  104.93720
 8000.00000  -44.91600    4.05100    3.34700    5.68500   11.60480   74.53700    0.36220    0.40220  103.70030
 8050.00000  -45.35800    5.86300    4.76100    8.50100   11.98640   81.48370    0.31070    0.18940   98.90420
 8100.00000  -45.38700    3.20900    3.08600    4.27200   14.99550   70.37110    0.35430    0.23490   92.89720
 8150.00000  -46.77800    3.88600    3.37200    4.07900   11.46370   43.05560    0.16440    0.15560   83.28680
 8200.00000  -55.75500   35.41500   35.80100   35.30500   10.25590   20.36910    0.07240    0.01940   56.76680
 8250.00000  -44.94400    4.34600    3.90500    6.05500   10.16070   30.09490    0.09690    0.03730   79.45870
 8300.00000  -54.63600   37.58900   33.66500   35.21400    9.78760   21.29630    0.05710    0.04380   53.36080
 8350.00000  -55.40700   28.08800   27.52100   20.60900    9.73710   15.97220    0.03910    0.00300   54.19870
 8400.00000  -52.68000   27.85800   25.44200   20.10200    9.93970   23.15110    0.06670    0.03040   55.33370
 8450.00000  -58.01100   44.69700   50.07000   44.34600    9.94570   18.75210    0.04430    0.03410   52.49100
 8500.00000  -48.46300   20.43500   15.02700   28.98200    9.88370   24.30590    0.07620    0.01510   56.73290
 8550.00000  -48.95900   15.92400   13.64400   17.05600    9.83290   18.74930    0.05380    0.02940   59.46400
 8600.00000  -51.27800   26.95600   26.94300   30.81600   10.00570   17.13150    0.03360    0.00260   54.19990
 8650.00000  -58.69600   17.20800   17.42400   20.66600    9.96820   51.15850    0.07410    0.04990   57.54760
 8700.00000  -68.19500   61.89400   62.86500   65.65000    9.77800   25.00250    0.05070    0.01280   51.30580
 8750.00000  -56.65500   42.73400   39.71500   42.43100   10.00670   28.93630    0.04970    0.03180   53.39530
 8800.00000  -51.39800   32.62700   25.87200   27.14400    9.85010   39.81710    0.06260    0.02570   54.92490
 8850.00000  -53.23300   34.83300   29.93700   32.40300    9.80070   24.30710    0.03630    0.00720   54.73950
 8900.00000  -44.29400    9.01700    7.50600   10.13900   10.12400   37.73450    0.12300    0.03320   63.45620
 8950.00000  -44.70800    3.23900    4.29800    4.85700   10.24070   53.01040    0.13050    0.06560   82.90040
 9000.00000  -45.47900    3.15400    2.76400    4.06210   14.63100   51.85330    0.32270    0.23490   80.92380
 9050.00000  -45.81800   13.22000   10.92500   20.72170   10.01140   34.49150    0.09630    0.03240   59.80040
 9100.00000  -45.24400   12.57800   10.35800   15.83040   10.07860   38.42930    0.15540    0.08550   58.98230
 9150.00000  -43.46100    5.32300    4.59800    6.67300   10.67820   43.28850    0.16910    0.12870   71.36760
 9200.00000  -45.93900    3.14800    3.27100    3.37700   12.31330   51.38850    0.24870    0.38510   87.92190
 9250.00000  -45.91300    7.49800    5.62900    8.99100   10.69550   31.01870    0.13320    0.08970   66.80040
