~Version ---------------------------------------------------
VERS.      2.0 : CWLS log ASCII Standard -VERSION 2.0
WRAP.      YES : Multiple lines per depth step
CREA. 06/26/18 : LAS Creation Date
~Well ------------------------------------------------------
STRT.FT                 1950.0 : START DEPTH
STOP.FT                10950.0 : STOP DEPTH
STEP.FT               50.00000 : STEP LENGTH
NULL.                  -999.25 : NULL VALUE
COMP.            DIRNETT, INC. : COMPANY
WELL.     ESCHENBURG POLLOK #1 : WELL
FLD .                  FASHING : FIELD
LOC .                          : LOCATION
CNTY.                 ATASCOSA : COUNTY
STAT.                    TEXAS : STATE
CTRY. UNITED STATES OF AMERICA : COUNTRY
SRVC.             Schlumberger : SERVICE COMPANY
DATE.              23-Aug-1996 : LOGDATE
API .           42013340590000 : API NUMBER
UWI .           42013340590000 : UNIQUE WELL ID
SLAT.WGS84       28.7834983741 : SURFACE LATITUDE
SLON.WGS84      -98.2167863068 : SURFACE LONGITUDE
~Curve Information -----------------------------------------
DEPT    .FT    : DEPTH FEET
CALWS   .IN    : CALIPER [DCALED+BIT]
CONDWS  .MMHO  : DEEP CONDUCTIVITY [1000/DRESWS]
DCALED  .IN    : DIFFERENTIAL CALIPER FROM PHI/LDT/CNL LOG
DCORWS  .G/C3  : DENSITY CORRECTION [DRHOED]
DENWS   .G/C3  : BULK DENSITY [CALC. TOP DPHISSED 9493.5' DPHILSED]
DPHILSED.V/V   : DENSITY POROSITY (LS) [M=2.71 F=1.0] FROM PHI/LDT/CNL LOG
DPHISSED.V/V   : DENSITY POROSITY (SS) [M=2.65 F=1.0] FROM PHI/LDT/CNL LOG
DPOLSWS .V/V   : DENSITY POROSITY LIMESTONE [M=2.71 F=1.0] [CALC. FROM DENWS]
DRESWS  .OHMM  : DEEP RESISTIVITY [IDPHED]
DRHOED  .G/C3  : DENSITY CORRECTION FROM DENSITY LOG
GRRED   .GAPI  : GAMMA RAY FROM RESISTIVITY LOG
GRWS    .GAPI  : GAMMA RAY [GRRED]
IDPHED  .OHMM  : INDUCTION DEEP PHASE RESISTIVITY
IMPHED  .OHMM  : INDUCTION MEDIUM PHASE RESISTIVITY
MRESWS  .OHMM  : MEDIUM RESISTIVITY [IMPHED]
NPHILSED.V/V   : NEUTRON POROSITY LIMESTONE FROM PHI/LDT/CNL LOG
NPHISSED.V/V   : NEUTRON POROSITY SANDSTONE FROM PHI/LDT/CNL LOG
NPOLSWS .V/V   : NEUTRON POROSITY LIMESTONE [TOP CONVERSE NPHISSED TO LIME FROM POWER LOG 9494' NPHILSED]
SFLUED  .OHMM  : SPHERICALLY FOCUSED LOG RESISTIVITY
SPRED   .MV    : SPONTANEOUS POTENTIAL FROM PHI/LDT/CNL LOG
SPWS    .MV    : SPONTANEOUS POTENTIAL [BASELINE 0 MV] [SPRED]
SRESWS  .OHMM  : SHALLOW RESISTIVITY [SFLUED]
~Params ----------------------------------------------------
PD  .                     GL : PERMANENT DATUM
EPD .FT                411.5 : ELEVATION PERMANENT DATUM
LMF .                     KB : LOG MEASURED FROM
DAPD.FT                 19.5 : FEET ABOVE PERMANENT DATUM
DMF .                     KB : DRILLING MEASURED FROM
EKB .FT                  431 : KELLY BUSHING
EDF .FT                  430 : DRILLING FLOOR
EGL .FT                411.5 : GROUND LEVEL
DATE.               08/23/96 : RUN DATE
RUN .                      1 : RUN NUMBER
DD  .FT                11000 : DEPTH DRILLER
DL  .FT                10988 : DEPTH LOGGER
BLI .FT                10970 : BOTTOM LOG INTERVAL
TLI .FT                 2006 : TOP LOG INTERVAL
CS  .IN                8.625 : CASING SIZE
CBD .FT                 2016 : CASING BOTTOM DRILLER
CBL .FT                 2008 : CASING BOTTOM LOGGER
BS  .IN                7.875 : BIT SIZE
BSD .FT                11000 : BIT SIZE AT DEPTH
DFT .                    LIG : DRILLING FLUID TYPE
DFD .                   10.2 : DRILLING FLUID DENSITY
DFV .                     48 : DRILLING FLUID VISCOSITY
DFPH.                   11.3 : DRILLING FLUID PH
DFL .                    5.8 : DRILLING FLUID LOSS
MSS .               MUD TANK : MUD SAMPLE SOURCE
RMS .OHMM               1.83 : RESISTIVITY MUD SAMPLE
MST .FT                   75 : MUD SAMPLE TEMPERATURE
RMF .OHMM               1.48 : RESISTIVITY MUD FILTRATE SAMPLE
MFST.FT                   75 : MUD FILTRATE SAMPLE TEMPERATURE
RMC .OHMM               2.45 : RESISTIVITY MUD CAKE
MCST.FT                   75 : MUD CAKE SAMPLE TEMPERATURE
MFSS.                   MEAS : MUD FILTRATE SAMPLE SOURCE
MCSS.                   CALC : MUD CAKE SAMPLE SOURCE
RMB .OHMM              0.473 : RESISTIVITY MUD AT BHT
TCS .HRS                1200 : TIME CURCULATED STOPPED
TLAB.HRS                2000 : TIME LOGGER AT BOTTOM
LUN .                   2017 : LOGGING UNIT NUMBER
LUL .               VICTORIA : LOGGING UNIT LOCATION
ENGI.            JOHN GAMBLE : RECORDING ENGINEER
WITN.  J FISHER J JOHNSON JR : WITNESSED BY
CLNT.                A2DTECH : CLIENT CODE
ORIG.               5" PRINT : ORIGIN OF DATA
UWI .         42013340590000 : UNIQUE WELL ID
DICO. A2D Technologies, Inc. : DIGITIZING COMPANY
~Other -----------------------------------------------------
REMOVED ALL RESISTIVITY FROM 3804' - 3814' DUE TO INVALID DATA.
~ASCII -----------------------------------------------------
# ...
 9950.00000    8.23240  131.07530    0.35740   -0.00500    2.63120    0.04610    -999.25    0.04610    7.62920   -0.00500   59.37030   59.37030    7.62920    7.39320    7.39320    0.09580    -999.25    0.09580    9.06220   -2.45480   -2.40040    9.06220
 10000.00000    8.32380  179.78820    0.44880   -0.01540    2.58330    0.07410    -999.25    0.07410    5.56210   -0.01540   63.19230   63.19230    5.56210    5.59220    5.59220    0.10120    -999.25    0.10120    6.37910   -5.40390   -4.51190    6.37910
 10050.00000    8.05390   56.98660    0.17890    0.00780    2.59510    0.06720    -999.25    0.06720   17.54800    0.00780   36.42300   36.42300   17.54800   16.23160   16.23160    0.04840    -999.25    0.04840   11.52990  -22.63720  -21.74520   11.52990
 10100.00000    8.44100   72.01550    0.56600    0.00090    2.62880    0.04750    -999.25    0.04750   13.88590    0.00090   40.70340   40.70340   13.88590   12.80120   12.80120    0.04840    -999.25    0.04840   14.07870  -13.62170  -12.72970   14.07870
 10150.00000    9.03770   36.68100    1.16270   -0.00050    2.60120    0.06360    -999.25    0.06360   27.26210   -0.00050   64.09290   64.09290   27.26210   23.09980   23.09980    0.08060    -999.25    0.08060   35.41190  -12.55390  -11.66190   35.41190
 10200.00000    9.60350  139.44080    1.72850    0.00160    2.48460    0.13180    -999.25    0.13180    7.17150    0.00160  100.07310  100.07310    7.17150    6.85570    6.85570    0.19160    -999.25    0.19160   10.11730   -5.84470   -4.95270   10.11730
 10250.00000    9.27560   14.48360    1.40060   -0.00190    2.62130    0.05190    -999.25    0.05190   69.04340   -0.00190   48.57500   48.57500   69.04340   62.06310   62.06310    0.05640    -999.25    0.05640  193.91260  -11.07150  -10.17950  193.91260
 10300.00000    9.42470    4.61950    1.54970    0.00400    2.66550    0.02600    -999.25    0.02600  216.47590    0.00400   15.51720   15.51720  216.47590  122.43770  122.43770    0.00900    -999.25    0.00900   98.08450  -18.60250  -17.71050   98.08450
 10350.00000    9.83950    0.61470    1.96450    0.00870    2.68160    0.01660    -999.25    0.01660 1626.80960    0.00870   15.74160   15.74160 1626.80960  210.57240  210.57240    0.00140    -999.25    0.00140  669.41240  -25.75570  -24.86370  669.41240
 10400.00000   11.98810  124.57330    4.11310    0.02440    2.64720    0.03670    -999.25    0.03670    8.02740    0.02440   60.04310   60.04310    8.02740    7.70370    7.70370    0.09940    -999.25    0.09940    7.52460   -3.64730   -2.75530    7.52460
 10450.00000   11.75150    0.50000    3.87650    0.02360    2.66090    0.02870    -999.25    0.02870 2000.00000    0.02360   21.58920   21.58920 2000.00000  170.21970  170.21970    0.00160    -999.25    0.00160  138.38530  -40.37270  -39.48070  138.38530
 10500.00000    9.30410   31.74430    1.42910    0.01310    2.69770    0.00720    -999.25    0.00720   31.50170    0.01310   25.77160   25.77160   31.50170   32.42250   32.42250    0.01160    -999.25    0.01160   30.85680  -15.36350  -14.47150   30.85680
 10550.00000    9.21610    2.24230    1.34110   -0.00040    2.69770    0.00720    -999.25    0.00720  445.96280   -0.00040   28.65420   28.65420  445.96280  114.93660  114.93660    0.00090    -999.25    0.00090  111.62620  -37.88940  -36.99740  111.62620
 10600.00000    7.77890    0.50000   -0.09610    0.02950    2.62570    0.04930    -999.25    0.04930 2000.00000    0.02950   31.48430   31.48430 2000.00000 2000.00000 2000.00000    0.02150    -999.25    0.02150  809.84120 -166.25730 -165.36530  809.84120
 10650.00000    7.72630   24.10430   -0.14870   -0.00050    2.62770    0.04810    -999.25    0.04810   41.48640   -0.00050   38.95840   38.95840   41.48640   72.67250   72.67250    0.02420    -999.25    0.02420  197.94550 -178.34970 -177.45770  197.94550
 10700.00000    9.06710    0.53200    1.19210    0.00850    2.57370    0.07970    -999.25    0.07970 1879.85360    0.00850   26.53600   26.53600 1879.85360 1583.68660 1583.68660    0.00850    -999.25    0.00850  238.36720 -155.06040 -154.16840  238.36720
 10750.00000    7.69620  192.71540   -0.17880    0.00400    2.57530    0.07880    -999.25    0.07880    5.18900    0.00400   22.06500   22.06500    5.18900    6.31370    6.31370    0.07200    -999.25    0.07200   48.93880 -165.32000 -164.42800   48.93880
 10800.00000    8.38350    3.05660    0.50850    0.03550    2.69170    0.01070    -999.25    0.01070  327.16330    0.03550   39.35530   39.35530  327.16330  166.74140  166.74140    0.00090    -999.25    0.00090  116.50680  -95.99720  -95.10520  116.50680
 10850.00000    7.26380  227.33470   -0.61120   -0.00720    2.46800    0.14150    -999.25    0.14150    4.39880   -0.00720   21.14090   21.14090    4.39880    5.54220    5.54220    0.07700    -999.25    0.07700   61.42210 -175.24740 -174.35540   61.42210
 10900.00000    7.36830  328.48270   -0.50670   -0.00000    2.52460    0.10840    -999.25    0.10840    3.04430   -0.00000   28.11090   28.11090    3.04430    3.93180    3.93180    0.07520    -999.25    0.07520   53.15320 -181.93490 -181.04290   53.15320
 10950.00000    7.24890   82.07620   -0.62610    0.10600    2.64720    0.03670    -999.25    0.03670   12.18380    0.10600    -999.25    -999.25   12.18380   19.99880   19.99880    -999.25    -999.25    -999.25  217.96170 -221.89920 -221.00720  217.96170
