~Version ---------------------------------------------------
VERS. 2.0 : CWLS log ASCII Standard -VERSION 2.0
WRAP. YES : MULTIPLE LINES PER DEPTH STEP
~Well ------------------------------------------------------
STRT.FT                           3600.0 : START DEPTH
STOP.FT                           8500.0 : STOP DEPTH
STEP.FT                         50.00000 : STEP LENGTH
NULL.                            -999.25 : NULL VALUE
COMP. SANTA FE-WINDSOR PRODUCING COMPANY : COMPANY
WELL.                        ALBRECHT #1 : WELL
FLD .                           GIDDINGS : FIELD
LOC .                                    : LOCATION
CNTY.                                LEE : COUNTY
STAT.                              TEXAS : STATE
CTRY.           UNITED STATES OF AMERICA : COUNTRY
SRVC.                       Schlumberger : SERVICE COMPANY
DATE.                        08-Jun-1982 : LOGDATE
API .                     42287312490000 : API NUMBER
UWI .                     42287312490000 : UNIQUE WELL ID
SLAT.WGS84                 30.1138880763 : SURFACE LATITUDE
SLON.WGS84                -96.9639704608 : SURFACE LONGITUDE
~Curve Information -----------------------------------------
DEPT    .FT    : DEPTH FEET
CALWS   .IN    : CALIPER [DCALED+9.625]
CONDWS  .MMHO  : CONDUCTIVITY [1000/DRESWS]
DCALED  .IN    : DIFFERENTIAL CALIPER FROM DENSITY LOG
DCORWS  .G/C3  : DENSITY CORRECTION [DRHOED]
DENWS   .G/C3  : BULK DENSITY [M=2.71 F=1.0] [CALCULATED FROM DPOWS]
DPHILSED.V/V   : DENSITY POROSITY [M=2.71 F=1.0] FROM DENSITY LOG
DPOWS   .V/V   : DENSITY POROSITY [M=2.71 F=1.0] [DPHILSED]
DRESWS  .OHMM  : DEEP RESISTIVITY [ILDED]
DRHOED  .G/C3  : DENSITY CORRECTION FROM DENSITY LOG
GRNED   .GAPI  : GAMMA RAY FROM NEUTRON LOG [DEPTH ADJ. TO GRRED]
GRRED   .GAPI  : GAMMA RAY FROM RESISTIVITY LOG
GRWS    .GAPI  : GAMMA RAY [GRNED]
ILDED   .OHMM  : INDUCTION LOG DEEP RESISTIVITY
ILMED   .OHMM  : INDUCTION LOG MEDIUM RESISTIVITY
MRESWS  .OHMM  : MEDIUM RESISTIVITY [ILMED]
NEUTED  .NAPI  : NEUTRON FROM NEUTRON LOG [DEPTH ADJ. TO GRRED]
NEUTWS  .NAPI  : NEUTRON [NEUTED]
SFLUED  .OHMM  : SPHERICALLY FOCUSED LOG RESISTIVITY
SPRED   .MV    : SPONTANEOUS POTENTIAL FROM RESISTIVITY LOG
SPWS    .MV    : SPONTANEOUS POTENTIAL [BASELINE 0 MV] [SPRED]
SRESWS  .OHMM  : SHALLOW RESISTIVITY [SFLUED]
~Params ----------------------------------------------------
PD  .                     GL : PERMANENT DATUM
EPD .FT                  440 : ELEVATION PERMANENT DATUM
LMF .                    RKB : LOG MEASURED FROM
DAPD.FT                   17 : FEET ABOVE PERMANENT DATUM
DMF .                    RKB : DRILLING MEASURED FROM
EKB .FT                  457 : KELLY BUSHING
EDF .FT                  456 : DRILLING FLOOR
EGL .FT                  440 : GROUND LEVEL
DATE.               06/08/82 : RUN DATE
RUN .                      1 : RUN NUMBER
DD  .FT                 8565 : DEPTH DRILLER
DL  .FT                 8550 : DEPTH LOGGER
BLI .FT                 8544 : BOTTOM LOG INTERVAL
TLI .FT                 3611 : TOP LOG INTERVAL
CS  .IN                9.625 : CASING SIZE
CBD .FT                 3650 : CASING BOTTOM DRILLER
CBL .FT                 3611 : CASING BOTTOM LOGGER
BS  .IN                 8.75 : BIT SIZE
BSD .FT                 8565 : BIT SIZE AT DEPTH
DFT .                    LNS : DRILLING FLUID TYPE
DFD .                    9.6 : DRILLING FLUID DENSITY
DFV .                     42 : DRILLING FLUID VISCOSITY
DFPH.                    9.5 : DRILLING FLUID PH
DFL .                    7.4 : DRILLING FLUID LOSS
MSS .                   TANK : MUD SAMPLE SOURCE
RMS .OHMM               1.54 : RESISTIVITY MUD SAMPLE
MST .DEGF                104 : MUD SAMPLE TEMPERATURE
RMF .OHMM               2.06 : RESISTIVITY MUD FILTRATE SAMPLE
MFST.DEGF                 87 : MUD FILTRATE SAMPLE TEMPERATURE
RMC .OHMM               4.12 : RESISTIVITY MUD CAKE
MCST.DEGF                 87 : MUD CAKE SAMPLE TEMPERATURE
MFSS.                   MEAS : MUD FILTRATE SAMPLE SOURCE
MCSS.                   CALC : MUD CAKE SAMPLE SOURCE
RMB .OHMM              0.858 : RESISTIVITY MUD AT BHT
TCS .HRS                 800 : TIME CIRCULATED STOPPED
TLAB.HRS                1300 : TIME LOGGER AT BOTTOM
LUN .                   8262 : LOGGING UNIT NUMBER
LUL .                BRENHAM : LOGGING UNIT LOCATION
ENGI.                MARFICE : RECORDING ENGINEER
WITN.                  IRVIN : WITNESSED BY
CLNT.                A2DTECH : CLIENT CODE
ORIG.               5" PRINT : ORIGIN OF DATA
UWI .         42287312490000 : UNIQUE WELL ID
DICO. A2D Technologies, Inc. : DIGITIZING COMPANY
~Other -----------------------------------------------------
~ASCII -----------------------------------------------------
# ...
 6900.00000   12.89700  790.20150    3.27200    -999.25    -999.25    -999.25    -999.25    1.26550    -999.25    -999.25   93.55250   93.55250    1.26550    1.37670    1.37670    -999.25    -999.25    1.53600  -69.50870   -6.44720    1.53600
 6950.00000   13.53230  806.45160    3.90730    -999.25    -999.25    -999.25    -999.25    1.24000    -999.25    -999.25   85.54260   85.54260    1.24000    1.32910    1.32910    -999.25    -999.25    1.45660  -67.23220   -3.41100    1.45660
 7000.00000   14.60940  845.88060    4.98440    -999.25    -999.25    -999.25    -999.25    1.18220    -999.25   27.39360   83.00150   83.00150    1.18220    1.28410    1.28410   57.48370   57.48370    1.42240  -82.67830   -6.51810    1.42240
 7050.00000   14.23320  886.60340    4.60820    -999.25    -999.25    -999.25    -999.25    1.12790    -999.25   35.93090   86.99090   86.99090    1.12790    1.23830    1.23830   68.54250   68.54250    1.38810  -82.62080   -8.34030    1.38810
 7100.00000   14.25520  809.97900    4.63020    -999.25    -999.25    -999.25    -999.25    1.23460    -999.25   27.02880   70.23320   70.23320    1.23460    1.34030    1.34030   63.42270   63.42270    1.49520  -80.24910   -7.84840    1.49520
 7150.00000   12.75630  742.66610    3.13130    -999.25    -999.25    -999.25    -999.25    1.34650    -999.25   28.63400   78.41300   78.41300    1.34650    1.47860    1.47860   77.31000   77.31000    1.63430  -78.21020   -7.68920    1.63430
 7200.00000   11.01760  585.65160    1.39260    0.08470    2.52700    0.10700    0.10700    1.70750    0.08470   22.57980   70.64160   70.64160    1.70750    1.85570    1.85570  166.38690  166.38690    2.05290  -72.91980   -4.27850    2.05290
 7250.00000   11.18590  390.64030    1.56090    0.00580    2.56550    0.08450    0.08450    2.55990    0.00580   21.09430   59.15330   59.15330    2.55990    2.69350    2.69350  175.90440  175.90440    3.08370  -68.75940   -1.99790    3.08370
 7300.00000   11.46930  218.69870    1.84430    0.01760    2.61060    0.05810    0.05810    4.57250    0.01760   23.32340   48.46160   48.46160    4.57250    4.74150    4.74150  215.28130  215.28130    5.53400  -69.42830   -4.54650    5.53400
 7350.00000   12.24530  447.38730    2.62030    0.02380    2.55470    0.09080    0.09080    2.23520    0.02380   31.98700   78.25600   78.25600    2.23520    2.35240    2.35240  165.94890  165.94890    2.41240  -65.98740   -2.98540    2.41240
 7400.00000   11.63450  374.95310    2.00950    0.00290    2.58140    0.07520    0.07520    2.66700    0.00290   20.76610   60.84310   60.84310    2.66700    2.95690    2.95690  168.27120  168.27120    3.08160  -63.35500   -2.23270    3.08160
 7450.00000   11.55590  303.06700    1.93090   -0.00410    2.54500    0.09650    0.09650    3.29960   -0.00410   26.94710   67.01090   67.01090    3.29960    3.51150    3.51150  177.85900  177.85900    3.60000  -62.06380   -2.61500    3.60000
 7500.00000   11.34260  319.38680    1.71760    0.01410    2.56160    0.08680    0.08680    3.13100    0.01410   21.98500   56.32920   56.32920    3.13100    3.50450    3.50450  256.06230  256.06230    4.32970  -61.08860   -2.80850    4.32970
 7550.00000   13.25580  444.03000    3.63080    0.03200    2.55200    0.09240    0.09240    2.25210    0.03200   27.58740   78.39300   78.39300    2.25210    2.59870    2.59870  118.97730  118.97730    2.71690  -61.93470   -4.82330    2.71690
 7600.00000   11.10550  212.77500    1.48050    0.00470    2.60620    0.06070    0.06070    4.69980    0.00470   21.13150   54.41410   54.41410    4.69980    4.98720    4.98720  177.39670  177.39670    5.07280  -59.60800   -3.66230    5.07280
 7650.00000   10.82230   93.62860    1.19730    0.00390    2.63320    0.04490    0.04490   10.68050    0.00390   11.07520   23.32750   23.32750   10.68050   11.64050   11.64050  250.98120  250.98120   12.93280  -65.19660  -10.26800   12.93280
 7700.00000   11.15160  100.23560    1.52660    0.00640    2.62500    0.04970    0.04970    9.97650    0.00640   13.37260   22.91950   22.91950    9.97650   10.31430   10.31430  185.06780  185.06780   11.08740  -67.95320  -14.04170   11.08740
 7750.00000   11.47970  103.75270    1.85470    0.00630    2.62670    0.04870    0.04870    9.63830    0.00630    7.35540   22.40250   22.40250    9.63830   10.17400   10.17400  174.19400  174.19400   11.71020  -73.59720  -20.70270   11.71020
 7800.00000   11.39380  101.89010    1.76880    0.03340    2.62210    0.05140    0.05140    9.81450    0.03340    7.60250   21.01960   21.01960    9.81450   10.46620   10.46620  178.36670  178.36670   13.38420  -67.86280  -15.98540   13.38420
 7850.00000   10.73400  139.46610    1.10900    0.01060    2.52600    0.10760    0.10760    7.17020    0.01060    6.83150   19.84430   19.84430    7.17020    7.78760    7.78760  164.26580  164.26580    8.32950  -70.72270  -19.86240    8.32950
 7900.00000   10.69100  365.81800    1.06600    0.07410    2.56350    0.08570    0.08570    2.73360    0.07410   19.91140   57.47800   57.47800    2.73360    2.95810    2.95810  133.33090  133.33090    3.91170  -54.17820   -4.33500    3.91170
 7950.00000   11.28160  142.50490    1.65660   -0.00600    2.58810    0.07130    0.07130    7.01730   -0.00600    7.82870   27.43220   27.43220    7.01730    7.43060    7.43060  180.75220  180.75220    7.99860  -55.38950   -6.56330    7.99860
 8000.00000   11.33400  183.91480    1.70900   -0.00460    2.60140    0.06350    0.06350    5.43730   -0.00460    8.16020   29.57590   29.57590    5.43730    6.07210    6.07210  207.07710  207.07710    6.61530  -54.87170   -7.06260    6.61530
 8050.00000   11.62440  315.38780    1.99940    0.01670    2.57150    0.08100    0.08100    3.17070    0.01670    8.77670   32.47390   32.47390    3.17070    3.36600    3.36600  274.80700  274.80700    3.62880  -57.49150   -8.74850    3.62880
 8100.00000   10.62050  229.85860    0.99550    0.01380    2.49710    0.12450    0.12450    4.35050    0.01380   14.57120   39.50380   39.50380    4.35050    4.60080    4.60080  270.41150  270.41150    4.27450  -65.83860  -15.20070    4.27450
 8150.00000   10.11300  152.26030    0.48800    0.00780    2.59850    0.06520    0.06520    6.56770    0.00780   16.15450   46.29870   46.29870    6.56770    6.97730    6.97730  225.38840  225.38840    8.24980  -71.73020  -19.19740    8.24980
 8200.00000   12.09060   96.61460    2.46560    0.00660    1.94150    0.44940    0.44940   10.35040    0.00660   16.05640   37.51550   37.51550   10.35040   11.46810   11.46810  236.76380  236.76380   13.79370  -57.93680   -3.50910   13.79370
 8250.00000   14.24890   66.08470    4.62390    0.06490    1.94080    0.44980    0.44980   15.13210    0.06490   12.10220   30.03180   30.03180   15.13210   13.03640   13.03640  339.06520  339.06520   14.37700  -65.95220   -9.62960   14.37700
 8300.00000    9.81970   99.63240    0.19470    0.01680    2.51690    0.11290    0.11290   10.03690    0.01680   31.39190   92.40050   92.40050   10.03690   10.55270   10.55270  204.76210  204.76210   17.09570  -30.00470   -5.00970   17.09570
 8350.00000    9.89670   60.19200    0.27170   -0.01080    2.44460    0.15520    0.15520   16.61350   -0.01080   25.82910   74.20220   74.20220   16.61350   14.91910   14.91910  198.07670  198.07670   35.37080  -24.19640   -3.17260   35.37080
 8400.00000   11.13940  185.26070    1.51440    0.09260    2.57030    0.08170    0.08170    5.39780    0.09260   40.79180   98.35420   98.35420    5.39780    5.58750    5.58750  114.97460  114.97460    5.35710  -31.56820  -12.46150    5.35710
 8450.00000    9.61470   25.57110   -0.01030    0.01570    2.67560    0.02010    0.02010   39.10670    0.01570    8.49590   14.00360   14.00360   39.10670   29.23480   29.23480  366.21440  366.21440   44.00410  -33.59570  -16.40600   44.00410
 8500.00000    9.60310  199.39780   -0.02190    0.00610    2.64040    0.04070    0.04070    5.01510    0.00610    -999.25   59.99430   59.99430    5.01510    5.62880    5.62880    -999.25    -999.25    7.37440  -16.05010   -0.77750    7.37440
