~Version ---------------------------------------------------
VERS.      2.0 : CWLS log ASCII Standard -VERSION 2.0
WRAP.      YES : MULTIPLE LINES PER DEPTH STEP
CREA. 08/31/18 : LAS CREATION DATE
~Well ------------------------------------------------------
STRT.FT                 2300.0 : START DEPTH
STOP.FT                11300.0 : STOP DEPTH
STEP.FT               50.00000 : STEP LENGTH
NULL.                  -999.25 : NULL VALUE
COMP.         HUNT OIL COMPANY : COMPANY
WELL.          PIPHER L. A. #1 : WELL
FLD .                  WILDCAT : FIELD
LOC .                          : LOCATION
CNTY.                 GONZALES : COUNTY
STAT.                    TEXAS : STATE
CTRY. UNITED STATES OF AMERICA : COUNTRY
SRVC.             Schlumberger : SERVICE COMPANY
DATE.              06-May-1999 : LOGDATE
API .           42177320410000 : API NUMBER
UWI .           42177320410000 : UNIQUE WELL ID
SLAT.WGS84       29.2698822473 : SURFACE LATITUDE
SLON.WGS84      -97.7138948507 : SURFACE LONGITUDE
~Curve Information -----------------------------------------
DEPT    .FT    : DEPTH FEET
AHT10ED .OHMM  : 10 INCH RESISTIVITY TWO FOOT RESOLUTION FROM AIT LOG
AHT20ED .OHMM  : 20 INCH RESISTIVITY TWO FOOT RESOLUTION FROM AIT LOG
AHT30ED .OHMM  : 30 INCH RESISTIVITY TWO FOOT RESOLUTION FROM AIT LOG
AHT60ED .OHMM  : 60 INCH RESISTIVITY TWO FOOT RESOLUTION FROM AIT LOG
AHT90ED .OHMM  : 90 INCH RESISTIVITY TWO FOOT RESOLUTION FROM AIT LOG
CALWS   .IN    : CALIPER [DCALRED+BITED]
CONDWS  .MMHO  : CONDUCTIVITY [1000/DRESWS]
DCALRED .IN    : DIFFERENTIAL CALIPER FROM RES. LOG
DCORWS  .G/C3  : DENSITY CORRECTION [HDRAED]
DENWS   .G/C3  : BULK DENSITY [M=2.71 F=1.0] [CALCULATED FROM DPOLSWS]
DPHZLSED.V/V   : DENSITY POROSITY [M=2.71 F=1.0] FROM DENSITY LOG
DPOLSWS .V/V   : DENSITY POROSITY [M=2.71 F=1.0] [DPHZLSED]
DRESWS  .OHMM  : DEEP RESISTIVITY [AHT90ED]
DTLFED  .US/F  : DELTA TIME LONG SPACING FAR DETECTOR FROM SONIC LOG
DTLNED  .US/F  : DELTA TIME LONG SPACING NEAR DETECTOR FROM SONIC LOG
DTWS    .US/F  : DELTA TIME [DTLNED]
GRRED   .GAPI  : GAMMA RAY FROM RESISTIVITY LOG
GRWS    .GAPI  : GAMMA RAY [GRRED]
HDRAED  .G/C3  : DENSITY CORRECTION FROM DENSITY LOG
MRESWS  .OHMM  : MEDIUM RESISTIVITY [AHT30ED]
NPORLSED.V/V   : NEUTRON POROSITY LIMESTONE FROM DENSITY LOG
NPOLSWS .V/V   : NEUTRON POROSITY LIMESTONE [NPORLSED]
PEFWS   .B/E   : PHOTOELECTRIC FACTOR [PEFZED]
PEFZED  .B/E   : PHOTOELECTRIC FACTOR STANDARD RESOLUTION FROM DENSITY LOG
SPRED   .MV    : SPONTANEOUS POTENTIAL FROM RESISTIVITY LOG
SPWS    .MV    : SPONTANEOUS POTENTIAL [BASELINE 0 MV] [SPRED]
SRESWS  .OHMM  : SHALLOW RESISTIVITY [AHT10ED]
TENRED  .LBF   : TENSION FROM RESISTIVITY LOG
~Params ----------------------------------------------------
PD  .                     GL : PERMANENT DATUM
EPD .FT                  349 : ELEVATION PERMANENT DATUM
LMF .                     KB : LOG MEASURED FROM
DAPD.FT                 14.5 : FEET ABOVE PERMANENT DATUM
DMF .                     KB : DRILLING MEASURED FROM
EKB .FT                363.5 : KELLY BUSHING
EDF .FT                362.5 : DRILLING FLOOR
EGL .FT                  349 : GROUND LEVEL
DATE.               05/06/99 : RUN DATE
RUN .                      1 : RUN NUMBER
DD  .FT                11318 : DEPTH DRILLER
DL  .FT                11300 : DEPTH LOGGER
BLI .FT                11292 : BOTTOM LOG INTERVAL
TLI .FT                 2462 : TOP LOG INTERVAL
CS  .IN                9.625 : CASING SIZE
CBD .FT                 2469 : CASING BOTTOM DRILLER
CBL .FT                 2462 : CASING BOTTOM LOGGER
BS  .IN                 8.75 : BIT SIZE
BSD .FT                11318 : BIT SIZE AT DEPTH
DFT .              FRESH MUD : DRILLING FLUID TYPE
DFD .                   10.2 : DRILLING FLUID DENSITY
DFV .                     42 : DRILLING FLUID VISCOSITY
DFPH.                     11 : DRILLING FLUID PH
DFL .                      6 : DRILLING FLUID LOSS
MSS .              CIRC TANK : MUD SAMPLE SOURCE
RMS .OHMM              0.812 : RESISTIVITY MUD SAMPLE
MST .DEGF                 75 : MUD SAMPLE TEMPERATURE
RMF .OHMM               0.51 : RESISTIVITY MUD FILTRATE SAMPLE
MFST.DEGF                 75 : MUD FILTRATE SAMPLE TEMPERATURE
RMC .OHMM              1.218 : RESISTIVITY MUD CAKE
MCST.DEGF                 75 : MUD CAKE SAMPLE TEMPERATURE
MFSS.                     MP : MUD FILTRATE SAMPLE SOURCE
MCSS.                   CALC : MUD CAKE SAMPLE SOURCE
RMB .OHMM               0.28 : RESISTIVITY MUD AT BHT
TCS .HRS                1930 : TIME CIRCULATED STOPPED
TLAB.HRS                 630 : TIME LOGGER AT BOTTOM
LUN .                   2129 : LOGGING UNIT NUMBER
LUL .               VICTORIA : LOGGING UNIT LOCATION
ENGI.    VORIS WILBECK BOWEN : RECORDING ENGINEER
WITN.     SIMON SKILES BLACK : WITNESSED BY
CLNT.                A2DTECH : CLIENT CODE
ORIG.         1" 2" 5" PRINT : ORIGIN OF DATA
UWI .         42177320410000 : UNIQUE WELL ID
DICO. A2D Technologies, Inc. : DIGITIZING COMPANY
~Other -----------------------------------------------------
~ASCII -----------------------------------------------------
# ...
 6050.00000    1.07870    1.11030    1.12210    1.15750    1.19570   20.59120  836.33020   11.84120    0.13340    2.29820    0.24080    0.24080    1.19570   97.37940  102.20950  102.20950   68.93340   68.93340    0.13340    1.12210    0.41030    0.41030    3.21840    3.21840   -5.42530  -13.27810    1.07870 2091.26880
 6100.00000    1.67190    1.72090    1.82370    1.86610    1.93930   16.73270  515.65000    7.98270    0.15110    2.46460    0.14350    0.14350    1.93930   90.22210   89.37290   89.37290   65.59120   65.59120    0.15110    1.82370    0.28630    0.28630    3.01710    3.01710   -8.05920  -15.65090    1.67190 2117.70190
 6150.00000    1.66210    1.70740    1.76930    1.80860    1.85020   13.08310  540.48210    4.33310    0.11560    2.40900    0.17600    0.17600    1.85020   88.80110   89.77130   89.77130   71.95620   71.95620    0.11560    1.76930    0.30640    0.30640    3.12680    3.12680   -5.89010  -13.22080    1.66210 2149.61280
 6200.00000    1.67390    1.71970    1.78210    1.85970    1.91960   15.61120  520.94190    6.86120    0.15510    2.43540    0.16060    0.16060    1.91960   91.85850   91.32550   91.32550   73.64280   73.64280    0.15510    1.78210    0.27770    0.27770    2.97730    2.97730   -5.02860  -12.09820    1.67390 2103.38770
 6250.00000    1.60710    1.65100    1.71020    1.74830    1.78850   18.11800  559.12780    9.36800    0.06510    2.49780    0.12410    0.12410    1.78850   91.08340   90.54110   90.54110   73.58460   73.58460    0.06510    1.71020    0.25740    0.25740    2.43320    2.43320   -5.15530  -11.96380    1.60710 2115.32590
 6300.00000    1.63620    1.68090    1.74190    1.79550    1.83990   19.17030  543.50780   10.42030    0.03470    2.53130    0.10450    0.10450    1.83990   89.95170   89.64360   89.64360   73.03790   73.03790    0.03470    1.74190    0.23180    0.23180    2.51050    2.51050   -3.99540  -10.54290    1.63620 2129.61160
 6350.00000    1.64550    1.69040    1.75170    1.82960    1.93450   20.74730  516.92940   11.99730    0.05130    2.51900    0.11170    0.11170    1.93450   88.96500   87.66360   87.66360   82.39160   82.39160    0.05130    1.75170    0.22460    0.22460    2.43330    2.43330   -3.74690  -10.03330    1.64550 2221.79250
 6400.00000    1.10890    1.13990    1.18130    1.20670    1.25940   21.90180  794.02890   13.15180    0.11500    2.44150    0.15700    0.15700    1.25940   97.86880   99.44690   99.44690   83.14130   83.14130    0.11500    1.18130    0.28570    0.28570    2.55700    2.55700   -3.26270   -9.28810    1.10890 2189.12920
 6450.00000    1.26650    1.30200    1.34840    1.37930    1.41100   21.14890  708.71720   12.39890    0.12620    2.44960    0.15230    0.15230    1.41100   94.81530   96.89430   96.89430   76.89190   76.89190    0.12620    1.34840    0.28240    0.28240    2.88470    2.88470   -2.51270   -8.27700    1.26650 2212.25850
 6500.00000    4.30090    4.78960    5.01380    4.79640    5.24300   13.78050  190.73050    5.03050    0.00940    2.61080    0.05800    0.05800    5.24300   68.84170   71.05670   71.05670   42.83570   42.83570    0.00940    5.01380    0.07770    0.07770    4.26850    4.26850   -7.37970  -12.88290    4.30090 2245.45390
 6550.00000    6.19490    5.71900    6.72180    7.76650    6.39290   10.95230  156.42350    2.20230    0.00350    2.61220    0.05720    0.05720    6.39290   68.10680   69.58700   69.58700   38.70740   38.70740    0.00350    6.72180    0.10970    0.10970    4.67290    4.67290  -10.55530  -15.79750    6.19490 2181.08520
 6600.00000    8.37580    9.35990   10.99810   12.17110   13.38820   11.14060   74.69260    2.39060    0.06470    2.63510    0.04380    0.04380   13.38820   51.73780   55.31070   55.31070   38.39500   38.39500    0.06470   10.99810    0.05020    0.05020    4.93240    4.93240   -6.45640  -11.43750    8.37580 2279.04320
 6650.00000    6.62080    4.27570    8.30610   10.50000   20.43360   10.37170   48.93900    1.62170    0.13470    2.62090    0.05210    0.05210   20.43360   64.07940   61.25270   61.25270   26.88020   26.88020    0.13470    8.30610    0.08220    0.08220    4.73870    4.73870  -10.08860  -14.80870    6.62080 2331.88450
 6700.00000    8.96890    5.48410    8.07340    6.62480    7.15840   12.16470  139.69600    3.41470    0.24300    2.34560    0.21310    0.21310    7.15840   60.33000   63.62180   63.62180   25.16920   25.16920    0.24300    8.07340    0.10250    0.10250    5.01950    5.01950  -17.46490  -21.92390    8.96890 2279.16850
 6750.00000    8.81030    7.94880   10.33680   11.37460   12.54240   10.13780   79.72960    1.38780    0.06210    2.61940    0.05300    0.05300   12.54240   59.59900   57.84960   57.84960   18.38270   18.38270    0.06210   10.33680    0.04660    0.04660    4.92780    4.92780  -15.35150  -19.54940    8.81030 2294.45580
 6800.00000   26.33340   35.80670   21.91230   17.97400   14.94380   11.53300   66.91740    2.78300    0.07070    2.55520    0.09050    0.09050   14.94380   66.42330   65.18510   65.18510   84.11850   84.11850    0.07070   21.91230    0.14620    0.14620    4.21050    4.21050   -1.93330   -4.91960   26.33340 2270.77810
 6850.00000   30.05400   27.90870   36.73380   38.81290   41.80290   11.20070   23.92180    2.45070    0.00200    2.53180    0.10420    0.10420   41.80290   74.10680   73.78430   73.78430   65.79760   65.79760    0.00200   36.73380    0.16320    0.16320    4.49540    4.49540   -9.94140  -11.43200   30.05400 2331.25560
 6900.00000   26.12140   30.30810   30.69190   30.42800   33.30170   11.00630   30.02850    2.25630    0.00370    2.68420    0.01510    0.01510   33.30170   53.66580   53.35550   53.35550   20.92300   20.92300    0.00370   30.69190    0.03370    0.03370    5.06010    5.06010  -18.34670  -18.34170   26.12140 2378.44240
 6950.00000   13.56500   15.87710   17.92550   23.59000   19.56880   11.92550   51.10180    3.17550    0.00510    2.70490    0.00300    0.00300   19.56880   55.61970   55.25400   55.25400   33.59630   33.59630    0.00510   17.92550    0.06470    0.06470    4.98670    4.98670  -14.79010  -13.28940   13.56500 2364.51590
 7000.00000   91.69260   61.39810   67.30430   75.78270   80.57400   10.81060   12.41100    2.06060    0.01970    2.69800    0.00700    0.00700   80.57400   51.44260   50.45140   50.45140   24.63580   24.63580    0.01970   67.30430    0.01880    0.01880    4.87530    4.87530  -35.06180  -32.98160   91.69260 2388.83450
 7050.00000    7.56230   41.28010   14.32710    9.94880    5.36370   11.41390  186.43850    2.66390    0.06320    2.59460    0.06750    0.06750    5.36370   53.66640   53.30390   53.30390   24.02470   24.02470    0.06320   14.32710    0.05630    0.05630    4.93190    4.93190  -97.31470  -95.21640    7.56230 2373.42040
 7100.00000    4.31640   46.79740    6.42790    3.41440    1.82110   10.26750  549.11870    1.51750    0.04140    2.51470    0.11420    0.11420    1.82110   60.06770   59.72050   59.72050   19.20120   19.20120    0.04140    6.42790    0.10150    0.10150    4.79980    4.79980  -99.05230  -96.93590    4.31640 2410.02860
 7150.00000  112.56770  119.74220  127.78260  154.67770  180.01690   10.40090    5.55500    1.65090    0.07620    2.69720    0.00750    0.00750  180.01690   50.54510   50.25820   50.25820   33.88450   33.88450    0.07620  127.78260    0.03120    0.03120    4.84580    4.84580  -57.33700  -55.20240  112.56770 2379.78520
 7200.00000   14.56390  195.61060   13.22420   20.89540    7.94060   10.29480  125.93510    1.54480    0.03810    2.73940   -0.01720   -0.01720    7.94060   54.61550   53.98160   53.98160   38.93860   38.93860    0.03810   13.22420    0.03700    0.03700    4.72260    4.72260  -65.34530  -63.19260   14.56390 2271.22120
 7250.00000    4.49670    9.64330    5.12560    2.31470    1.82070    9.34830  549.23930    0.59830    0.05910    2.51680    0.11300    0.11300    1.82070   60.17320   59.86000   59.86000   19.12940   19.12940    0.05910    5.12560    0.10110    0.10110    4.43780    4.43780  -99.27660  -97.10580    4.49670 2441.47560
