~Version ---------------------------------------------------
VERS.      2.0 : CWLS log ASCII Standard -VERSION 2.0
WRAP.      YES : MULTIPLE LINES PER DEPTH STEP
CREA. 09/17/13 : LAS CREATION DATE
~Well ------------------------------------------------------
STRT.FT                   2000.0 : START DEPTH
STOP.FT                  11500.0 : STOP DEPTH
STEP.FT                 50.00000 : STEP LENGTH
NULL.                    -999.25 : NULL VALUE
COMP. LADD PETROLEUM CORPORATION : COMPANY
WELL.        LADD FITZSIMMONS #1 : WELL
FLD .                    WILDCAT : FIELD
LOC .                            : LOCATION
CNTY.                     DIMMIT : COUNTY
STAT.                      TEXAS : STATE
CTRY.   UNITED STATES OF AMERICA : COUNTRY
SRVC.               Schlumberger : SERVICE COMPANY
DATE.                19-Jan-1978 : LOGDATE
API .             42127315740000 : API NUMBER
UWI .             42127315740000 : UNIQUE WELL ID
SLAT.WGS84         28.2507010101 : SURFACE LATITUDE
SLON.WGS84       -100.0580378891 : SURFACE LONGITUDE
~Curve Information -----------------------------------------
DEPT    .FT    : DEPTH FEET
CALDED  .IN    : CALIPER FROM DENSITY LOG, DEPTH ADJUSTED WITH [SPRED]
CALWS   .IN    : CALIPER [CALDED]
CILDED  .MMHO  : CONDUCTIVITY FROM RESISTIVITY LOG
CONDWS  .MMHO  : CONDUCTIVITY [1000/DRESWS]
CORRED  .G/C3  : DENSITY CORRECTION FROM DENSITY LOG, DEPTH ADJUSTED WITH [SPRED]
DCORWS  .G/C3  : DENSITY CORRECTION [CORRED]
DENWS   .G/C3  : BULK DENSITY [M=2.71 F=1.0] [RHOBED]
DPHILSED.V/V   : DENSITY POROSITY [M=2.71 F=1.0] FROM DENSITY LOG, DEPTH ADJUSTED WITH [SPRED]
DPHISSED.V/V   : DENSITY POROSITY [M=2.65 F=1.0] FROM DENSITY LOG, DEPTH ADJUSTED WITH [SPRED]
DPOLSWS .V/V   : DEBSITY POROSITY LIMESTONE [CALCULATED FROM DENWS]
DRESWS  .OHMM  : DEEP RESISTIVITY [ILDED] IF DRESWS<1;1000/CONDWS
DTED    .US/F  : DELTA TIME FROM SONIC LOG
DTWS    .US/F  : DELTA TIME [DTED]
GRDED   .GAPI  : GAMMA RAY FROM DENSITY LOG, DEPTH ADJUSTED WITH [SPRED]
GRRED   .GAPI  : GAMMA RAY FROM RESISTIVITY LOG
GRWS    .GAPI  : GAMMA RAY [GRRED], SPLICED WITH [GRDED] FROM TOP TO 5160'
ILDED   .OHMM  : INDUCTION LOG DEEP RESISTIVITY
ILMED   .OHMM  : INDUCTION LOG MEDIUM RESISTIVITY
LL8ED   .OHMM  : 8 INCH LATEROLOG RESISTIVITY
MRESWS  .OHMM  : MEDIUM RESISTIVITY [ILMED]
NPHILSED.V/V   : NEUTRON POROSITY LIMESTONE FROM DENSITY LOG, DEPTH ADJUSTED WITH [SPRED]
NPHISSED.V/V   : NEUTRON POROSITY SANDSTONE FROM DENSITY LOG, DEPTH ADJUSTED WITH [SPRED]
NPOLSWS .V/V   : NEUTRON POROSITY LIMESTONE [NPHILSED], MATRIX CONVERTED [NPHISSED] TO LIMESTONE [TOP-5100]
RHOBED  .G/C3  : BULK DENSITY FROM DENSITY LOG, DEPTH ADJUSTED WITH [SPRED]
SPHIED  .V/V   : SONIC POROSITY FROM SONIC LOG
SPOWS   .V/V   : SONIC POROSITY [SPHIED]
SPRED   .MV    : SPONTANEOUS POTENTIAL FROM RESISTIVITY LOG
SPWS    .MV    : SPONTANEOUS POTENTIAL [BASELINE 0 MV] [SPRED]
SRESWS  .OHMM  : SHALLOW RESISTIVITY [LL8ED]
~Params ----------------------------------------------------
EKB .F                  728.0 : Kelly bushing
EGL .F                  710.0 : Ground level
EDF .F                  727.0 : Drilling floor
EPD .F                  710.0 : Permanent datum
TD  .F                11519.0 : Total depth
DATE.             19-JAN-1978 : DATE LOGGED
CLNT.                 A2DTECH : CLIENT CODE
SL  . 7000' FNEL & 7500' FSEL : SURFACE LOCATION
PD  .                      GL : PERMANENT DATUM
LMF .                      KB : LOG MEASURED FROM
DMF .                      KB : DRILLING MEASURED FROM
DAPD.F                     18 : FEET ABOVE PERMANENT DATUM
DD  .F                  11518 : DEPTH DRILLER
DL  .F                  11519 : DEPTH LOGGER
BLI .F                  11513 : BOTTOM LOG INTERVAL
TLI .F                   9875 : TOP LOG INTERVAL
CS1 .IN                 7.625 : CASING SIZE
CBD1.          7.625" @ 9920' : CASING DRILLER 1
CBL1.F                   9875 : CASING LOGGER 1
BS1 .IN                   6.5 : BIT SIZE
BSD1.F                  11518 : DEPTH DRILLED WITH BIT1
DFT .               SPER-TANN : TYPE FLUID IN HOLE
DFD .                    16.5 : DENSITY
DFV .                      50 : VISCOSITY
DFPH.                    11.8 : PH
MSS .              CIRC. TANK : SOURCE OF SAMPLE
RMS .OHMM                1.41 : RM
RMF .OHMM                0.51 : RMF
RMC .OHMM                 4.6 : RMC
MFSS.                    MEAS : SOURCE RMF.
MCSS.                    CALC : SOURCE RMC.
RMB .OHMM                0.38 : RM. AT BHT
BHT .F                    260 : BHT.
TCS .HRS                 1000 : TIME CIRC. STOPPED
TLAB.                    1500 : TIME LOGGER AT BOTTOM
LUN .                    7739 : LOGGING UNIT NUMBER
LUL .                  LAREDO : LOGGING UNIT LOCATION
ENGI.                   LOGAL : RECORDED BY
WITN.                 ELLISON : WITNESSED BY
ORIG.             1" 5" PRINT : ORIGIN OF DATA
UWI .          42127315740000 : UNIQUE WELL ID
DICO.  A2D TECHNOLOGIES, INC. : DIGITIZING COMPANY
~Other -----------------------------------------------------
~ASCII -----------------------------------------------------
# ...
 8250.00000    9.62300    9.62300   11.16410   11.16410    0.04040    0.04040    2.61140    0.05530    -999.25    0.05770   89.57280   55.10350   55.10350   15.50750   13.51520   13.51520    -999.25    -999.25    -999.25    -999.25    0.06470    -999.25    0.06470    2.61140    0.05300    0.05300 -184.81110 -145.35100    -999.25
 8300.00000    9.78990    9.78990   11.37640   11.37640   -0.00200   -0.00200    2.55800    0.11610    -999.25    0.08890   87.90130   59.63050   59.63050   17.22150   12.17710   12.17710    -999.25    -999.25    -999.25    -999.25    0.06480    -999.25    0.06480    2.55800    0.08200    0.08200 -159.80750 -120.04860    -999.25
 8350.00000    9.32380    9.32380   14.19020   14.19020    0.03330    0.03330    2.53390    0.10510    -999.25    0.10300   70.47120   60.53830   60.53830   13.66370   10.53040   10.53040    -999.25    -999.25  199.68560    -999.25    0.08610    -999.25    0.08610    2.53390    0.08920    0.08920 -141.05430 -100.99650  199.68560
 8400.00000    9.33810    9.33810   16.59890   16.59890    0.02160    0.02160    2.51900    0.11870    -999.25    0.11170   60.24500   60.90160   60.90160   14.41810   12.05140   12.05140  154.88350    -999.25   88.04600    -999.25    0.09270    -999.25    0.09270    2.51900    0.09070    0.09070 -144.51320 -104.15660   88.04600
 8450.00000    9.70930    9.70930   14.70410   14.70410    0.04140    0.04140    2.63380    0.05890    -999.25    0.04460   68.00820   55.62470   55.62470   18.58700   13.15430   13.15430  190.07220    -999.25  119.54610    -999.25    0.03940    -999.25    0.03940    2.63380    0.05500    0.05500 -148.66990 -108.01440  119.54610
 8500.00000    9.92040    9.92040    9.59910    9.59910   -0.00520   -0.00520    2.67510   -0.01030    -999.25    0.02040  104.17640   50.36710   50.36710   25.43340   17.43750   17.43750    -999.25    -999.25    -999.25    -999.25    0.00350    -999.25    0.00350    2.67510    0.01940    0.01940 -187.64920 -146.69490    -999.25
 8550.00000    9.88730    9.88730    9.91170    9.91170    0.01040    0.01040    2.68760    0.01630    -999.25    0.01310  100.89090   50.99120   50.99120   17.11570   14.57580   14.57580    -999.25    -999.25    -999.25    -999.25    0.00980    -999.25    0.00980    2.68760    0.02270    0.02270 -200.47440 -159.22120    -999.25
 8600.00000    9.91210    9.91210    9.43670    9.43670    0.07500    0.07500    2.74270    0.00310    -999.25   -0.01910  105.96920   49.03050   49.03050   21.81750   13.59540   13.59540    -999.25    -999.25    -999.25    -999.25    0.00090    -999.25    0.00090    2.74270    0.01140    0.01140 -185.53710 -143.98510    -999.25
 8650.00000   12.48010   12.48010   18.24430   18.24430    0.13190    0.13190    2.63200    0.03990    -999.25    0.04560   54.81160   51.41930   51.41930   17.60530   13.73730   13.73730   92.24510    -999.25  102.88690    -999.25    0.00370    -999.25    0.00370    2.63200    0.02730    0.02730 -171.55990 -129.70910  102.88690
 8700.00000   14.24830   14.24830   13.56220   13.56220    0.13610    0.13610    2.49020    0.10360    -999.25    0.12850   73.73430   49.90190   49.90190   17.51440   15.05750   15.05750  161.77290    -999.25  171.89210    -999.25    0.01040    -999.25    0.01040    2.49020    0.02010    0.02010 -177.69940 -135.54970  171.89210
 8750.00000   10.43010   10.43010   30.04450   30.04450    0.11550    0.11550    2.64300    0.01510    -999.25    0.03920   33.28400   49.99840   49.99840   17.30270   12.91560   12.91560   47.68090    -999.25   69.16160    -999.25    0.03430    -999.25    0.03430    2.64300    0.02350    0.02350 -185.26350 -142.81500   69.16160
 8800.00000    9.60580    9.60580   24.46340   24.46340    0.03770    0.03770    2.73530    0.01930    -999.25   -0.01480   40.87740   51.84200   51.84200   17.57950   15.05400   15.05400   62.04240    -999.25  173.80820    -999.25    0.00740    -999.25    0.00740    2.73530    0.02790    0.02790 -189.04090 -146.29350  173.80820
 8850.00000    9.66420    9.66420   23.05060   23.05060    0.10710    0.10710    2.64650    0.07360    -999.25    0.03710   43.38280   51.61830   51.61830   33.98550   23.62350   23.62350   53.36730    -999.25   98.23080    -999.25    0.01840    -999.25    0.01840    2.64650    0.02970    0.02970 -172.76580 -129.71960   98.23080
 8900.00000    9.45510    9.45510   44.32050   44.32050    0.00260    0.00260    2.70690    0.00630    -999.25    0.00180   22.56290   57.09250   57.09250   42.23200   30.43520   30.43520   28.77310    -999.25  200.84650    -999.25    0.03630    -999.25    0.03630    2.70690    0.06350    0.06350 -129.88440  -86.53930  200.84650
 8950.00000   10.32720   10.32720   26.16960   26.16960    0.20680    0.20680    2.70740    0.03280    -999.25    0.00150   38.21230   51.14100   51.14100   27.08450   19.99340   19.99340   64.18760    -999.25  199.89260    -999.25    0.01160    -999.25    0.01160    2.70740    0.02610    0.02610 -120.46530  -76.82140  199.89260
 9000.00000    9.53080    9.53080   43.66380   43.66380    0.00440    0.00440    2.71310    0.00430    -999.25   -0.00180   22.90230   52.23340   52.23340   33.84910   23.00410   23.00410   28.94190    -999.25  147.86700    -999.25    0.03040    -999.25    0.03040    2.71310    0.03300    0.03300 -110.09930  -66.15650  147.86700
 9050.00000    9.55230    9.55230   80.42940   80.42940    0.02030    0.02030    2.72450    0.00480    -999.25   -0.00850   12.43330   54.76240   54.76240   23.78930   18.44760   18.44760   11.93640    -999.25   31.64590    -999.25    0.03590    -999.25    0.03590    2.72450    0.05240    0.05240  -48.35730   -4.11570   31.64590
 9100.00000    9.53970    9.53970  127.95650  127.95650    0.01670    0.01670    2.69720    0.01440    -999.25    0.00750    7.81520   62.79950   62.79950   44.31710   26.68090   26.68090    7.42660    -999.25   12.74490    -999.25    0.09530    -999.25    0.09530    2.69720    0.10320    0.10320  -66.70930  -22.94370   12.74490
 9150.00000    9.56690    9.56690   43.29090   43.29090    0.00410    0.00410    2.71330   -0.00240    -999.25   -0.00190   23.09950   53.77720   53.77720   27.95270   19.83120   19.83120   26.81060    -999.25   46.20110    -999.25    0.03350    -999.25    0.03350    2.71330    0.04320    0.04320  -86.46650  -43.27280   46.20110
 9200.00000   10.51660   10.51660   58.29690   58.29690    0.14330    0.14330    2.55850    0.09450    -999.25    0.08860   17.15360   51.16010   51.16010   28.29620   22.36290   22.36290   20.44250    -999.25   52.26690    -999.25    0.05920    -999.25    0.05920    2.55850    0.02720    0.02720  -60.24060  -17.61870   52.26690
 9250.00000   10.72120   10.72120   19.73810   19.73810    0.19730    0.19730    2.59850    0.06700    -999.25    0.06520   50.66340   51.85490   51.85490   17.02380   11.63520   11.63520   93.96980    -999.25  151.12220    -999.25    0.04130    -999.25    0.04130    2.59850    0.03640    0.03640 -109.81320  -67.76310  151.12220
 9300.00000   10.45340   10.45340   46.90590   46.90590    0.04960    0.04960    2.53090    0.10710    -999.25    0.10470   21.31930   54.67130   54.67130   29.57430   18.68710   18.68710   27.68610    -999.25   52.41010    -999.25    0.03780    -999.25    0.03780    2.53090    0.04870    0.04870  -57.43330  -15.95510   52.41010
 9350.00000    9.55870    9.55870   52.17330   52.17330    0.15110    0.15110    2.71150    0.02020    -999.25   -0.00090   19.16690   56.68090   56.68090   38.54680   26.46420   26.46420   22.42220    -999.25   38.37530    -999.25    0.08090    -999.25    0.08090    2.71150    0.06220    0.06220  -59.09920  -18.19280   38.37530
 9400.00000   12.24370   12.24370   14.79240   14.79240    0.18040    0.18040    2.45330    0.14580    -999.25    0.15010   67.60230   51.22010   51.22010   13.51250    9.78930    9.78930  120.12440    -999.25  183.29380    -999.25    0.04650    -999.25    0.04650    2.45330    0.02240    0.02240 -130.65670  -90.32210  183.29380
 9450.00000   12.05570   12.05570   12.57530   12.57530    0.20770    0.20770    2.49470    0.13510    -999.25    0.12590   79.52100   48.79380   48.79380   21.91740   15.57450   15.57450  200.22050    -999.25  200.31790    -999.25    0.03360    -999.25    0.03360    2.49470    0.01000    0.01000 -124.58480  -84.82200  200.31790
