~Version ---------------------------------------------------
VERS. 2.0 : CWLS log ASCII Standard -VERSION 2.0
WRAP.  NO : ONE LINE PER DEPTH STEP
~Well ------------------------------------------------------
STRT.F                  3950.0 : START DEPTH
STOP.F                  8850.0 : STOP DEPTH
STEP.F                50.00000 : STEP LENGTH
NULL.                  -999.25 : NULL VALUE
COMP.       CHAMPLIN PETROLEUM : COMPANY
WELL.           COTTON W.G. #1 : WELL
FLD .                 GIDDINGS : FIELD
LOC .                          : LOCATION
CNTY.                 BURLESON : COUNTY
STAT.                    TEXAS : STATE
CTRY. UNITED STATES OF AMERICA : COUNTRY
SRVC.             Schlumberger : SERVICE COMPANY
DATE.              18-Sep-1981 : LOGDATE
API .           42051318310000 : API NUMBER
UWI .           42051318310000 : UNIQUE WELL ID
SLAT.WGS84       30.5059248525 : SURFACE LATITUDE
SLON.WGS84      -96.5864780299 : SURFACE LONGITUDE
~Curve Information -----------------------------------------
DEPT   .F    0   1   0  0 : 1 MEASURED DEPTH
NPHI_SS.DEC  42 890 03 00 : NEUTRON POROSITY SANDSTONE
GRR    .GAPI 07 310 01 00 : GAMMA RAY FROM RESISTIVITY LOG
DPHI_SS.DEC  45 890 12 00 : DENSITY POROSITY SANDSTONE
SPR    .MV   07 010 01 00 : SPONTANEOUS POTENTIAL FROM RESISTIVITY LOG
SFLU   .OHMM 07 220 01 00 : SHALLOW FOCUSED RESISTIVITY (UNAVERAGED)
DRHO   .G/C3 45 356 01 00 : BULK DENSITY CORRECTION
DCAL   .IN   07 280 01 00 : DIFFERENTIAL CALIPER
ILD    .OHMM 07 120 46 00 : INDUCTION DEEP RESISTIVITY
ILM    .OHMM 07 120 44 00 : INDUCTION MEDIUM RESISTIVITY
NPHI_LS.DEC  42 890 01 00 : NEUTRON POROSITY LIMESTONE
DPHI_LS.DEC  45 890 10 00 : DENSITY POROSITY LIMESTONE
RHOB   .G/C3 45 350 01 00 : BULK DENSITY
~Params ----------------------------------------------------
PD  .                     GL : PERMANENT DATUM
EPD .FT                  348 : ELEVATION PERMANENT DATUM
LMF .                    RKB : LOG MEASURED FROM
DAPD.FT                   18 : FEET ABOVE PERMANENT DATUM
DMF .                    RKB : DRILLING MEASURED FROM
EKB .FT                  366 : KELLY BUSHING
EDF .FT                  365 : DRILLING FLOOR
EGL .FT                  348 : GROUND LEVEL
DATE.               09/18/81 : RUN DATE
RUN .                      1 : RUN NUMBER
DD  .FT                 8880 : DEPTH DRILLER
DL  .FT                 8862 : DEPTH LOGGER
BLI .FT                 8856 : BOTTOM LOG INTERVAL
TLI .FT                 3960 : TOP LOG INTERVAL
CS  .IN                9.675 : CASING SIZE
CBD .FT                 3960 : CASING BOTTOM DRILLER
CBL .FT                 3960 : CASING BOTTOM LOGGER
BS  .IN                 8.75 : BIT SIZE
BSD .FT                 8880 : BIT SIZE AT DEPTH
DFT .                 BEN EX : DRILLING FLUID TYPE
DFD .                    9.1 : DRILLING FLUID DENSITY
DFV .                     40 : DRILLING FLUID VISCOSITY
DFPH.                    9.5 : DRILLING FLUID PH
DFL .                    9.2 : DRILLING FLUID LOSS
MSS .               FLOWLINE : MUD SAMPLE SOURCE
RMS .OHMM               2.28 : RESISTIVITY MUD SAMPLE
MST .DEGF                102 : MUD SAMPLE TEMPERATURE
RMF .OHMM               2.48 : RESISTIVITY MUD FILTRATE SAMPLE
MFST.DEGF                 75 : MUD FILTRATE SAMPLE TEMPERATURE
RMC .OHMM               3.42 : RESISTIVITY MUD CAKE
MCST.DEGF                102 : MUD CAKE SAMPLE TEMPERATURE
MFSS.                PRESSED : MUD FILTRATE SAMPLE SOURCE
MCSS.             CALCULATED : MUD CAKE SAMPLE SOURCE
RMB .OHMM              1.166 : RESISTIVITY MUD AT BHT
TCS .HRS                2000 : TIME CIRCULATED STOPPED
TLAB.HRS                 200 : TIME LOGGER AT BOTTOM
LUN .                   8176 : LOGGING UNIT NUMBER
LUL .                BRENHAM : LOGGING UNIT LOCATION
ENGI.                MARANUK : RECORDING ENGINEER
WITN.                CAMERON : WITNESSED BY
CLNT.                A2DTECH : CLIENT CODE
ORIG.            2" 5" PRINT : ORIGIN OF DATA
UWI .         42051318310000 : UNIQUE WELL ID
DICO. A2D Technologies, Inc. : DIGITIZING COMPANY
~Other -----------------------------------------------------
~ASCII -----------------------------------------------------
 3950.00000    0.29760   54.56530    -999.25    -999.25    -999.25    -999.25    -999.25    -999.25    -999.25    -999.25    -999.25    -999.25
 4000.00000    0.66660   29.11720    0.78630  -15.46840   18.41620   -0.02630   12.00470   13.15670   16.32770    -999.25    -999.25    -999.25
 4050.00000    0.35670   62.38110    0.29710  -59.54760   14.40620    0.04530    1.92410    4.60390    7.48670    -999.25    -999.25    -999.25
 4100.00000    0.42220   84.43650    0.20790   -8.16340    3.38410    0.10130    4.32440    2.94530    3.07750    -999.25    -999.25    -999.25
 4150.00000    0.36490   72.31080    0.15200  -10.64760    4.01240    0.07130    3.62640    4.20800    4.31090    -999.25    -999.25    -999.25
 4200.00000    0.34410   44.94210    0.26670  -52.56350   10.86480    0.06440    2.17830    4.24300    6.62110    -999.25    -999.25    -999.25
 4250.00000    0.31260   76.87270    0.18830  -35.59400    5.63140    0.06240    2.27600    4.76280    5.33920    -999.25    -999.25    -999.25
 4300.00000    0.32830   63.73350    0.21890  -25.30380    6.07610    0.04490    2.82490    3.69610    4.48330    -999.25    -999.25    -999.25
 4350.00000    0.37290   75.32840    0.21080  -34.86590    7.83110    0.08260    3.09950    4.69260    6.42690    -999.25    -999.25    -999.25
 4400.00000    0.35650   60.55100    0.24520  -55.19040   14.58230    0.07900    3.18540    4.46900    7.11290    -999.25    -999.25    -999.25
 4450.00000    0.33280   48.91150    0.28440  -60.82460   13.30510    0.05390    0.82730    3.63550    5.76410    -999.25    -999.25    -999.25
 4500.00000    0.31700   67.47720    0.23980  -46.36900    8.91610    0.02440    0.66400    3.75980    5.31160    -999.25    -999.25    -999.25
 4550.00000    0.36940   77.36190    0.17620   -6.50750    2.60460    0.10130    2.52190    2.69900    2.74830    -999.25    -999.25    -999.25
 4600.00000    0.34840   80.95110    0.13790   -6.15680    2.74720    0.08940    2.05840    2.42290    2.48910    -999.25    -999.25    -999.25
 4650.00000    0.38330   83.41020    0.15750   -6.20800    2.03290    0.09640    2.59910    2.12920    2.18770    -999.25    -999.25    -999.25
 4700.00000    0.34660   76.40430    0.17510  -10.37760    2.97940    0.03630    2.05640    2.66530    2.80290    -999.25    -999.25    -999.25
 4750.00000    0.29150   75.12370    0.13620   -9.42900    2.92380    0.02990    1.85220    2.83360    2.90580    -999.25    -999.25    -999.25
 4800.00000    0.35090   82.45150    0.17030   -5.85200    2.18630    0.05860    3.20300    2.07350    2.13030    -999.25    -999.25    -999.25
 4850.00000    0.34900   84.17160    0.12710   -4.77100    1.98790    0.09900    4.62640    1.91170    1.96580    -999.25    -999.25    -999.25
 4900.00000    0.35350   79.94480    0.12250   -5.22290    2.00410    0.09860    4.93860    1.88840    1.93990    -999.25    -999.25    -999.25
 4950.00000    0.37370   84.45650    0.11080   -7.53400    1.66620    0.09430    5.76360    1.54850    1.58610    -999.25    -999.25    -999.25
 5000.00000    0.34300   83.21050    0.11600   -7.82900    1.76650    0.06880    4.79350    1.56660    1.60460    -999.25    -999.25    -999.25
 5050.00000    0.36240   81.25220    0.22770   -6.53020    1.80720    -999.25    2.78830    1.63430    1.67390    -999.25    -999.25    -999.25
 5100.00000    0.41420   75.19400    0.19100   -8.70060    1.71470    -999.25    2.64260    1.54420    1.61970    -999.25    -999.25    -999.25
 5150.00000    0.47750   73.10480    0.34000  -10.46050    1.46990    -999.25    5.63450    1.29310    1.32560    -999.25    -999.25    -999.25
 5200.00000    0.39370   88.86560    0.25960   -5.44960    1.88660    -999.25    1.56990    1.73580    1.77880    -999.25    -999.25    -999.25
 5250.00000    0.46610   81.41140    0.45570   -9.05750    1.10250    0.05310    2.90700    1.03140    1.06170    -999.25    -999.25    -999.25
 5300.00000    0.45030   72.23530    0.27110   -3.99540    1.08120    -999.25    2.48020    0.97940    1.02860    -999.25    -999.25    -999.25
 5350.00000    0.51100   66.95510    0.30030   -2.03640    1.07240    0.10180    5.83190    0.81070    0.89450    -999.25    -999.25    -999.25
 5400.00000    0.31560   73.30080    0.12020   -4.93480    2.22740    -999.25    1.17400    1.94180    2.05570    -999.25    -999.25    -999.25
 5450.00000    0.35280   79.17320    0.18700   -5.97060    1.61360    -999.25    2.49270    1.46680    1.50270    -999.25    -999.25    -999.25
 5500.00000    0.36440   76.95710    0.11450   -4.92680    1.63160    0.05170    2.88360    1.50850    1.56580    -999.25    -999.25    -999.25
 5550.00000    0.33210   78.68670    0.10000   -7.13530    1.80840    0.06040    2.15450    1.52300    1.55990    -999.25    -999.25    -999.25
 5600.00000    0.29500   77.03380    0.08050   -5.01350    2.11300    0.07130    2.75210    1.82910    1.88160    -999.25    -999.25    -999.25
 5650.00000    0.37930   69.09660    0.13290   -5.61620    1.21070    0.06650    3.69960    1.08550    1.14440    -999.25    -999.25    -999.25
 5700.00000    0.37300   67.79350    0.10630   -9.34830    1.30100    0.05150    3.24210    1.19750    1.25590    -999.25    -999.25    -999.25
 5750.00000    0.36620   69.16170    0.11470   -8.32330    1.42920    0.05120    3.36370    1.29440    1.34790    -999.25    -999.25    -999.25
 5800.00000    0.36380   78.29660    0.11730   -7.21210    1.27930    0.05560    3.10070    1.20460    1.26180    -999.25    -999.25    -999.25
 5850.00000    0.42320   76.46800    0.11790   -8.56660    1.20480    0.09620    2.58720    1.06160    1.11040    -999.25    -999.25    -999.25
 5900.00000    0.25360   62.09380    0.09380   -6.68430    1.44270    0.02170    0.72810    1.65450    1.70040    -999.25    -999.25    -999.25
 5950.00000    0.27030   75.62160    0.06490   -6.16060    2.62270    0.09810    1.04400    2.05060    2.12340    -999.25    -999.25    -999.25
 6000.00000    0.30950   72.04230    0.13940   -6.10090    1.42180    0.04130    1.36740    1.62830    1.71650    -999.25    -999.25    -999.25
 6050.00000    0.28890   68.51290    0.11420   -8.04610    1.97530    0.04960    1.22190    1.83450    1.87910    -999.25    -999.25    -999.25
 6100.00000    0.28270   81.05670    0.10150   -4.29800    1.82840    0.07270    2.01140    1.62460    1.72020    -999.25    -999.25    -999.25
 6150.00000    0.42290   89.99560    0.15850   -7.79670    1.32310    0.08810    2.85920    1.25240    1.28490    -999.25    -999.25    -999.25
 6200.00000    0.31350   85.78230    0.11690   -2.45170    1.63720    0.09720    2.54260    1.55090    1.58850    -999.25    -999.25    -999.25
 6250.00000    0.37080  115.71770    0.16020   -3.28750    1.40950    0.08870    2.12750    1.59290    1.65020    -999.25    -999.25    -999.25
 6300.00000    0.38200   88.28490    0.13590   -5.25600    1.39800    0.09500    1.55640    1.29800    1.36420    -999.25    -999.25    -999.25
 6350.00000    0.39200  101.06000    0.18030   -2.20230    1.03730    0.05450    1.20180    0.96910    1.01980    -999.25    -999.25    -999.25
 6400.00000    0.28060   76.46490    0.06540   -2.74390    2.18920    0.09260    0.72970    2.04010    2.12700    -999.25    -999.25    -999.25
 6450.00000    0.30830   81.38550    0.07730   -2.71620    1.84050    0.06630    1.47530    1.70520    1.77890    -999.25    -999.25    -999.25
 6500.00000    0.29600  103.35620    0.10430   -2.02740    1.75930    -999.25    0.76770    1.52820    1.61980    -999.25    -999.25    -999.25
 6550.00000    0.30730   77.50690    0.08890   -4.26410    2.05200    0.10240    1.14810    1.81920    1.90810    -999.25    -999.25    -999.25
 6600.00000    0.33360   73.25030    0.10590   -4.52010    1.87230    -999.25    1.16000    1.67020    1.76540    -999.25    -999.25    -999.25
 6650.00000    0.32550   72.97800    0.08920   -2.30150    1.77070    0.08630    1.29440    1.53340    1.61180    -999.25    -999.25    -999.25
 6700.00000    0.28580   76.55870    0.07690   -2.76940    2.20510    0.09760    0.99730    1.85570    2.01320    -999.25    -999.25    -999.25
