~Version ---------------------------------------------------
VERS. 2.0 : CWLS log ASCII Standard -VERSION 2.0
WRAP.  NO : ONE LINE PER DEPTH STEP
~Well ------------------------------------------------------
STRT.F                   300.0 : START DEPTH
STOP.F                 12950.0 : STOP DEPTH
STEP.F                50.00000 : STEP LENGTH
NULL.                  -999.25 : NULL VALUE
COMP.        ADOBE OIL COMPANY : COMPANY
WELL.            REAGAN R L #1 : WELL
FLD .             BALD PRAIRIE : FIELD
LOC .                          : LOCATION
CNTY.                ROBERTSON : COUNTY
STAT.                    TEXAS : STATE
CTRY. UNITED STATES OF AMERICA : COUNTRY
SRVC.             Schlumberger : SERVICE COMPANY
DATE.              20-Jan-1977 : LOGDATE
API .           42395300370000 : API NUMBER
UWI .           42395300370000 : UNIQUE WELL ID
SLAT.WGS84        31.250529485 : SURFACE LATITUDE
SLON.WGS84      -96.4607191376 : SURFACE LONGITUDE
~Curve Information -----------------------------------------
DEPT.F                 : 
CILD.MMHO 07 110 46 00 : CONDUCTIVITY INDUCTION LOG DEEP
CALD.IN   45 280 60 00 : CALIPER FROM DENSITY LOG
DRHO.G/C3 45 356 01 00 : DENSITY CORRECTION
RHOB.G/C3 45 350 01 00 : BULK DENSITY
GRD .GAPI 45 310 01 00 : GAMMA RAY FROM DENSITY LOG
DPHI.DEC  45 890 10 00 : DENSITY POROSITY LIMESTONE
NPHI.DEC  42 890 01 00 : NEUTRON POROSITY LIMESTONE
SPR .MV   07 010 01 00 : SPONTANEOUS POTENTIAL FROM RES.
ALL8.OHMM 07 221 08 00 : AMPLIFIED LATEROLOG-8
ILD .OHMM 07 120 46 00 : INDUCTION LOG DEEP
~Params ----------------------------------------------------
PD  .                     GL : PERMANENT DATUM
EPD .F                   469 : ELEVATION PERMANENT DATUM
LMF .                     KB : LOG MEASURED FROM
DAPD.F                    20 : FEET ABOVE PERMANENT DATUM
DMF .                     KB : DRILLING MEASURED FROM
EKB .F                   489 : KELLING BUSHING
EDF .F                   488 : DRILLING FLOOR
EGL .F                   469 : GROUND LEVEL
DATE.              1-20-1977 : RUN DATE
RUN .                      1 : RUN NUMBER
DD  .F                 12948 : DEPTH DRILLER
DL  .F                 12954 : DEPTH LOGGER
BLI .F                 12948 : BOTTOM LOG INTERVAL
TLI .F                  4215 : TOP LOG INTERVAL
CS  .IN                9.625 : CASING SIZE
CBD .F                  4212 : CASING BOTTOM DRILLER
CBL .F                  4215 : CASING BOTTOM LOGGER
BS  .IN                 8.75 : BIT SIZE
BSD .F                 12948 : BIT SIZE AT DEPTH
DFT .                CLS/LCM : DRILLING FLUID TYPE
DFD .                   11.2 : DRILLING FLUID DENSITY
DFV .                     38 : DRILLING FLUID VISCOSITY
DFPH.                   11.0 : DRILLING FLUID PH
DFL .                   10.4 : DRILLING FLUID LOSS
MSS .               FLOWLINE : MUD SAMPLE SOURCE
RMS .OHMM               0.64 : RESISTIVITY MUD SAMPLE
MST .F                   104 : MUD SAMPLE TEMPERATURE
RMF .OHMM               0.66 : RESISTIVITY MUD FILTRATE SAMPLE
MFST.F                    66 : MUD FILTRATE SAMPLE TEMPERATURE
RMC .OHMM               0.91 : RESISTIVITY MUD CAKE
MCST.F                   104 : MUD CAKE SAMPLE TEMPERATURE
MFSS.                      M : MUD FILTRATE SAMPLE SOURCE
MCSS.                      C : MUD CAKE SAMPLE SOURCE
RMB .OHMM               0.25 : RESISTIVITY MUD AT BHT
TCS .HRS                1930 : TIME CURCULATED STOPPED
TLAB.HRS                1430 : TIME LOGGER AT BOTTOM
LUN .                   7720 : LOGGING UNIT NUMBER
LUL .                 PLEAS. : LOGGING UNIT LOCATION
ENGI.               BRENETTI : RECORDING ENGINEER
WITN.            DEFFENBANCH : WITNESSED BY
CLNT.                A2DTECH : CLIENT CODE
ORIG.               5" PRINT : ORIGIN OF DATA
UWI .         42395300370000 : UNIQUE WELL ID
DICO. A2D Technologies, Inc. : DIGITIZING COMPANY
~Other -----------------------------------------------------
~ASCII -----------------------------------------------------
# ...
 10200.00000  107.52000    8.98550    0.04620    2.58970   20.70030    0.07660    0.01400  -57.58510   18.50730    9.90700
 10250.00000  269.07060    8.88240    0.01940    2.59930   27.42290    0.07750    0.02560  -77.96050    9.26950    4.07920
 10300.00000   47.29200    9.11760    0.04620    2.50890   47.08310    0.09130    0.08400  -99.26470   56.37860   19.87580
 10350.00000  107.93300    8.74260    0.04840    2.51330   23.02040    0.12850    0.07600  -79.93420   40.94120    9.42550
 10400.00000   76.33960    8.92650    0.08420    2.56820   24.44960    0.07880    0.02380 -102.24360   60.49380   13.20930
 10450.00000   39.29430    8.79640    0.00670    2.54670   19.79940    0.08240    0.00820  -84.72160  128.32590   30.44010
 10500.00000   99.65170    9.07350    0.02460    2.64210   89.53900    0.03850    0.15450  -43.26540   18.82780   10.70380
 10550.00000   81.54190    8.76470    0.00000    2.61420   63.32140    0.05780    0.05420  -54.65920   23.70270   11.27330
 10600.00000  169.56220   10.60040    0.11030    2.53710   90.17210    0.15450    0.21510  -32.02770   84.60280   22.91930
 10650.00000   94.14380   10.38580    0.04470    2.52600   30.46930    0.00090    0.03230  -41.09910  119.87480   21.42280
 10700.00000   28.22970    9.23540    0.02460    2.51630   26.61340    0.14240    0.01890  -68.18920  111.18010   48.07500
 10750.00000  165.31340   11.08830    0.09990    2.29610   88.19820    0.27850    0.29350  -29.42700  115.52190    5.24840
 10800.00000   39.69150    8.98840    0.00900    2.52450   22.49960    0.12220    0.02830  -77.75570   82.60870   26.58390
 10850.00000   57.67300    8.84350    0.01040    2.54150   16.27770    0.10750    0.01180  -57.81780   33.55070   19.23910
 10900.00000   29.13970    8.68330    0.00890    2.54370   17.37690    0.09720    0.00470  -66.95100  116.16980   31.27570
 10950.00000  158.64650   10.36130    0.12070    2.40390   88.22290    0.13480    0.23110  -37.69340    9.05690    4.05570
 11000.00000   90.88330    8.97950    0.03730    2.56300   36.93490    0.03720    0.05370  -61.81620   16.19050   10.18630
 11050.00000  291.30910    9.68730    0.00970    2.62160   75.00000    0.01720    0.10680  -39.24150    5.26920    2.88200
 11100.00000  144.25040    9.01860    0.04620    2.64680   55.42400    0.05460    0.08140  -40.94410   14.28570    5.50330
 11150.00000  159.07910    8.76460    0.00890    2.63490   19.79470    0.06910    0.01140  -45.04590   21.96590   14.51030
 11200.00000   61.23180    8.80880    0.02610    2.70390   66.42460    0.03720    0.08450  -38.82040   47.20500   12.94370
 11250.00000  105.26970    9.21860    0.02270    2.69350   30.79180   -0.01840    0.02880  -28.41610   12.45320    9.22350
 11300.00000   74.57500    8.95590    0.00300    2.66100   65.76250    0.01730    0.07960  -39.13040   34.93790   16.37260
 11350.00000  181.61600    9.32550    0.06710    2.45790   77.81640    0.11790    0.14910  -30.00760   14.39720    7.68320
 11400.00000   96.93170    8.92650   -0.00920    2.50680   45.88240    0.06180    0.05730  -59.39370   20.06210   10.99410
 11450.00000  171.24680    9.42060    0.01040    2.62270   90.12240    0.05020    0.19060  -30.10840   11.77020    6.16770
 11500.00000  165.30760    9.57300    0.00080    2.65050   91.94050    0.04760    0.20620  -32.27550   11.68560    6.08710
 11550.00000  119.64010    9.60310    0.00310    2.64670   88.84870    0.02480    0.16870  -31.34670   12.58640    8.30750
 11600.00000  169.85180    9.12870    0.04520    2.64900   92.64640    0.04930    0.21020  -30.88240   12.53870    5.64180
 11650.00000  103.78060    8.80820    0.00920    2.62400   21.62040    0.04620    0.02960  -35.13920   29.83820   13.67500
 11700.00000  170.93390    9.33760    0.03930    2.59630   84.92650    0.07250    0.21240  -31.96590   11.87720    6.29370
 11750.00000  118.84220    9.11990    0.01650    2.65650  101.25000    0.02800    0.19210  -71.20780   27.13840    8.88090
 11800.00000  229.52110   10.85090    0.10130    2.61210   86.03370    0.07380    0.23290  -71.51700    7.63510    4.17910
 11850.00000  152.67410   10.70610    0.06760    2.55270   86.02940    0.07430    0.20530  -76.78020   12.32330    9.92560
 11900.00000  187.09430   12.33450    0.01600    2.58130   90.44220    0.05290    0.22220  -78.32860    9.46150    4.85060
 11950.00000  156.16350   10.82980    0.01050    2.57530   89.87140    0.08140    0.21730  -82.35290   12.22690    5.67160
 12000.00000  118.84220   11.78070    0.01050    2.55340   90.88520    0.07470    0.24810  -86.99690   12.40240    5.00000
 12050.00000  135.31480   12.27950    0.02180    2.56090   87.79690    0.09570    0.23380  -87.92610    9.52050    6.86570
 12100.00000  173.58910   11.23200    0.11340    2.65800   94.11320    0.03910    0.24230  -87.61610    9.63840    5.59700
 12150.00000   63.41780   10.07220    0.03800    2.60840   99.04520    0.05430    0.22400  -82.66250   14.26920    5.18880
 12200.00000  206.53910   10.79110    0.13440    2.64900  102.50130    0.02540    0.22670  -78.94740    7.64620    4.43640
 12250.00000  175.80710    9.94120    0.03620    2.63390  104.33830    0.06190    0.23290  -77.70900   10.75610    5.44780
 12300.00000  137.99110    9.38870    0.01870    2.62040   99.48290    0.03720    0.19410  -76.47060   12.76920    3.35820
 12350.00000  249.12240    9.50570   -0.00520    2.65500   77.65060    0.02450    0.15000  -77.70900    6.03090    3.80600
 12400.00000  141.11120    9.54420    0.00520    2.65650  100.96980    0.03560    0.18830  -77.08980   17.92260    6.79100
 12450.00000  193.17970    9.70580    0.01940    2.73030   98.60290    0.02540    0.19280  -64.08670   11.29230    4.62690
 12500.00000  179.82810    9.26030    0.00890    2.67610  100.67460    0.02230    0.20260  -66.56350   12.43610    5.29890
 12550.00000   53.78750    8.91180    0.01040    2.56990   61.77920    0.07610    0.04700  -57.58510   68.69720   16.56750
 12600.00000   31.89910    8.95580    0.00520    2.54520   51.02460    0.09880    0.03950  -74.14860   22.38460   26.49250
 12650.00000   33.37620    8.77940   -0.00070    2.66180   59.42350    0.00660    0.06000  -78.25080   10.72660   29.47740
 12700.00000   21.31110    8.77940    0.01870    2.73030   28.96090   -0.00590    0.01320  -84.10720   74.86650   65.53140
 12750.00000   12.98220    8.80890    0.00900    2.71870   48.79350   -0.00150    0.00780 -116.17650   98.57570   99.40210
 12800.00000   46.73590    8.79400    0.00750    2.66010   18.05820    0.04090    0.01940 -122.75540    9.24330   20.52240
 12850.00000   16.76670    8.73540    0.00750    2.71450   25.00000   -0.00270    0.01050  -72.98760   79.14860   46.84080
 12900.00000   10.38580    8.67650    0.00820    2.69560   33.15140    0.01370    0.00870  -81.42410  125.19290  110.99500
 12950.00000    -999.25    8.67400    0.00600    2.69640   89.42750    0.01360    0.01000    -999.25    -999.25    -999.25
