~Version ---------------------------------------------------
VERS. 2.0 : CWLS log ASCII Standard -VERSION 2.0
WRAP. YES : MULTIPLE LINES PER DEPTH STEP
~Well ------------------------------------------------------
STRT.FT                   1000.0 : START DEPTH
STOP.FT                  11500.0 : STOP DEPTH
STEP.FT                 50.00000 : STEP LENGTH
NULL.                    -999.25 : NULL VALUE
COMP. KAISER-FRANCIS OIL COMPANY : COMPANY
WELL.            D.C. MCMANUS #1 : WELL
FLD .              AUSTIN PIERCE : FIELD
LOC .                            : LOCATION
CNTY.                   GONZALES : COUNTY
STAT.                      TEXAS : STATE
CTRY.   UNITED STATES OF AMERICA : COUNTRY
SRVC.               Schlumberger : SERVICE COMPANY
DATE.                01-Dec-1996 : LOGDATE
API .             42177320060000 : API NUMBER
UWI .             42177320060000 : UNIQUE WELL ID
SLAT.WGS84          29.374572664 : SURFACE LATITUDE
SLON.WGS84        -97.3289574079 : SURFACE LONGITUDE
~Curve Information -----------------------------------------
DEPT    .FT    : DEPTH FEET
AO10ED  .OHMM  : 10 INCH ARRAY RESISTIVITY ONE FOOT RESOLUTION
AO20ED  .OHMM  : 20 INCH ARRAY RESISTIVITY ONE FOOT RESOLUTION
AO30ED  .OHMM  : 30 INCH ARRAY RESISTIVITY ONE FOOT RESOLUTION
AO60ED  .OHMM  : 60 INCH ARRAY RESISTIVITY ONE FOOT RESOLUTION
AO90ED  .OHMM  : 90 INCH ARRAY RESISTIVITY ONE FOOT RESOLUTION
CALWS   .IN    : CALIPER [DCALED+BITED]
CONDWS  .MMHO  : CONDUCTIVITY [1000/DRESWS]
DCALRED .IN    : DIFFERENTIAL CALIPER FROM RESISTIVITY LOG
DCORWS  .G/C3  : DENSITY CORRECTION [HDRAED]
DENWS   .G/C3  : BULK DENSITY [M=2.71 F=1.0] [CALCULATED FROM DPOWS]
DPHZLSED.V/V   : DENSITY POROSITY [M=2.71 F=1.0] FROM DENSITY LOG
DPOWS   .V/V   : DENSITY POROSITY [M=2.71 F=1.0] [DPHZLSED]
DRESWS  .OHMM  : DEEP RESISTIVITY [AO90ED]
DTED    .US/F  : DELTA TIME FROM SONIC LOG
DTWS    .US/F  : DELTA TIME [DTED]
GRRED   .GAPI  : GAMMA RAY FROM RESISTIVITY LOG
GRWS    .GAPI  : GAMMA RAY [GRRED, CSG ABOVE 1070F]
HDRAED  .G/C3  : DENSITY CORRECTION FROM DENSITY LOG
MRESWS  .OHMM  : MEDIUM RESISTIVITY [AO30ED]
NPHILSED.V/V   : NEUTRON POROSITY LIMESTONE FROM DENSITY LOG
NPOWS   .V/V   : NEUTRON POROSITY LIMESTONE [NPHILSED]
SPRED   .MV    : SPONTANEOUS POTENTIAL FROM RESISTIVITY LOG
SPWS    .MV    : SPONTANEOUS POTENTIAL [BASELINE 0 MV] [SPRED]
SRESWS  .OHMM  : SHALLOW RESISTIVITY [AO10ED]
TENRED  .LBF   : TENSION FROM RESISTIVITY LOG
~Params ----------------------------------------------------
PD  .                     GL : PERMANENT DATUM
EPD .FT               257.26 : ELEVATION PERMANENT DATUM
LMF .                     KB : LOG MEASURED FROM
DAPD.FT                 16.3 : FEET ABOVE PERMANENT DATUM
DMF .                     KB : DRILLING MEASURED FROM
EKB .FT               275.58 : KELLY BUSHING
EDF .FT                  275 : DRILLING FLOOR
EGL .FT               257.26 : GROUND LEVEL
DATE.               12/01/96 : RUN DATE
RUN .                      1 : RUN NUMBER
DD  .FT                11530 : DEPTH DRILLER
DL  .FT                11500 : DEPTH LOGGER
BLI .FT                11500 : BOTTOM LOG INTERVAL
TLI .FT                 1070 : TOP LOG INTERVAL
CS  .IN                9.625 : CASING SIZE
CBD .FT                 1061 : CASING BOTTOM DRILLER
CBL .FT                 1070 : CASING BOTTOM LOGGER
BS  .IN                 8.75 : BIT SIZE
BSD .FT                11530 : BIT SIZE AT DEPTH
DFT .                 LOLIME : DRILLING FLUID TYPE
DFD .                   10.1 : DRILLING FLUID DENSITY
DFV .                     47 : DRILLING FLUID VISCOSITY
DFPH.                    9.5 : DRILLING FLUID PH
MSS .                MUD PIT : MUD SAMPLE SOURCE
RMS .OHMM               4.36 : RESISTIVITY MUD SAMPLE
MST .FT                   75 : MUD SAMPLE TEMPERATURE
RMF .OHMM                3.7 : RESISTIVITY MUD FILTRATE SAMPLE
MFST.FT                   75 : MUD FILTRATE SAMPLE TEMPERATURE
RMC .OHMM                6.5 : RESISTIVITY MUD CAKE
MCST.FT                   75 : MUD CAKE SAMPLE TEMPERATURE
MFSS.              MUD PRESS : MUD FILTRATE SAMPLE SOURCE
MCSS.                   CALC : MUD CAKE SAMPLE SOURCE
RMB .OHMM              1.515 : RESISTIVITY MUD AT BHT
TCS .HRS                 430 : TIME CURCULATED STOPPED
TLAB.HRS                 900 : TIME LOGGER AT BOTTOM
LUN .                   3075 : LOGGING UNIT NUMBER
LUL .               VICTORIA : LOGGING UNIT LOCATION
ENGI.                  NAHRI : RECORDING ENGINEER
WITN.                   RUSS : WITNESSED BY
CLNT.                A2DTECH : CLIENT CODE
ORIG.               5" PRINT : ORIGIN OF DATA
UWI .         42177320060000 : UNIQUE WELL ID
DICO. A2D Technologies, Inc. : DIGITIZING COMPANY
~Other -----------------------------------------------------
~ASCII -----------------------------------------------------
 1000.00000    -999.25    -999.25    -999.25    -999.25    -999.25    -999.25    -999.25    -999.25    -999.25    -999.25    -999.25    -999.25    -999.25    -999.25    -999.25   57.88560   57.88560    -999.25    -999.25    -999.25    -999.25    -999.25    -999.25    -999.25    -999.25
 1050.00000    -999.25    -999.25    -999.25    -999.25    -999.25    -999.25    -999.25    -999.25    -999.25    -999.25    -999.25    -999.25    -999.25    -999.25    -999.25   95.06740   95.06740    -999.25    -999.25    -999.25    -999.25    -999.25    -999.25    -999.25    -999.25
 1100.00000    0.98200    1.00760    1.06250    1.17760    1.22560    -999.25  815.92690    -999.25    -999.25    -999.25    -999.25    -999.25    1.22560    -999.25    -999.25   91.71420   91.71420    -999.25    1.06250    -999.25    -999.25  -13.64940   -4.14630    0.98200 1197.30630
 1150.00000    1.13660    1.21230    1.23110    1.27130    1.29710    -999.25  770.95060    -999.25    -999.25    -999.25    -999.25    -999.25    1.29710    -999.25    -999.25   72.64960   72.64960    -999.25    1.23110    -999.25    -999.25  -14.09380   -4.39960    1.13660 1240.10420
 1200.00000    0.83090    0.83590    0.84270    0.87610    0.88480    -999.25 1130.19890    -999.25    -999.25    -999.25    -999.25    -999.25    0.88480    -999.25    -999.25   84.29440   84.29440    -999.25    0.84270    -999.25    -999.25  -13.68220   -3.79690    0.83090 1268.68690
 1250.00000    3.49680    3.12050    3.00390    2.81620    2.77760    -999.25  360.02300    -999.25    -999.25    -999.25    -999.25    -999.25    2.77760    -999.25    -999.25   77.94730   77.94730    -999.25    3.00390    -999.25    -999.25  -49.17120  -39.09480    3.49680 1323.09140
 1300.00000    0.81130    0.77830    0.80140    0.86430    0.90580    -999.25 1103.99650    -999.25    -999.25    -999.25    -999.25    -999.25    0.90580    -999.25    -999.25   96.83760   96.83760    -999.25    0.80140    -999.25    -999.25  -15.59820   -5.33060    0.81130 1295.89560
 1350.00000    3.58300    3.16720    2.80200    2.23660    1.83450    -999.25  545.10770    -999.25    -999.25    -999.25    -999.25    -999.25    1.83450    -999.25    -999.25   72.30780   72.30780    -999.25    2.80200    -999.25    -999.25  -31.95110  -21.49240    3.58300 1291.54020
 1400.00000    1.35210    1.29670    1.22220    1.10710    1.02810    -999.25  972.66800    -999.25    -999.25    -999.25    -999.25    -999.25    1.02810    -999.25    -999.25   87.62920   87.62920    -999.25    1.22220    -999.25    -999.25  -47.45120  -36.80140    1.35210 1273.35570
 1450.00000    3.28480    2.42640    2.03120    1.47220    1.32170    -999.25  756.60140    -999.25    -999.25    -999.25    -999.25    -999.25    1.32170    -999.25    -999.25   79.60630   79.60630    -999.25    2.03120    -999.25    -999.25  -59.47640  -48.63550    3.28480 1333.61280
 1500.00000    2.56110    2.23260    1.84600    1.33280    1.29100    -999.25  774.59330    -999.25    -999.25    -999.25    -999.25    -999.25    1.29100    -999.25    -999.25   84.74730   84.74730    -999.25    1.84600    -999.25    -999.25  -56.78400  -45.75200    2.56110 1328.44100
 1550.00000    1.52900    1.39400    1.28860    1.02140    0.92800    -999.25 1077.58620    -999.25    -999.25    -999.25    -999.25    -999.25    0.92800    -999.25    -999.25   86.60620   86.60620    -999.25    1.28860    -999.25    -999.25  -42.96840  -31.74530    1.52900 1328.31770
 1600.00000    1.03790    1.03760    1.06550    1.12030    1.14260    -999.25  875.19690    -999.25    -999.25    -999.25    -999.25    -999.25    1.14260    -999.25    -999.25   94.20070   94.20070    -999.25    1.06550    -999.25    -999.25  -16.93120   -5.51700    1.03790 1347.88230
 1650.00000    0.99460    0.97860    0.95890    0.95350    0.94070    -999.25 1063.03820    -999.25    -999.25    -999.25    -999.25    -999.25    0.94070    -999.25    -999.25   88.06000   88.06000    -999.25    0.95890    -999.25    -999.25  -13.28520   -1.67990    0.99460 1368.87100
 1700.00000    1.71460    1.44450    1.11190    0.98780    0.93680    -999.25 1067.46370    -999.25    -999.25    -999.25    -999.25    -999.25    0.93680    -999.25    -999.25   72.04240   72.04240    -999.25    1.11190    -999.25    -999.25  -56.68670  -44.89030    1.71460 1355.11830
 1750.00000    0.99130    0.96360    0.95410    0.95230    0.94590    -999.25 1057.19420    -999.25    -999.25    -999.25    -999.25    -999.25    0.94590    -999.25    -999.25   97.09580   97.09580    -999.25    0.95410    -999.25    -999.25  -19.74100   -7.75350    0.99130 1333.12290
 1800.00000    2.69310    1.82990    1.47360    1.09820    1.02110    -999.25  979.33590    -999.25    -999.25    -999.25    -999.25    -999.25    1.02110    -999.25    -999.25   81.48920   81.48920    -999.25    1.47360    -999.25    -999.25  -60.41010  -48.23140    2.69310 1377.23120
 1850.00000    1.96360    1.44170    1.18340    0.86830    0.86250    -999.25 1159.42030    -999.25    -999.25    -999.25    -999.25    -999.25    0.86250    -999.25    -999.25   86.05870   86.05870    -999.25    1.18340    -999.25    -999.25  -50.44590  -38.07610    1.96360 1343.85900
 1900.00000    2.02210    1.47940    1.23510    1.00730    0.97170    -999.25 1029.12410    -999.25    -999.25    -999.25    -999.25    -999.25    0.97170    -999.25    -999.25   91.83710   91.83710    -999.25    1.23510    -999.25    -999.25  -46.86040  -34.29950    2.02210 1372.19840
 1950.00000    1.05870    0.87950    0.87110    0.86990    0.86420    -999.25 1157.13950    -999.25    -999.25    -999.25    -999.25    -999.25    0.86420    -999.25    -999.25   65.09200   65.09200    -999.25    0.87110    -999.25    -999.25  -64.95220  -52.20020    1.05870 1383.34580
 2000.00000    3.17680    2.03250    1.52760    1.06650    1.05600    -999.25  946.96970    -999.25    -999.25    -999.25    -999.25    -999.25    1.05600    -999.25    -999.25  107.02730  107.02730    -999.25    1.52760    -999.25    -999.25  -65.49000  -52.44940    3.17680 1391.92070
 2050.00000    1.06910    1.07420    1.01330    0.89290    0.87810    -999.25 1138.82250    -999.25    -999.25    -999.25    -999.25    -999.25    0.87810    -999.25    -999.25   90.76220   90.76220    -999.25    1.01330    -999.25    -999.25  -33.16410  -18.95680    1.06910 1385.49000
 2100.00000    1.09210    1.02500    0.99270    0.87680    0.86870    -999.25 1151.14540    -999.25    -999.25    -999.25    -999.25    -999.25    0.86870    -999.25    -999.25   97.99430   97.99430    -999.25    0.99270    -999.25    -999.25  -23.07090   -7.69690    1.09210 1430.43590
 2150.00000    1.01710    1.00120    0.98260    0.98010    0.96760    -999.25 1033.48490    -999.25    -999.25    -999.25    -999.25    -999.25    0.96760    -999.25    -999.25  112.38040  112.38040    -999.25    0.98260    -999.25    -999.25  -20.21870   -3.67800    1.01710 1410.04270
 2200.00000    0.76090    0.76520    0.77130    0.85010    0.85830    -999.25 1165.09390    -999.25    -999.25    -999.25    -999.25    -999.25    0.85830    -999.25    -999.25  103.55310  103.55310    -999.25    0.77130    -999.25    -999.25  -18.28400   -0.51830    0.76090 1412.39810
 2250.00000    0.80740    0.81320    0.82070    0.93120    0.94050    -999.25 1063.26420    -999.25    -999.25    -999.25    -999.25    -999.25    0.94050    -999.25    -999.25   97.80260   97.80260    -999.25    0.82070    -999.25    -999.25  -24.83950   -5.25850    0.80740 1447.52310
 2300.00000    0.80430    0.84480    0.86150    0.93610    0.97130    -999.25 1029.54800    -999.25    -999.25    -999.25    -999.25    -999.25    0.97130    -999.25    -999.25   81.47440   81.47440    -999.25    0.86150    -999.25    -999.25  -28.80480   -7.40840    0.80430 1442.32870
 2350.00000    0.80150    0.81840    0.84070    0.93260    0.94160    -999.25 1062.02210    -999.25    -999.25    -999.25    -999.25    -999.25    0.94160    -999.25    -999.25  110.40820  110.40820    -999.25    0.84070    -999.25    -999.25  -29.28600   -6.07430    0.80150 1454.10210
