~Version ---------------------------------------------------
VERS. 2.0 : CWLS log ASCII Standard -VERSION 2.0
WRAP. YES : MULTIPLE LINES PER DEPTH STEP
~Well ------------------------------------------------------
STRT.FT                         2000.0 : START DEPTH
STOP.FT                        10400.0 : STOP DEPTH
STEP.FT                       50.00000 : STEP LENGTH
NULL.                          -999.25 : NULL VALUE
COMP.                CALTO OIL COMPANY : COMPANY
WELL. CHAS A. MC CORMICK GAS UNIT 1 #2 : WELL
FLD .                           JEWETT : FIELD
LOC .                                  : LOCATION
CNTY.                             LEON : COUNTY
STAT.                            TEXAS : STATE
CTRY.         UNITED STATES OF AMERICA : COUNTRY
SRVC.                    Dresser Atlas : SERVICE COMPANY
DATE.                      03-Sep-1984 : LOGDATE
API .                   42289305780000 : API NUMBER
UWI .                   42289305780000 : UNIQUE WELL ID
SLAT.WGS84               31.4139663041 : SURFACE LATITUDE
SLON.WGS84              -96.1337932254 : SURFACE LONGITUDE
~Curve Information -----------------------------------------
DEPT    .FT    : DEPTH FEET
CALDED  .IN    : CALIPER FROM DENSITY LOG [DEPTH ADJ. TO SPR/ILD]
CALWS   .IN    : CALIPER [CALDED]
CNLSED  .V/V   : NEUTRON POROSITY LIMESTONE FROM DENSITY LOG[DEPTH ADJ. TO SPR/ILD]
CONDWS  .MMHO  : CONDUCTIVITY [1000/DRESWS]
CORRED  .G/C3  : DENSITY CORRECTION FROM DENSITY LOG [DEPTH ADJ. TO SPR/ILD]
DCORWS  .G/C3  : DENSITY CORRECTION [CORRED]
DENED   .G/C3  : BULK DENSITY FROM DENSITY LOG [DEPTH ADJ. TO SPR/ILD]
DENWS   .G/C3  : BULK DENSITY [M=2.65 F=1.0] [DENED]
DPOWS   .V/V   : DENSITY POROSITY [M=2.65 F=1.0] [CALCULATED FROM DENWS]
DRESWS  .OHMM  : DEEP RESISTIVITY [RILDED]
GRDED   .GAPI  : GAMMA RAY FROM DENSITY LOG[DEPTH ADJ. TO SPR/ILD]
GRWS    .GAPI  : GAMMA RAY [GRDED]
MRESWS  .OHMM  : MEDIUM RESISTIVITY [RILMED]
NPOWS   .V/V   : NEUTRON POROSITY SANDSTONE [CNLSED]
PORDLSED.V/V   : DENSITY POROSITY [LIMESTONE][DEPTH ADJ. TO SPR/ILD]
RFOCED  .OHMM  : FOCUSED RESISTIVITY
RILDED  .OHMM  : INDUCTION LOG DEEP RESISTIVITY
RILMED  .OHMM  : INDUCTION LOG MEDIUM RESISTIVITY
SPRED   .MV    : SPONTANEOUS POTENTIAL FROM RESISTIVITY LOG
SPWS    .MV    : SPONTANEOUS POTENTIAL [BASELINE 0 MV] [SPRED]
SRESWS  .OHMM  : SHALLOW RESISTIVITY [RFOCED]
TENDED  .LBF   : TENSION FROM DENSITY LOG [DEPTH ADJ. TO SPR/ILD]
TENRED  .LBF   : TENSION FROM RESISTIVITY LOG
~Params ----------------------------------------------------
PD  .                     GL : PERMANENT DATUM
EPD .FT                  430 : ELEVATION PERMANENT DATUM
LMF .                     KB : LOG MEASURED FROM
DAPD.FT                   18 : FEET ABOVE PERMANENT DATUM
DMF .                     KB : DRILLING MEASURED FROM
EKB .FT                  448 : KELLY BUSHING
EDF .FT                  447 : DRILLING FLOOR
EGL .FT                  430 : GROUND LEVEL
DATE.               09/03/84 : RUN DATE
RUN .                      1 : RUN NUMBER
DD  .FT                10416 : DEPTH DRILLER
DL  .FT                10416 : DEPTH LOGGER
BLI .FT                10414 : BOTTOM LOG INTERVAL
TLI .FT                 5700 : TOP LOG INTERVAL
CS  .IN                8.625 : CASING SIZE
CBD .FT                 1964 : CASING BOTTOM DRILLER
BS  .IN                7.875 : BIT SIZE
BSD .FT                10416 : BIT SIZE AT DEPTH
DFT .            CLS LIGNITE : DRILLING FLUID TYPE
DFD .                     10 : DRILLING FLUID DENSITY
DFV .                     40 : DRILLING FLUID VISCOSITY
DFPH.                     10 : DRILLING FLUID PH
DFL .                    9.5 : DRILLING FLUID LOSS
MSS .               FLOWLINE : MUD SAMPLE SOURCE
RMS .OHMM               1.39 : RESISTIVITY MUD SAMPLE
MST .DEGF                 93 : MUD SAMPLE TEMPERATURE
RMF .OHMM               1.01 : RESISTIVITY MUD FILTRATE SAMPLE
MFST.DEGF                 93 : MUD FILTRATE SAMPLE TEMPERATURE
RMC .OHMM               1.68 : RESISTIVITY MUD CAKE
MCST.DEGF                 93 : MUD CAKE SAMPLE TEMPERATURE
MFSS.                   CALC : MUD FILTRATE SAMPLE SOURCE
MCSS.                   CALC : MUD CAKE SAMPLE SOURCE
RMB .OHMM               0.57 : RESISTIVITY MUD AT BHT
TCS .HRS                 900 : TIME CIRCULATED STOPPED
LUN .                   6267 : LOGGING UNIT NUMBER
LUL .             SHREVEPORT : LOGGING UNIT LOCATION
ENGI.               MELHUISH : RECORDING ENGINEER
WITN.    HANSEN PERET O'NEIL : WITNESSED BY
CLNT.                A2DTECH : CLIENT CODE
ORIG.               5" PRINT : ORIGIN OF DATA
UWI .         42289305780000 : UNIQUE WELL ID
DICO. A2D Technologies, Inc. : DIGITIZING COMPANY
~Other -----------------------------------------------------
MUD DENSITY 10 PPG
~ASCII -----------------------------------------------------
# ...
 5100.00000    -999.25    -999.25    -999.25  322.92440    -999.25    -999.25    -999.25    -999.25    -999.25    3.09670    -999.25    -999.25    3.16230    -999.25    -999.25    4.15560    3.09670    3.16230  -68.43870   -0.24710    4.15560    -999.25    3.04930
 5150.00000    -999.25    -999.25    -999.25  217.79370    -999.25    -999.25    -999.25    -999.25    -999.25    4.59150    -999.25    -999.25    4.82970    -999.25    -999.25    4.17390    4.59150    4.82970  -69.45670   -1.66750    4.17390    -999.25    0.11360
 5200.00000    -999.25    -999.25    -999.25  128.22650    -999.25    -999.25    -999.25    -999.25    -999.25    7.79870    -999.25    -999.25    7.95600    -999.25    -999.25    8.39300    7.79870    7.95600  -79.13970  -11.35490    8.39300    -999.25    1.21930
 5250.00000    -999.25    -999.25    -999.25  172.13190    -999.25    -999.25    -999.25    -999.25    -999.25    5.80950    -999.25    -999.25    5.92620    -999.25    -999.25    6.30360    5.80950    5.92620  -85.23990  -17.24530    6.30360    -999.25    0.00960
 5300.00000    -999.25    -999.25    -999.25  890.39270    -999.25    -999.25    -999.25    -999.25    -999.25    1.12310    -999.25    -999.25    1.10970    -999.25    -999.25    2.09760    1.12310    1.10970  -70.42790   -2.22350    2.09760    -999.25    5.55470
 5350.00000    -999.25    -999.25    -999.25  381.92720    -999.25    -999.25    -999.25    -999.25    -999.25    2.61830    -999.25    -999.25    2.53980    -999.25    -999.25    3.74310    2.61830    2.53980  -71.70050   -3.28630    3.74310    -999.25    0.00000
 5400.00000    -999.25    -999.25    -999.25  422.69000    -999.25    -999.25    -999.25    -999.25    -999.25    2.36580    -999.25    -999.25    2.28020    -999.25    -999.25    2.75490    2.36580    2.28020  -70.30420   -2.57480    2.75490    -999.25    6.00120
 5450.00000    -999.25    -999.25    -999.25  769.11240    -999.25    -999.25    -999.25    -999.25    -999.25    1.30020    -999.25    -999.25    1.21150    -999.25    -999.25    1.94710    1.30020    1.21150  -68.84940   -2.22560    1.94710    -999.25    6.50620
 5500.00000    -999.25    -999.25    -999.25  860.95570    -999.25    -999.25    -999.25    -999.25    -999.25    1.16150    -999.25    -999.25    1.12880    -999.25    -999.25    1.88680    1.16150    1.12880  -67.97780   -1.82040    1.88680    -999.25    3.96870
 5550.00000    -999.25    -999.25    -999.25  947.59780    -999.25    -999.25    -999.25    -999.25    -999.25    1.05530    -999.25    -999.25    1.03360    -999.25    -999.25    1.87710    1.05530    1.03360  -67.39550   -0.82160    1.87710    -999.25    0.00000
 5600.00000    -999.25    -999.25    -999.25  445.07740    -999.25    -999.25    -999.25    -999.25    -999.25    2.24680    -999.25    -999.25    2.29630    -999.25    -999.25    2.94660    2.24680    2.29630  -66.70670    0.04840    2.94660    -999.25    6.34190
 5650.00000    -999.25    -999.25    -999.25  289.36860    -999.25    -999.25    -999.25    -999.25    -999.25    3.45580    -999.25    -999.25    3.30440    -999.25    -999.25    4.08450    3.45580    3.30440  -65.91390    0.69760    4.08450    -999.25    0.00000
 5700.00000   12.83310   12.83310    0.21260  292.96300    0.04270    0.04270    2.53560    2.53560    0.10200    3.41340   69.40590   69.40590    3.13060    0.21260    0.10730    5.40660    3.41340    3.13060  -73.22280   -6.75490    5.40660    0.00000    0.00000
 5750.00000   15.04800   15.04800    0.32830  576.13640    0.17920    0.17920    2.26850    2.26850    0.25820    1.73570   92.34570   92.34570    1.71110    0.32830    0.25860    2.46020    1.73570    1.71110  -67.67970   -1.35540    2.46020    0.00000    0.01260
 5800.00000   14.82310   14.82310    0.32670  619.57870    0.14950    0.14950    2.20760    2.20760    0.29380    1.61400   86.31540   86.31540    1.64640    0.32670    0.29420    2.33750    1.61400    1.64640  -68.20070   -2.02000    2.33750    0.00000    0.00000
 5850.00000   14.89980   14.89980    0.33520  602.62750    0.14620    0.14620    2.15510    2.15510    0.32450    1.65940   86.15460   86.15460    1.69620    0.33520    0.32390    2.45730    1.65940    1.69620  -66.58280   -0.54570    2.45730    7.09100    0.00000
 5900.00000    -999.25    -999.25    -999.25  624.45360    -999.25    -999.25    -999.25    -999.25    -999.25    1.60140    -999.25    -999.25    1.63320    -999.25    -999.25    2.51060    1.60140    1.63320  -67.29080   -1.18080    2.51060    -999.25   12.70090
 5950.00000    -999.25    -999.25    -999.25  673.94530    -999.25    -999.25    -999.25    -999.25    -999.25    1.48380    -999.25    -999.25    1.47360    -999.25    -999.25    2.24100    1.48380    1.47360  -67.72840   -1.41270    2.24100    -999.25    0.24940
 6000.00000    -999.25    -999.25    -999.25  487.54330    -999.25    -999.25    -999.25    -999.25    -999.25    2.05110    -999.25    -999.25    1.74140    -999.25    -999.25    3.09780    2.05110    1.74140  -69.99160   -3.47030    3.09780    -999.25    3.57110
 6050.00000    -999.25    -999.25    -999.25  478.95010    -999.25    -999.25    -999.25    -999.25    -999.25    2.08790    -999.25    -999.25    2.10020    -999.25    -999.25    2.65050    2.08790    2.10020  -69.35740   -2.63040    2.65050    -999.25    0.00000
 6100.00000    -999.25    -999.25    -999.25  426.51200    -999.25    -999.25    -999.25    -999.25    -999.25    2.34460    -999.25    -999.25    2.47930    -999.25    -999.25    2.63520    2.34460    2.47930  -67.67350   -0.72800    2.63520    -999.25    0.00000
 6150.00000    -999.25    -999.25    -999.25   77.86160    -999.25    -999.25    -999.25    -999.25    -999.25   12.84330    -999.25    -999.25   13.15220    -999.25    -999.25   14.63540   12.84330   13.15220  -73.35410   -6.18040   14.63540    -999.25    3.34550
 6200.00000    -999.25    -999.25    -999.25  177.12600    -999.25    -999.25    -999.25    -999.25    -999.25    5.64570    -999.25    -999.25    5.91470    -999.25    -999.25    7.63590    5.64570    5.91470  -69.40410   -2.00220    7.63590    -999.25    0.00000
 6250.00000    -999.25    -999.25    -999.25  125.89070    -999.25    -999.25    -999.25    -999.25    -999.25    7.94340    -999.25    -999.25    8.50410    -999.25    -999.25    6.23020    7.94340    8.50410  -68.52140   -0.89130    6.23020    -999.25    0.00000
 6300.00000    -999.25    -999.25    -999.25   82.25510    -999.25    -999.25    -999.25    -999.25    -999.25   12.15730    -999.25    -999.25   13.07050    -999.25    -999.25   13.25120   12.15730   13.07050  -70.84860   -2.06490   13.25120    -999.25    0.00000
 6350.00000    -999.25    -999.25    -999.25   46.14950    -999.25    -999.25    -999.25    -999.25    -999.25   21.66870    -999.25    -999.25   24.72420    -999.25    -999.25   23.73770   21.66870   24.72420  -76.34910   -6.94240   23.73770    -999.25    0.00000
 6400.00000    -999.25    -999.25    -999.25   41.01980    -999.25    -999.25    -999.25    -999.25    -999.25   24.37850    -999.25    -999.25   20.61820    -999.25    -999.25   29.99280   24.37850   20.61820  -76.75790   -7.18920   29.99280    -999.25    0.00000
 6450.00000    -999.25    -999.25    -999.25   93.69790    -999.25    -999.25    -999.25    -999.25    -999.25   10.67260    -999.25    -999.25   10.88980    -999.25    -999.25   15.31110   10.67260   10.88980  -70.62000   -0.88920   15.31110    -999.25    0.00000
 6500.00000    -999.25    -999.25    -999.25  114.23220    -999.25    -999.25    -999.25    -999.25    -999.25    8.75410    -999.25    -999.25    7.68090    -999.25    -999.25   11.64630    8.75410    7.68090  -69.21300    0.67990   11.64630    -999.25    1.43880
 6550.00000    -999.25    -999.25    -999.25   32.19700    -999.25    -999.25    -999.25    -999.25    -999.25   31.05880    -999.25    -999.25   29.12750    -999.25    -999.25   27.82490   31.05880   29.12750  -77.20910   -7.15420   27.82490    -999.25    0.00000
 6600.00000    -999.25    -999.25    -999.25   28.81300    -999.25    -999.25    -999.25    -999.25    -999.25   34.70660    -999.25    -999.25   28.28380    -999.25    -999.25   35.29210   34.70660   28.28380  -72.16810   -4.22500   35.29210    -999.25    0.00000
