~Version ---------------------------------------------------
VERS. 2.0 : CWLS log ASCII Standard -VERSION 2.0
WRAP. YES : MULTIPLE LINES PER DEPTH STEP
~Well ------------------------------------------------------
STRT.FT                        2500.0 : START DEPTH
STOP.FT                       18000.0 : STOP DEPTH
STEP.FT                      50.00000 : STEP LENGTH
NULL.                         -999.25 : NULL VALUE
COMP. UNION PACIFIC RESOURCES COMPANY : COMPANY
WELL.       UPR T-BAR-X KING COBRA #1 : WELL
FLD .                         WILDCAT : FIELD
LOC .                                 : LOCATION
CNTY.                            LEON : COUNTY
STAT.                           TEXAS : STATE
CTRY.        UNITED STATES OF AMERICA : COUNTRY
SRVC.                    Schlumberger : SERVICE COMPANY
DATE.                     05-Nov-1997 : LOGDATE
API .                  42289312660000 : API NUMBER
UWI .                  42289312660000 : UNIQUE WELL ID
SLAT.WGS84              31.2008912115 : SURFACE LATITUDE
SLON.WGS84             -96.2874133979 : SURFACE LONGITUDE
~Curve Information -----------------------------------------
DEPT    .FT    : DEPTH FEET
AT10ED  .OHMM  : 10 INCH RESISTIVITY TWO FOOT RESOLUTION FROM AIT LOG
AT20ED  .OHMM  : 20 INCH RESISTIVITY TWO FOOT RESOLUTION FROM AIT LOG
AT30ED  .OHMM  : 30 INCH RESISTIVITY TWO FOOT RESOLUTION FROM AIT LOG
AT60ED  .OHMM  : 60 INCH RESISTIVITY TWO FOOT RESOLUTION FROM AIT LOG
AT90ED  .OHMM  : 90 INCH RESISTIVITY TWO FOOT RESOLUTION FROM AIT LOG
CALDED  .IN    : CALIPER FROM DENSITY LOG [DEP ADJ TO GRRED]
CALRED  .IN    : CALIPER FROM RESISTIVITY LOG
CALWS   .IN    : CALIPER [2484 CALICAL 15888 CALRED]
CGRDED  .GAPI  : GAMMA RAY FROM DENSITY LOG [DEP ADJ TO GRRED]
CONDWS  .MMHO  : CONDUCTIVITY [1000/DRESWS]
DCALED  .IN    : DIFFERENTIAL CALIPER FROM DENSITY LOG
DCORWS  .G/C3  : DENSITY CORRECTION [2484 DRHOED 9946 DRHED 15888.5 DRHOED]
DENWS   .G/C3  : BULK DENSITY [M=2.71 F=1.0] [CALCULATED FROM DPOWS]
DPHILSED.V/V   : DENSITY POROSITY [M=2.71 F=1.0] FROM DENSITY LOG [DEP ADJ TO GRRED]
DPOLSED .V/V   : DENSITY POROSITY HIGH RESOLUTION [M=2.71 F=1.0] FROM DENSITY LOG
DPOWS   .V/V   : DENSITY POROSITY [M=2.71 F=1.0] [2484 DPHILSED 9942 DPOLSED 15888 DPHILSED]
DRESWS  .OHMM  : DEEP RESISTIVITY [A2484 AT90ED 9948.5 IDPHED 15892 LLDED]
DRHED   .G/C3  : DENSITY CORRECTION
DRHOED  .G/C3  : DENSITY CORRECTION FROM DENSITY LOG [DEP ADJ TO GRRED]
DTCOED  .US/F  : DELTA TIME COMPRESSIONAL FROM SONIC LOG [DEP ADJ TO GRRED]
DTED    .US/F  : DELTA TIME FROM SONIC LOG
DTLED   .US/F  : DELTA TIME LONG SPACING FROM SONIC LOG
DTLFED  .US/F  : DELTA TIME LONG SPACING FAR DETECTOR FROM SONIC LOG
DTLNED  .US/F  : DELTA TIME LONG SPACING NEAR DETECTOR FROM SONIC LOG
DTSMED  .US/F  : DELTA TIME SHEAR WAVE FROM SONIC LOG [DEP ADJ TO GRRED]
DTSWS   .US/F  : DELTA TIME SHEAR [DTSMED]
DTWS    .US/F  : DELTA TIME [2484 DTLNED 10155.5 DTLFED 10297.5 DTLNED 10506.5 DTLFED 10628.5 DTLNED 10694 DTLFED 10859 DTLNED 11620 DTLFED 13285.5 DTLNED 14723 DTLFED 15057 DTLNED 15798 DTLFED 15889.5 DTED 15912.5 DTCOED]
GRRED   .GAPI  : GAMMA RAY FROM RESISTIVITY LOG
GRSED   .GAPI  : GAMMA RAY FROM SONIC LOG [DEP ADJ TO GRRED]
GRWS    .GAPI  : GAMMA RAY [2484 GRRED 9881.5 GRREDNRM 9946 GRRED 15728.5 GRSEDNRM 15878 CGRDED 16070 GRRED]
IDPHED  .OHMM  : INDUCTION DEEP PHASE RESISTIVITY
IMPHED  .OHMM  : INDUCTION MEDIUM PHASE RESISTIVITY
LLDED   .OHMM  : LATEROLOG DEEP RESISTIVITY
LLSED   .OHMM  : LATEROLOG SHALLOW RESISTIVITY
MRESWS  .OHMM  : MEDIUM RESISTIVITY [2484 AT30ED 9949.5 IMPHED]
NPHILSED.V/V   : NEUTRON POROSITY LIMESTONE FROM DENSITY LOG [DEP ADJ TO GRRED]
NPOWS   .V/V   : NEUTRON POROSITY LIMESTONE [2484 NPHILSED 15780.5 NPHILNRM 15883.5 NPHILSED]
PEFED   .B/E   : PHOTOELECTRIC FACTOR FROM DENSITY LOG
PEFLED  .B/E   : PHOTOELECTRIC FACTOR FROM DENSITY LOG
PEFWS   .B/E   : PHOTOELECTRIC FACTOR [2484 PEFED 9952.5 PEFLED]
RESED   .OHMM  : SYNTHETIC RESISTIVITY
SFLUED  .OHMM  : SPHERICALLY FOCUSED LOG RESISTIVITY
SPHILSED.V/V   : SONIC POROSITY FROM SONIC LOG [DEP ADJ TO GRRED]
SPOWS   .V/V   : SONIC POROSITY [CAL FR DTWS; M= 47.6, F=189]
SPRED   .MV    : SPONTANEOUS POTENTIAL FROM RESISTIVITY LOG [SHIFTS ARE REMOVED]
SPWS    .MV    : SPONTANEOUS POTENTIAL [BASELINE 0 MV] [SPRED]
SRESWS  .OHMM  : SHALLOW RESISTIVITY [2484 AT10ED 9945.5 SFLUED 15891.5 LLSED]
TENDED  .LBF   : TENSION FROM DENSITY LOG [DEP ADJ TO GRRED]
TENRED  .LBF   : TENSION FROM RESISTIVITY LOG
~Params ----------------------------------------------------
PD  .                     GL : PERMANENT DATUM
EPD .FT                  348 : ELEVATION PERMANENT DATUM
LMF .                     KB : LOG MEASURED FROM
DAPD.FT                   28 : FEET ABOVE PERMANENT DATUM
DMF .                     KB : DRILLING MEASURED FROM
EKB .FT                  376 : KELLY BUSHING
EDF .FT                  374 : DRILLING FLOOR
EGL .FT                  348 : GROUND LEVEL
DATE.               11/05/97 : RUN DATE
RUN .                      3 : RUN NUMBER
DD  .FT                18038 : DEPTH DRILLER
DL  .FT                18024 : DEPTH LOGGER
BLI .FT                 1800 : BOTTOM LOG INTERVAL
TLI .FT                15888 : TOP LOG INTERVAL
CS  .IN                7.625 : CASING SIZE
CBD .FT                15888 : CASING BOTTOM DRILLER
CBL .FT                15888 : CASING BOTTOM LOGGER
BS  .IN                    6 : BIT SIZE
BSD .FT                18038 : BIT SIZE AT DEPTH
DFT .                POLYMER : DRILLING FLUID TYPE
DFD .                   18.2 : DRILLING FLUID DENSITY
DFV .                     40 : DRILLING FLUID VISCOSITY
DFPH.                      9 : DRILLING FLUID PH
DFL .                    5.6 : DRILLING FLUID LOSS
MSS .       CIRCULATION TANK : MUD SAMPLE SOURCE
RMS .OHMM               1.14 : RESISTIVITY MUD SAMPLE
MST .DEGF                 90 : MUD SAMPLE TEMPERATURE
RMF .OHMM              0.969 : RESISTIVITY MUD FILTRATE SAMPLE
MFST.DEGF                 90 : MUD FILTRATE SAMPLE TEMPERATURE
RMC .OHMM              1.311 : RESISTIVITY MUD CAKE
MCST.DEGF                 90 : MUD CAKE SAMPLE TEMPERATURE
MFSS.             CALCULATED : MUD FILTRATE SAMPLE SOURCE
MCSS.             CALCULATED : MUD CAKE SAMPLE SOURCE
RMB .OHMM              0.278 : RESISTIVITY MUD AT BHT
TCS .HRS                2200 : TIME CIRCULATED STOPPED
TLAB.HRS                 445 : TIME LOGGER AT BOTTOM
LUN .                   8400 : LOGGING UNIT NUMBER
LUL .                   6450 : LOGGING UNIT LOCATION
ENGI.                SKRBICH : RECORDING ENGINEER
WITN.          BLANKE WEAVER : WITNESSED BY
CLNT.                A2DTECH : CLIENT CODE
ORIG.         1" 2" 5" PRINT : ORIGIN OF DATA
UWI .         42289312660000 : UNIQUE WELL ID
DICO. A2D Technologies, Inc. : DIGITIZING COMPANY
~Other -----------------------------------------------------
~ASCII -----------------------------------------------------
# ...
 9250.00000    2.48450    5.21790    4.23700    3.63500    3.38390    -999.25    -999.25   13.95170    -999.25  295.51700    1.70170    0.04390    2.11280    -999.25    -999.25    0.34920    3.38390    -999.25    0.04390    -999.25    -999.25    -999.25    -999.25    -999.25    -999.25    -999.25    -999.25   71.99240    -999.25   71.99240    -999.25    -999.25    -999.25    -999.25    4.23700    0.26830    0.26830    7.73050    -999.25    7.73050    7.73050    -999.25    -999.25    -999.25   -6.74020   -5.52060    2.48450    -999.25 3459.91940
 9300.00000   34.22290  124.14920   91.00110   73.40040   44.85650    -999.25    -999.25   12.29610    -999.25   22.29330    0.04610   -0.00790    2.67750    0.01900    -999.25    0.01900   44.85650    -999.25   -0.00790    -999.25    -999.25    -999.25    -999.25    -999.25    -999.25    -999.25    -999.25   38.24200    -999.25   38.24200    -999.25    -999.25    -999.25    -999.25   91.00110    0.01220    0.01220    5.57580    -999.25    5.57580    5.57580    -999.25    -999.25    -999.25  -65.44470  -63.40310   34.22290    -999.25 3600.66360
 9350.00000   16.22560   66.76960   56.21860   50.77130   50.64360    -999.25    -999.25   12.39820    -999.25   19.74580    0.14820   -0.00010    2.69680    0.00770    -999.25    0.00770   50.64360    -999.25   -0.00010    -999.25    -999.25    -999.25    -999.25    -999.25    -999.25    -999.25    -999.25   26.42620    -999.25   26.42620    -999.25    -999.25    -999.25    -999.25   56.21860    0.01170    0.01170    5.36530    -999.25    5.36530    5.36530    -999.25    -999.25    -999.25  -48.64270  -45.48430   16.22560    -999.25 3533.87620
 9400.00000   15.55300   64.67830   69.78040   86.50860   94.12450    -999.25    -999.25   12.54180    -999.25   10.62420    0.29180   -0.00470    2.72470   -0.00860    -999.25   -0.00860   94.12450    -999.25   -0.00470    -999.25    -999.25    -999.25    -999.25    -999.25    -999.25    -999.25    -999.25   31.98190    -999.25   31.98190    -999.25    -999.25    -999.25    -999.25   69.78040    0.00200    0.00200    5.22670    -999.25    5.22670    5.22670    -999.25    -999.25    -999.25  -71.88130  -67.60620   15.55300    -999.25 3550.82200
 9450.00000   16.64450   83.97550   68.15490   59.83260   63.85390    -999.25    -999.25   12.53090    -999.25   15.66080    0.28090   -0.00450    2.71840   -0.00490    -999.25   -0.00490   63.85390    -999.25   -0.00450    -999.25    -999.25    -999.25    -999.25    -999.25    -999.25    -999.25    -999.25   30.31140    -999.25   30.31140    -999.25    -999.25    -999.25    -999.25   68.15490    0.00380    0.00380    5.39630    -999.25    5.39630    5.39630    -999.25    -999.25    -999.25  -76.52810  -71.13620   16.64450    -999.25 3609.96460
 9500.00000    6.50600    9.33450    8.94180    8.58840    8.51340    -999.25    -999.25   12.59070    -999.25  117.46190    0.34070    0.00270    2.69340    0.00970    -999.25    0.00970    8.51340    -999.25    0.00270    -999.25    -999.25    -999.25    -999.25    -999.25    -999.25    -999.25    -999.25   50.05980    -999.25   50.05980    -999.25    -999.25    -999.25    -999.25    8.94180    0.07310    0.07310    4.94320    -999.25    4.94320    4.94320    -999.25    -999.25    -999.25  -39.73020  -33.22160    6.50600    -999.25 3622.14840
 9550.00000   14.51070   69.60430   50.70020   39.01050   34.93340    -999.25    -999.25   12.79550    -999.25   28.62590    0.54550   -0.00570    2.71670   -0.00390    -999.25   -0.00390   34.93340    -999.25   -0.00570    -999.25    -999.25    -999.25    -999.25    -999.25    -999.25    -999.25    -999.25   41.69500    -999.25   41.69500    -999.25    -999.25    -999.25    -999.25   50.70020    0.00270    0.00270    5.03280    -999.25    5.03280    5.03280    -999.25    -999.25    -999.25  -45.50770  -37.88230   14.51070    -999.25 3601.90720
 9600.00000   14.65660   38.33900   32.61580   25.46800   34.29100    -999.25    -999.25   12.79090    -999.25   29.16220    0.54090    0.00050    2.71190   -0.00110    -999.25   -0.00110   34.29100    -999.25    0.00050    -999.25    -999.25    -999.25    -999.25    -999.25    -999.25    -999.25    -999.25   44.79520    -999.25   44.79520    -999.25    -999.25    -999.25    -999.25   32.61580    0.01480    0.01480    4.85030    -999.25    4.85030    4.85030    -999.25    -999.25    -999.25  -45.02710  -36.28490   14.65660    -999.25 3632.25050
 9650.00000    5.66490    8.89480    8.54570    8.29440    7.37300    -999.25    -999.25   13.45780    -999.25  135.63000    1.20780    0.00690    2.69410    0.00930    -999.25    0.00930    7.37300    -999.25    0.00690    -999.25    -999.25    -999.25    -999.25    -999.25    -999.25    -999.25    -999.25   46.25860    -999.25   46.25860    -999.25    -999.25    -999.25    -999.25    8.54570    0.06730    0.06730    4.30710    -999.25    4.30710    4.30710    -999.25    -999.25    -999.25  -27.46910  -17.61020    5.66490    -999.25 3691.87350
 9700.00000    4.01550    6.63260    5.67130    5.35390    4.35620    -999.25    -999.25   13.34240    -999.25  229.55790    1.09240    0.02610    2.66230    0.02790    -999.25    0.02790    4.35620    -999.25    0.02610    -999.25    -999.25    -999.25    -999.25    -999.25    -999.25    -999.25    -999.25   58.31590    -999.25   58.31590    -999.25    -999.25    -999.25    -999.25    5.67130    0.07960    0.07960    4.42140    -999.25    4.42140    4.42140    -999.25    -999.25    -999.25  -18.87650   -7.90080    4.01550    -999.25 3702.92160
 9750.00000    6.11500   10.63040    9.31900    8.61670    6.66240    -999.25    -999.25   13.02340    -999.25  150.09610    0.77340    0.00710    2.63360    0.04470    -999.25    0.04470    6.66240    -999.25    0.00710    -999.25    -999.25    -999.25    -999.25    -999.25    -999.25    -999.25    -999.25   43.87690    -999.25   43.87690    -999.25    -999.25    -999.25    -999.25    9.31900    0.06500    0.06500    3.12770    -999.25    3.12770    3.12770    -999.25    -999.25    -999.25  -34.20900  -22.11660    6.11500    -999.25 3635.34740
 9800.00000    4.81820    9.19870    6.11570    5.54410    5.51370    -999.25    -999.25   12.67900    -999.25  181.36640    0.42900    0.01320    2.57610    0.07830    -999.25    0.07830    5.51370    -999.25    0.01320    -999.25    -999.25    -999.25    -999.25    -999.25    -999.25    -999.25    -999.25   43.02740    -999.25   43.02740    -999.25    -999.25    -999.25    -999.25    6.11570    0.06090    0.06090    3.20350    -999.25    3.20350    3.20350    -999.25    -999.25    -999.25  -44.06290  -33.81100    4.81820    -999.25 3652.97410
 9850.00000    3.73150    5.86560    5.28550    4.93600    4.84280    -999.25    -999.25   13.66820    -999.25  206.49210    1.41820    0.01730    2.57800    0.07720    -999.25    0.07720    4.84280    -999.25    0.01730    -999.25    -999.25    -999.25    -999.25    -999.25    -999.25    -999.25    -999.25   31.64370    -999.25   31.64370    -999.25    -999.25    -999.25    -999.25    5.28550    0.08190    0.08190    3.06360    -999.25    3.06360    3.06360    -999.25    -999.25    -999.25  -60.95270  -54.68270    3.73150    -999.25 3789.12180
 9900.00000    1.84450    2.31310    2.10570    2.02150    1.98610    -999.25    -999.25   12.11520    -999.25  503.49930   -0.13480    0.02580    2.47800    0.13570    -999.25    0.13570    1.98610    -999.25    0.02580    -999.25    -999.25    -999.25    -999.25    -999.25    -999.25    -999.25    -999.25   32.67890    -999.25   49.01840    -999.25    -999.25    -999.25    -999.25    2.10570    0.11850    0.11850    3.30930    -999.25    3.30930    3.30930    -999.25    -999.25    -999.25  -59.48370  -57.19570    1.84450    -999.25 3781.38990
 9950.00000    -999.25    -999.25    -999.25    -999.25    -999.25    -999.25    -999.25   12.82170    -999.25  182.95580    4.32170    0.02080    2.60240    -999.25    0.06290    0.06290    5.46580    0.02080    -999.25    -999.25    -999.25    -999.25   72.82270   61.40220    -999.25    -999.25   61.40220   61.40770    -999.25   61.40770    5.46580    3.45790    -999.25    -999.25    3.45790    0.09810    0.09810    -999.25    9.98650    -999.25    -999.25    6.68540    -999.25    0.09760  -62.52780  -64.22170    6.68540    -999.25 4568.55660
