~Version ---------------------------------------------------
VERS. 2.0 : CWLS log ASCII Standard -VERSION 2.0
WRAP.  NO : ONE LINE PER DEPTH STEP
~Well ------------------------------------------------------
STRT.F                     4050.0 : START DEPTH
STOP.F                    10500.0 : STOP DEPTH
STEP.F                   50.00000 : STEP LENGTH
NULL.                     -999.25 : NULL VALUE
COMP. MITCHELL ENERGY CORPORATION : COMPANY
WELL.                MOORE LEO #1 : WELL
FLD .               ALABAMA FERRY : FIELD
LOC .                             : LOCATION
CNTY.                        LEON : COUNTY
STAT.                       TEXAS : STATE
CTRY.    UNITED STATES OF AMERICA : COUNTRY
SRVC.                    Gearhart : SERVICE COMPANY
DATE.                 11-Jun-1985 : LOGDATE
API .              42289306600000 : API NUMBER
UWI .              42289306600000 : UNIQUE WELL ID
SLAT.WGS84          31.1850630157 : SURFACE LATITUDE
SLON.WGS84         -95.8358112072 : SURFACE LONGITUDE
~Curve Information -----------------------------------------
DEPT  .F    0   1   0  0 : 1 MEASURED DEPTH
GRR   .GAPI 07 310 01 00 : GAMMA RAY FROM RESISTIVITY LOG
RILD  .OHMM 07 120 46 00 : INDUCTION DEEP RESISTIVITY
RILM  .OHMM 07 120 44 00 : INDUCTION MEDIUM RESISTIVITY
RILS  .OHMM 07 120 04 00 : INDUCTION SHALLOW RESISTIVITY
SPR   .MV   07 010 01 00 : SPONTANEOUS POTENTIAL FROM RESISTIVITY LOG
CALX  .IN   07 280 13 00 : CALIPER FROM X AXIS OF X-Y CALIPER(S)
DT    .US/F 60 500 00 00 : DELTA-T (INTERVAL TRANSIT TIME)
CDL_LS.DEC  45 890 10 00 : COMPENSATED DENSITY POROSITY LIMESTONE
CNS_LS.DEC  42 890 01 00 : COMPENSATED NEUTRON POROSITY
DRHO  .G/C3 45 356 01 00 : BULK DENSITY CORRECTION
RHOB  .G/C3 45 350 01 00 : BULK DENSITY
~Params ----------------------------------------------------
PD  .                     GL : PERMANENT DATUM
EPD .FT                  228 : ELEVATION PERMANENT DATUM
LMF .                     KB : LOG MEASURED FROM
DAPD.FT                   18 : FEET ABOVE PERMANENT DATUM
DMF .                     KB : DRILLING MEASURED FROM
EKB .FT                  246 : KELLY BUSHING
EDF .FT                  245 : DRILLING FLOOR
EGL .FT                  228 : GROUND LEVEL
DATE.               06/11/85 : RUN DATE
RUN .                      1 : RUN NUMBER
DD  .FT                10510 : DEPTH DRILLER
DL  .FT                10530 : DEPTH LOGGER
BLI .FT                10528 : BOTTOM LOG INTERVAL
TLI .FT                 4046 : TOP LOG INTERVAL
CS  .IN                8.625 : CASING SIZE
CBD .FT                 4600 : CASING BOTTOM DRILLER
CBL .FT                 4046 : CASING BOTTOM LOGGER
BS  .IN                7.875 : BIT SIZE
BSD .FT                10510 : BIT SIZE AT DEPTH
DFT .                    FGM : DRILLING FLUID TYPE
DFD .                    9.9 : DRILLING FLUID DENSITY
DFV .                     43 : DRILLING FLUID VISCOSITY
DFPH.                    9.8 : DRILLING FLUID PH
DFL .                    9.8 : DRILLING FLUID LOSS
MSS .             CIRCULATED : MUD SAMPLE SOURCE
RMS .OHMM                2.4 : RESISTIVITY MUD SAMPLE
MST .DEGF                 75 : MUD SAMPLE TEMPERATURE
RMF .OHMM                1.8 : RESISTIVITY MUD FILTRATE SAMPLE
MFST.DEGF                 75 : MUD FILTRATE SAMPLE TEMPERATURE
RMC .OHMM                2.7 : RESISTIVITY MUD CAKE
MCST.DEGF                 75 : MUD CAKE SAMPLE TEMPERATURE
MFSS.                      M : MUD FILTRATE SAMPLE SOURCE
MCSS.                      M : MUD CAKE SAMPLE SOURCE
RMB .OHMM               0.78 : RESISTIVITY MUD AT BHT
TCS .HRS                1900 : TIME CIRCULATED STOPPED
TLAB.HRS                 232 : TIME LOGGER AT BOTTOM
LUN .                   7577 : LOGGING UNIT NUMBER
LUL .                  BRYAN : LOGGING UNIT LOCATION
ENGI.                MAHONEY : RECORDING ENGINEER
WITN.                EDWARDS : WITNESSED BY
CLNT.                A2DTECH : CLIENT CODE
ORIG.         1" 2" 5" PRINT : ORIGIN OF DATA
UWI .         42289306600000 : UNIQUE WELL ID
DICO. A2D Technologies, Inc. : DIGITIZING COMPANY
~Other -----------------------------------------------------
~ASCII -----------------------------------------------------
 4050.00000   59.24640    0.67530    1.90340    1.48110 -119.53830    -999.25    -999.25    -999.25    -999.25    -999.25    -999.25
 4100.00000   61.57180    1.78200    1.91930    1.78050 -109.99140    -999.25    -999.25    -999.25    -999.25    -999.25    -999.25
 4150.00000   57.65790    2.83330    3.62410    4.77540 -150.23950    -999.25    -999.25    -999.25    -999.25    -999.25    -999.25
 4200.00000   53.68180    1.95020    1.87450    2.09550 -112.31830    -999.25    -999.25    -999.25    -999.25    -999.25    -999.25
 4250.00000   53.72370    1.80790    1.67490    1.92250 -109.23890    -999.25    -999.25    -999.25    -999.25    -999.25    -999.25
 4300.00000   54.60550    2.17080    2.00180    2.28330 -109.74580    -999.25    -999.25    -999.25    -999.25    -999.25    -999.25
 4350.00000   61.81860    1.74630    1.64100    1.83460 -107.76320    -999.25    -999.25    -999.25    -999.25    -999.25    -999.25
 4400.00000   53.88310    1.88420    1.74630    1.98130 -107.33880    -999.25    -999.25    -999.25    -999.25    -999.25    -999.25
 4450.00000   62.89210    1.97270    1.89730    2.06180 -102.64060    -999.25    -999.25    -999.25    -999.25    -999.25    -999.25
 4500.00000   68.83850    1.95710    1.85170    2.16370 -102.37640    -999.25    -999.25    -999.25    -999.25    -999.25    -999.25
 4550.00000   65.18700    2.23970    1.42570    3.44700  -90.45300    -999.25    -999.25    -999.25    -999.25    -999.25    -999.25
 4600.00000   60.87020    1.62840    1.52470    1.71080  -71.18250    -999.25    -999.25    -999.25    -999.25    -999.25    -999.25
 4650.00000   71.30460    1.51220    1.44190    1.59050  -66.29100    -999.25    -999.25    -999.25    -999.25    -999.25    -999.25
 4700.00000   68.92480    1.40080    1.30470    1.61260  -63.62680   10.35500    -999.25    -999.25    -999.25    -999.25    -999.25
 4750.00000   65.04520    1.59640    1.48560    1.67710  -60.55800    9.70570    -999.25    -999.25    -999.25    -999.25    -999.25
 4800.00000   66.07410    1.48830    1.39100    1.56360  -63.22860    9.29510    -999.25    -999.25    -999.25    -999.25    -999.25
 4850.00000   68.94110    1.83060    1.65490    1.93350 -128.80530    9.07240    -999.25    -999.25    -999.25    -999.25    -999.25
 4900.00000   60.47680    1.86410    1.76720    1.95980 -133.59190    9.28110    -999.25    -999.25    -999.25    -999.25    -999.25
 4950.00000   81.36090    1.44060    1.34860    1.64360 -127.76320    8.38060    -999.25    -999.25    -999.25    -999.25    -999.25
 5000.00000   72.45150    1.79620    1.67630    1.86090 -124.75460    9.42560    -999.25    -999.25    -999.25    -999.25    -999.25
 5050.00000   65.48150    1.85710    1.72290    1.95250 -120.14560   10.43640    -999.25    -999.25    -999.25    -999.25    -999.25
 5100.00000   70.61420    1.65870    1.56830    1.74850 -110.70170    9.70910    -999.25    -999.25    -999.25    -999.25    -999.25
 5150.00000   63.38290    1.81970    1.76190    2.00440 -110.33270   10.20760    -999.25    -999.25    -999.25    -999.25    -999.25
 5200.00000   67.38530    1.66970    1.63290    1.75480 -112.42590   10.63400    -999.25    -999.25    -999.25    -999.25    -999.25
 5250.00000   72.79650    1.59830    1.55770    1.67930 -107.79900   10.13530    -999.25    -999.25    -999.25    -999.25    -999.25
 5300.00000   72.11200    1.55190    1.48030    1.67760 -112.94200    9.92200    -999.25    -999.25    -999.25    -999.25    -999.25
 5350.00000   54.57900    1.73200    1.64950    1.82460 -108.61510    9.54490    -999.25    -999.25    -999.25    -999.25    -999.25
 5400.00000   70.03570    0.95820    0.99910    1.37640 -111.13880    9.73880    -999.25    -999.25    -999.25    -999.25    -999.25
 5450.00000   65.03770    1.63710    1.68350    1.77360 -114.93230    8.33490    -999.25    -999.25    -999.25    -999.25    -999.25
 5500.00000   72.08770    1.12580    1.19120    1.34280 -111.13850    8.55000    -999.25    -999.25    -999.25    -999.25    -999.25
 5550.00000   71.78940    1.04200    1.09140    1.28680 -111.56480    8.55440    -999.25    -999.25    -999.25    -999.25    -999.25
 5600.00000   72.04910    0.97210    1.00110    1.24140 -118.35070    8.63390    -999.25    -999.25    -999.25    -999.25    -999.25
 5650.00000   75.62100    1.08390    1.03040    1.39430 -115.18250    9.28220    -999.25    -999.25    -999.25    -999.25    -999.25
 5700.00000   71.87850    0.88800    0.91230    1.27000 -107.96330    9.49360    -999.25    -999.25    -999.25    -999.25    -999.25
 5750.00000   74.92800    0.87090    0.92390    1.26340 -103.14680    9.49850    -999.25    -999.25    -999.25    -999.25    -999.25
 5800.00000   73.87860    0.91510    0.93890    1.29750  -95.00360    9.81560    -999.25    -999.25    -999.25    -999.25    -999.25
 5850.00000   73.32630    0.90580    0.95130    1.37890  -95.81260    9.93370    -999.25    -999.25    -999.25    -999.25    -999.25
 5900.00000   71.41750    0.96650    0.99170    1.39520  -96.77220   10.15200    -999.25    -999.25    -999.25    -999.25    -999.25
 5950.00000   81.75950    1.01640    1.04290    1.34720  -94.81210   10.17050    -999.25    -999.25    -999.25    -999.25    -999.25
 6000.00000   82.17450    1.16030    1.27880    1.57160  -95.34940   10.73590    -999.25    -999.25    -999.25    -999.25    -999.25
 6050.00000   33.88700    4.37660    4.61560    4.87850  -93.24600   10.73050    -999.25    -999.25    -999.25    -999.25    -999.25
 6100.00000   54.02700    3.31640    3.43420    3.64030  -91.03030   10.85860    -999.25    -999.25    -999.25    -999.25    -999.25
 6150.00000   57.00870    2.80690    2.88340    3.05320  -88.71240   10.98400    -999.25    -999.25    -999.25    -999.25    -999.25
 6200.00000   61.45060    2.87100    2.92320    2.68840  -87.81090   11.25550    -999.25    -999.25    -999.25    -999.25    -999.25
 6250.00000   68.54940    2.17640    2.32470    2.38950  -88.25230   11.38830    -999.25    -999.25    -999.25    -999.25    -999.25
 6300.00000   52.25050    3.25270    3.38310    3.64670  -88.99560   11.39910    -999.25    -999.25    -999.25    -999.25    -999.25
 6350.00000   64.33590    2.46730    2.53150    2.59210  -90.98790   11.28310    -999.25    -999.25    -999.25    -999.25    -999.25
 6400.00000   59.59780    1.18150    1.24060    1.55220  -92.31610   11.55030    -999.25    -999.25    -999.25    -999.25    -999.25
 6450.00000   53.46340    2.01610    2.06870    2.09730  -94.86270   11.35010    -999.25    -999.25    -999.25    -999.25    -999.25
 6500.00000   55.05850    1.47700    1.53460    1.68740  -86.48680   11.21350    -999.25    -999.25    -999.25    -999.25    -999.25
 6550.00000   44.88230    2.75590    2.82800    2.91570  -83.98270   10.73160    -999.25    -999.25    -999.25    -999.25    -999.25
 6600.00000   34.97420    2.80920    3.20470    3.62260  -87.25300    9.85240    -999.25    -999.25    -999.25    -999.25    -999.25
 6650.00000   53.06040    2.44670    2.49950    2.55950  -86.52120   10.71430    -999.25    -999.25    -999.25    -999.25    -999.25
 6700.00000   66.27790    1.53380    1.57370    1.59100  -89.05180   12.11870    -999.25    -999.25    -999.25    -999.25    -999.25
 6750.00000   64.34480    1.53370    1.57450    1.60380  -88.73450   11.87760    -999.25    -999.25    -999.25    -999.25    -999.25
 6800.00000   54.86010    1.50890    1.54990    1.60020  -92.75400   13.95720    -999.25    -999.25    -999.25    -999.25    -999.25
 6850.00000   59.88710    1.52530    1.56540    1.65970  -87.34970   12.04280    -999.25    -999.25    -999.25    -999.25    -999.25
 6900.00000   55.59050    1.86260    1.91110    2.01990  -83.22230   10.88230   87.07020    -999.25    -999.25    -999.25    -999.25
 6950.00000   31.55820    4.10480    4.45710    4.85080  -71.75500   11.49750   76.29560    0.09840    0.13170    0.00470    2.54160
 7000.00000   34.69760    3.11910    3.20340    3.35930  -67.86760   11.47300   96.83080    0.06770    0.16860    0.04930    2.59420
 7050.00000   29.47580    4.38550    4.55380    4.06690  -65.49950   11.12740   73.21580    0.07620    0.11770    0.08180    2.57970
