~Version ---------------------------------------------------
VERS. 2.0 : CWLS log ASCII Standard -VERSION 2.0
WRAP.  NO : ONE LINE PER DEPTH STEP
~Well ------------------------------------------------------
STRT.F                    3450.0 : START DEPTH
STOP.F                    8300.0 : STOP DEPTH
STEP.F                  50.00000 : STEP LENGTH
NULL.                    -999.25 : NULL VALUE
COMP. CHAMPLIN EXPLORATION, INC. : COMPANY
WELL.        ALVIN D. BOEHNKE #1 : WELL
FLD .                   GIDDINGS : FIELD
LOC .                            : LOCATION
CNTY.                    FAYETTE : COUNTY
STAT.                      TEXAS : STATE
CTRY.   UNITED STATES OF AMERICA : COUNTRY
SRVC.               Schlumberger : SERVICE COMPANY
DATE.                06-Jun-1980 : LOGDATE
API .             42149305880000 : API NUMBER
UWI .             42149305880000 : UNIQUE WELL ID
SLAT.WGS84           29.90198478 : SURFACE LATITUDE
SLON.WGS84        -97.1281845398 : SURFACE LONGITUDE
~Curve Information -----------------------------------------
DEPT   .F    0   1   0  0 : 1 MEASURED DEPTH
GRR    .GAPI 06 310 01 00 : GAMMA RAY FROM RESISTIVITY LOG
ILD    .OHMM 06 120 46 00 : INDUCTION DEEP RESISTIVITY
SFLU   .OHMM 06 220 01 00 : SHALLOW FOCUSED RESISTIVITY (UNAVERAGED)
SPR    .MV   06 010 01 00 : SPONTANEOUS POTENTIAL FROM RESISTIVITY LOG
ILM    .OHMM 06 120 44 00 : INDUCTION MEDIUM RESISTIVITY
DCALR  .IN   06 280 01 00 : DIFFERENTIAL CALIPER FROM RESISTIVITY LOG
NPHI_LS.DEC  42 890 01 00 : NEUTRON POROSITY LIMESTONE
DPHI_LS.DEC  45 890 10 00 : DENSITY POROSITY LIMESTONE
DRHO   .G/C3 45 356 01 00 : BULK DENSITY CORRECTION
CALD   .IN   45 280 60 00 : CALIPER FROM DENSITY LOG
RHOB   .G/C3 45 350 01 00 : BULK DENSITY
~Params ----------------------------------------------------
PD  .                     GL : PERMANENT DATUM
EPD .FT                  420 : ELEVATION PERMANENT DATUM
LMF .                     KB : LOG MEASURED FROM
DAPD.FT                   17 : FEET ABOVE PERMANENT DATUM
DMF .                     KB : DRILLING MEASURED FROM
EKB .FT                  437 : KELLY BUSHING
EDF .FT                  436 : DRILLING FLOOR
EGL .FT                  420 : GROUND LEVEL
DATE.               06/06/80 : RUN DATE
RUN .                      1 : RUN NUMBER
DD  .FT                 8331 : DEPTH DRILLER
DL  .FT                 8353 : DEPTH LOGGER
BLI .FT                 8334 : BOTTOM LOG INTERVAL
TLI .FT                 3453 : TOP LOG INTERVAL
CS  .IN                8.625 : CASING SIZE
CBD .FT                 3442 : CASING BOTTOM DRILLER
CBL .FT                 3453 : CASING BOTTOM LOGGER
BS  .IN                7.875 : BIT SIZE
BSD .FT                 8331 : BIT SIZE AT DEPTH
DFT .         LIGNOSULFONATE : DRILLING FLUID TYPE
DFD .                    9.4 : DRILLING FLUID DENSITY
DFV .                     48 : DRILLING FLUID VISCOSITY
DFPH.                     10 : DRILLING FLUID PH
DFL .                     65 : DRILLING FLUID LOSS
MSS .                MUD PIT : MUD SAMPLE SOURCE
RMS .OHMM                1.4 : RESISTIVITY MUD SAMPLE
MST .DEGF                 75 : MUD SAMPLE TEMPERATURE
RMF .OHMM               1.05 : RESISTIVITY MUD FILTRATE SAMPLE
MFST.DEGF                 75 : MUD FILTRATE SAMPLE TEMPERATURE
RMC .OHMM                2.1 : RESISTIVITY MUD CAKE
MCST.DEGF                 75 : MUD CAKE SAMPLE TEMPERATURE
MFSS.                      M : MUD FILTRATE SAMPLE SOURCE
MCSS.                      C : MUD CAKE SAMPLE SOURCE
RMB .OHMM                0.6 : RESISTIVITY MUD AT BHT
TCS .HRS                1200 : TIME CIRCULATED STOPPED
TLAB.HRS                1730 : TIME LOGGER AT BOTTOM
LUN .                   7750 : LOGGING UNIT NUMBER
LUL .                BRENHAM : LOGGING UNIT LOCATION
ENGI.              ZIMMERMAN : RECORDING ENGINEER
WITN.              ROBERTSON : WITNESSED BY
CLNT.                A2DTECH : CLIENT CODE
ORIG.            2" 5" PRINT : ORIGIN OF DATA
UWI .         42149305880000 : UNIQUE WELL ID
DICO. A2D Technologies, Inc. : DIGITIZING COMPANY
~Other -----------------------------------------------------
~ASCII -----------------------------------------------------
# ...
 6500.00000   73.47830    1.34010    1.62410    2.00550    1.39910    -999.25    -999.25    -999.25    -999.25    -999.25    -999.25
 6550.00000   71.77790    1.75820    1.92620    5.14170    1.83170    -999.25    -999.25    -999.25    -999.25    -999.25    -999.25
 6600.00000   81.55870    1.16510    1.35910    3.60510    1.21770    -999.25    -999.25    -999.25    -999.25    -999.25    -999.25
 6650.00000   72.50450    1.27510    1.43490    3.16420    1.32840    5.68170    0.28880    0.16030    0.10010    -999.25    -999.25
 6700.00000   74.52380    1.10860    1.28100    4.75910    1.15620    7.38640    0.32500    0.17810    0.09420    -999.25    -999.25
 6750.00000   65.72210    1.16860    1.30380    5.39120    1.19960    9.00360    0.32940    0.31290    0.09560    -999.25    -999.25
 6800.00000   79.93530    1.33190    1.54260    8.62580    1.38720    2.49780    0.35380    0.37540    0.00560    -999.25    -999.25
 6850.00000   48.23600    3.25680    3.64250   13.10620    3.33720    1.34230    0.14990    0.06270   -0.00320    -999.25    -999.25
 6900.00000   60.28860    2.30030    2.55720   14.85540    2.35330    2.41560    0.22120    0.09910    0.01560    -999.25    -999.25
 6950.00000   45.52180    3.65480    4.55020   15.02580    3.78950    2.28650    0.15450    0.07260    0.00130    -999.25    -999.25
 7000.00000   56.90260    3.15660    3.64620   17.42600    3.22980    2.79140    0.17270    0.06850    0.01140    -999.25    -999.25
 7050.00000   55.87980    2.69210    3.10880   20.58710    2.80590    2.84440    0.19340    0.09170    0.00010   10.79160    2.55270
 7100.00000   35.76060    5.75550    6.65990   15.16930    6.02200    2.04510    0.08830    0.05260   -0.00580    9.94740    2.62980
 7150.00000   27.22540    7.36000    8.69680   15.22210    7.55090    2.12240    0.06820    0.04440   -0.00740    9.98870    2.64580
 7200.00000   21.65770    8.70910   14.50850   12.25320   10.22900    1.63520    0.06650    0.11310    0.01430    9.50240    2.48790
 7250.00000   28.33600    6.05960    4.18510   13.75690    5.55550    2.42790    0.09730    0.24170    0.04300   10.38200    2.31700
 7300.00000   32.29030    4.77850    3.08650   12.82590    4.03930    4.12000    0.18560    0.34160    0.09620   11.95750    2.08100
 7350.00000   64.16290    2.79330    3.28610   21.27250    2.14830    2.15600    0.26920    0.19110    0.10570   10.17290    2.41060
 7400.00000   52.63200    3.45210    2.53300   18.27300    2.93050    2.36720    0.22360    0.13960    0.04230   10.49650    2.37130
 7450.00000   27.28930    6.57960    6.89360   24.51440    6.70680    2.29140    0.06740    0.03920   -0.00540   10.15570    2.62830
 7500.00000   23.37170    5.77660    6.49360   22.08660    5.93870    2.25740    0.07990    0.03840   -0.00050   10.16480    2.62250
 7550.00000   27.04520    6.31050   12.17010   29.52740    6.72600    1.84040    0.05920    0.04800   -0.00610    9.79710    2.63670
 7600.00000   32.34580    7.18960    8.98230   28.17690    7.53810    1.37580    0.06850    0.04160   -0.00660    9.29000    2.63070
 7650.00000   24.21180   13.27990   25.05710   25.11010   12.85810    1.37800    0.03820    0.04430   -0.00410    9.25670    2.64140
 7700.00000   30.11780   18.05450   19.61780   15.95200   18.15940    2.36660    0.06050    0.11450    0.08560   10.20240    2.47380
 7750.00000   71.92450    1.74000    2.41140   21.04680    1.56130    5.81320    0.36940    0.25290    -999.25   14.14870    2.38350
 7800.00000   19.96630   17.98770   18.12420   18.31070   16.49290    1.87860    0.02970    0.00060    0.06930    9.79500    2.69080
 7850.00000   34.85400    6.33270    8.16330   45.41730    6.48150    2.76190    0.08570   -0.00460    0.07850   10.67600    2.68300
 7900.00000   17.81340   13.60870   15.70450   15.16290   14.26800    2.13390    0.02710   -0.00140    0.09790   10.05340    2.68720
 7950.00000   30.62980   16.09000   17.97650   33.11150   13.49980    1.08570    0.04850    0.00350    0.09850    9.02980    2.68530
 8000.00000   14.39570   26.76580   31.21710   27.00200   26.61750    0.82250    0.02550   -0.02590    -999.25    8.75310    2.68590
 8050.00000   13.08530   35.29820   61.61090   30.84700   36.54720    0.58370    0.01680   -0.00960    -999.25    8.50670    2.70150
 8100.00000   14.44950    3.41960   19.09470  -75.80530    4.10120    0.15400    0.14160    0.10150    -999.25    8.12690    2.47730
 8150.00000   19.99270   35.04430   87.22710   52.49930   39.68500    0.22700    0.01740   -0.03730    -999.25    8.20150    2.68250
 8200.00000   16.59720    2.54680   15.40660  -73.53340    2.28020   -0.39650    0.12990    0.09840    -999.25    7.65550    2.52500
 8250.00000   13.54310    1.83000    9.54440  -69.23280    1.66310   -0.54400    0.21420    0.10420    -999.25    7.58590    2.47050
 8300.00000   23.86410    0.95070    9.02910  -67.58020    0.98860   -0.39020    0.21180    0.05560    -999.25    7.53820    2.48780
