~Version ---------------------------------------------------
VERS.      2.0 : CWLS log ASCII Standard -VERSION 2.0
WRAP.      YES : Multiple lines per depth step
CREA. 08/24/12 : LAS Creation Date
~Well ------------------------------------------------------
STRT.FT                   3950.0 : START DEPTH
STOP.FT                   8050.0 : STOP DEPTH
STEP.FT                 50.00000 : STEP LENGTH
NULL.                    -999.25 : NULL VALUE
COMP. CHAMPLIN PETROLEUM COMPANY : COMPANY
WELL.      JAMES SEBESTA UNIT #1 : WELL
FLD .                   GIDDINGS : FIELD
LOC .                            : LOCATION
CNTY.                   BURLESON : COUNTY
STAT.                      TEXAS : STATE
CTRY.   UNITED STATES OF AMERICA : COUNTRY
SRVC.               Schlumberger : SERVICE COMPANY
DATE.                21-Jun-1980 : LOGDATE
API .             42051307260000 : API NUMBER
UWI .             42051307260000 : UNIQUE WELL ID
SLAT.WGS84         30.5300439853 : SURFACE LATITUDE
SLON.WGS84         -96.633329984 : SURFACE LONGITUDE
~Curve Information -----------------------------------------
DEPT    .FT    : DEPTH FEET
CALDED  .IN    : CALIPER FROM COMPENSATED NEUTRON FORMATION DENSITY LOG
CALWS   .IN    : CALIPER [CALDED]
CONDWS  .MMHO  : CONDUCTIVITY [1000/DRESWS]
DCORWS  .G/C3  : DENSITY CORRECTION [DRHOED]
DENWS   .G/C3  : BULK DENSITY [RHOBED]
DPHILSED.V/V   : DENSITY POROSITY LIMESTONE [M=2.65 F=1.0] FROM COMPENSATED NEUTRON FORMATION DENSITY LOG
DPHISSED.V/V   : DENSITY POROSITY SANDSTONE [M=2.65 F=1.0] FROM COMPENSATED NEUTRON FORMATION DENSITY LOG
DPOWS   .V/V   : DENSITY POROSITY LIMESTONE [M=2.71, F=1.0] [CALCULATED FROM DENWS]
DRESWS  .OHMM  : DEEP RESISTIVITY [ILDED]
DRHOED  .G/C3  : BULK DENSITY CORRECTION FROM COMPENSATED NEUTRON FORMATION DENSITY LOG
DTED    .US/F  : ACOUSTIC TRANSIT TIME SLOWNESS FROM DUAL INDUCTION-SFL-SONIC LOG
DTWS    .US/F  : COMPRESSIONAL SONIC [DTED]
GRDED   .GAPI  : GAMMA RAY FROM COMPENSATED NEUTRON FORMATION DENSITY LOG [ADJ. TO GRRED]
GRRED   .GAPI  : GAMMA RAY FROM RESISTIVITY FROM DUAL INDUCTION-SFL-SONIC LOG
GRWS    .GAPI  : GAMMA RAY [GRRED]
ILDED   .OHMM  : DEEP INDUCTION RESISTIVITY FROM DUAL INDUCTION-SFL-SONIC LOG
ILMED   .OHMM  : INDUCTION LOG MEDIUM RESISTIVITY FROM DUAL INDUCTION-SFL-SONIC LOG
MRESWS  .OHMM  : MEDIUM RESISTIVITY [ILMED]
NPHILSED.V/V   : NEUTRON POROSITY LIMESTONE FROM COMPENSATED NEUTRON FORMATION DENSITY LOG [ADJ. TO GRDED/DTWS]
NPHISSED.V/V   : NEUTRON POROSITY SANDSTONE FROM COMPENSATED NEUTRON FORMATION DENSITY LOG  [ADJ. TO GRDED/DTWS]
NPOWS   .V/V   : NEUTRON POROSITY LIMESTONE [NPHISSED MATRIX CONVERTED TO LIMESTONE & SPL. TO NPHILSED @ 6003.5' ]
RHOBED  .G/C3  : BULK DENSITY FROM COMPENSATED NEUTRON FORMATION DENSITY LOG
SFLUED  .OHMM  : SPHERICALLY FOCUSED LOG FROM DUAL INDUCTION-SFL-SONIC LOG
SPHILSED.V/V   : SONIC POROSITY LIMESTONE FROM SONIC DENSITY LOG
SPOWS   .V/V   : SONIC POROSITY LIMESTONE [SPHIED]
SPRED   .MV    : SPONTANEOUS POTENTIAL FROM DUAL INDUCTION-SFL-SONIC LOG
SPWS    .MV    : SPONTANEOUS POTENTIAL [BASELINE 0 MV, SPRED]
SRESWS  .OHMM  : SHALLOW RESISTIVITY [SFLUED]
~Params ----------------------------------------------------
PD  .                     GL : PERMANENT DATUM
EPD .FT                  379 : ELEVATION PERMANENT DATUM
LMF .                     KB : LOG MEASURED FROM
DAPD.FT                   17 : FEET ABOVE PERMANENT DATUM
DMF .                     KB : DRILLING MEASURED FROM
EKB .FT                  396 : KELLY BUSHING
EDF .FT                  395 : DRILLING FLOOR
EGL .FT                  379 : GROUND LEVEL
DATE.               06/21/80 : RUN DATE
RUN .                      1 : RUN NUMBER
DD  .FT                 8065 : DEPTH DRILLER
DL  .FT                 8061 : DEPTH LOGGER
BLI .FT                 8054 : BOTTOM LOG INTERVAL
TLI .FT                 3977 : TOP LOG INTERVAL
CS  .IN                9.625 : CASING SIZE
CBD .FT                 3968 : CASING BOTTOM DRILLER
CBL .FT                 3977 : CASING BOTTOM LOGGER
BS  .IN                  8.5 : BIT SIZE
BSD .FT                 8065 : BIT SIZE AT DEPTH
DFT .             BEN EX GEL : DRILLING FLUID TYPE
DFD .                    9.9 : DRILLING FLUID DENSITY
DFV .                     46 : DRILLING FLUID VISCOSITY
DFPH.                    9.5 : DRILLING FLUID PH
DFL .                    9.5 : DRILLING FLUID LOSS
MSS .               CIRC PIT : MUD SAMPLE SOURCE
RMS .OHMM               1.86 : RESISTIVITY MUD SAMPLE
MST .DEGF                 80 : MUD SAMPLE TEMPERATURE
RMF .OHMM               1.81 : RESISTIVITY MUD FILTRATE SAMPLE
MFST.DEGF                 80 : MUD FILTRATE SAMPLE TEMPERATURE
RMC .OHMM               2.29 : RESISTIVITY MUD CAKE
MCST.DEGF                 80 : MUD CAKE SAMPLE TEMPERATURE
MFSS.                      M : MUD FILTRATE SAMPLE SOURCE
MCSS.                      C : MUD CAKE SAMPLE SOURCE
RMB .OHMM               0.76 : RESISTIVITY MUD AT BHT
TCS .HRS                2000 : TIME CIRCULATED STOPPED
TLAB.HRS                 130 : TIME LOGGER AT BOTTOM
LUN .                   8096 : LOGGING UNIT NUMBER
LUL .                BRENHAM : LOGGING UNIT LOCATION
ENGI.               HENDRICK : RECORDING ENGINEER
WITN.                CAMERON : WITNESSED BY
CLNT.                A2DTECH : CLIENT CODE
ORIG.          1" 2.5" PRINT : ORIGIN OF DATA
UWI .         42051307260000 : UNIQUE WELL ID
DICO. A2D Technologies, Inc. : DIGITIZING COMPANY
~Other -----------------------------------------------------
ALL CNFD CURVES NOT SHIFTED TO GRDED AS THEY ARE ON-DEPTH WITH GRDED.
~ASCII -----------------------------------------------------
# ...
 5200.00000    9.96160    9.96160  792.89570    0.05500    2.44870    -999.25    0.11370    0.15280    1.26120    0.05500  101.10150  101.10150   97.99420   95.31310   95.31310    1.26120    1.21210    1.21210    -999.25    0.38950    0.34640    2.44870    1.48430    -999.25    -999.25    0.43790   -2.85640    1.48430
 5250.00000   10.68030   10.68030  760.10950    0.08760    2.45540    -999.25    0.11720    0.14890    1.31560    0.08760  104.15690  104.15690  105.28580   89.95400   89.95400    1.31560    1.26440    1.26440    -999.25    0.34200    0.29830    2.45540    1.43060    -999.25    -999.25   -3.69220   -7.46390    1.43060
 5300.00000   11.36540   11.36540  923.95820    0.05300    2.41780    -999.25    0.12970    0.17090    1.08230    0.05300  107.89780  107.89780  108.81680  100.13170  100.13170    1.08230    1.03700    1.03700    -999.25    0.38810    0.34500    2.41780    1.26950    -999.25    -999.25   -0.37290   -4.62210    1.26950
 5350.00000   10.69920   10.69920 1031.45950    0.09960    2.38000    -999.25    0.15890    0.19300    0.96950    0.09960  110.79320  110.79320  116.66880   98.11230   98.11230    0.96950    0.92820    0.92820    -999.25    0.43380    0.39170    2.38000    1.12460    -999.25    -999.25   -2.43030   -7.15690    1.12460
 5400.00000    9.33910    9.33910  293.87560    0.00660    2.52990    -999.25    0.06400    0.10530    3.40280    0.00660   83.27960   83.27960   80.82440   66.38220   66.38220    3.40280    3.11730    3.11730    -999.25    0.25140    0.20750    2.52990    3.63130    -999.25    -999.25    3.17910   -2.02500    3.63130
 5450.00000    9.61910    9.61910  705.16890    0.05770    2.43710    -999.25    0.12550    0.15960    1.41810    0.05770   94.93920   94.93920  107.15830   99.39370   99.39370    1.41810    1.36290    1.36290    -999.25    0.31750    0.27360    2.43710    1.46870    -999.25    -999.25    3.04960   -2.63200    1.46870
 5500.00000   10.12600   10.12600  702.14860    0.04740    2.37690    -999.25    0.15370    0.19480    1.42420    0.04740   95.03410   95.03410   99.16600  100.48460  100.48460    1.42420    1.36710    1.36710    -999.25    0.34110    0.29740    2.37690    1.45700    -999.25    -999.25    2.13330   -4.02570    1.45700
 5550.00000    9.66530    9.66530  668.89630    0.02840    2.41600    -999.25    0.13800    0.17190    1.49500    0.02840   97.51890   97.51890  104.61760   88.98740   88.98740    1.49500    1.43670    1.43670    -999.25    0.36650    0.32310    2.41600    1.19550    -999.25    -999.25    1.25620   -5.38030    1.19550
 5600.00000   10.95710   10.95710  703.87840    0.07580    2.48780    -999.25    0.08600    0.12990    1.42070    0.07580   93.57290   93.57290  107.78740   96.00400   96.00400    1.42070    1.35700    1.35700    -999.25    0.35290    0.30930    2.48780    1.45550    -999.25    -999.25   -0.17010   -6.93130    1.45550
 5650.00000   12.53530   12.53530  665.15900    0.08850    2.40540    -999.25    0.16320    0.17810    1.50340    0.08850   95.59940   95.59940  109.29270  109.11710  109.11710    1.50340    1.45640    1.45640    -999.25    0.36150    0.31800    2.40540    1.63280    -999.25    -999.25   -1.70550   -8.36590    1.63280
 5700.00000   13.19620   13.19620  855.21250    0.08120    2.40490    -999.25    0.15240    0.17840    1.16930    0.08120  101.79630  101.79630  117.16890  115.97870  115.97870    1.16930    1.13730    1.13730    -999.25    0.41900    0.37650    2.40490    1.22110    -999.25    -999.25    1.28330   -5.27630    1.22110
 5750.00000   12.19210   12.19210  729.82050    0.08400    2.46710    -999.25    0.10490    0.14200    1.37020    0.08400   95.98200   95.98200  120.82870  113.94560  113.94560    1.37020    1.28390    1.28390    -999.25    0.30890    0.26500    2.46710    1.47170    -999.25    -999.25   -2.04020   -8.49900    1.47170
 5800.00000   12.47730   12.47730  983.09080    0.05430    2.33920    -999.25    0.18530    0.21680    1.01720    0.05430  107.18570  107.18570  122.01230  109.74550  109.74550    1.01720    0.99430    0.99430    -999.25    0.40940    0.36670    2.33920    1.04820    -999.25    -999.25    2.50420   -3.85380    1.04820
 5850.00000    9.77330    9.77330  634.59830    0.06290    2.43900    -999.25    0.12180    0.15850    1.57580    0.06290   91.64380   91.64380  149.92710  126.96710  126.96710    1.57580    1.48340    1.48340    -999.25    0.34130    0.29750    2.43900    1.66170    -999.25    -999.25    4.81100   -1.44620    1.66170
 5900.00000    9.92720    9.92720  561.35620    0.09520    2.44370    -999.25    0.11660    0.15570    1.78140    0.09520   91.69720   91.69720  117.37190  113.70360  113.70360    1.78140    1.68460    1.68460    -999.25    0.31540    0.27150    2.44370    1.85390    -999.25    -999.25    3.60270   -2.55360    1.85390
 5950.00000    9.54330    9.54330  531.09570    0.13340    2.48870    -999.25    0.09380    0.12940    1.88290    0.13340   90.32440   90.32440  109.83640   96.73480   96.73480    1.88290    1.80910    1.80910    -999.25    0.31770    0.27380    2.48870    1.97360    -999.25    -999.25    0.72000   -5.33550    1.97360
 6000.00000   10.28000   10.28000  569.34640    0.09280    2.49170    -999.25    0.07760    0.12770    1.75640    0.09280   93.51780   93.51780  107.89610  105.03000  105.03000    1.75640    1.68810    1.68810    -999.25    0.31460    0.27070    2.49170    1.84500    -999.25    -999.25   -0.62440   -6.57910    1.84500
 6050.00000   10.80060   10.80060  726.58580    0.07190    2.43520    0.15400    -999.25    0.16070    1.37630    0.07190   97.62870   97.62870  110.29280  106.42190  106.42190    1.37630    1.31950    1.31950    0.28140    -999.25    0.27340    2.43520    1.43390    -999.25    -999.25    2.10260   -3.72850    1.43390
 6100.00000   11.04750   11.04750  663.17400    0.07140    2.46090    0.13350    -999.25    0.14570    1.50790    0.07140   96.97190   96.97190  106.96880  101.22610  101.22610    1.50790    1.44950    1.44950    0.29430    -999.25    0.29690    2.46090    1.66160    0.34970    0.34970   -1.05520   -6.55680    1.66160
 6150.00000   10.60150   10.60150  692.85660    0.12180    2.46620    0.14230    -999.25    0.14260    1.44330    0.12180   96.75380   96.75380  114.14580  102.13190  102.13190    1.44330    1.38740    1.38740    0.28430    -999.25    0.27800    2.46620    1.64180    0.34920    0.34920    1.15270   -4.01940    1.64180
 6200.00000   10.44070   10.44070  530.95470    0.13590    2.48380    0.13050    -999.25    0.13230    1.88340    0.13590   88.45430   88.45430   94.75240   83.84760   83.84760    1.88340    1.77030    1.77030    0.25710    -999.25    0.26390    2.48380    2.10920    0.28770    0.28770   -3.94540   -8.36160    2.10920
 6250.00000   10.48040   10.48040  613.72280    0.10060    2.48400    0.12810    -999.25    0.13220    1.62940    0.10060   94.57800   94.57800  105.00780  101.13250  101.13250    1.62940    1.63080    1.63080    0.27160    -999.25    0.26500    2.48400    1.79300    0.33380    0.33380    1.60810   -0.23420    1.79300
 6300.00000   10.51890   10.51890  650.02600    0.12710    2.50410    0.10930    -999.25    0.12040    1.53840    0.12710   96.63640   96.63640  105.58240   98.78190   98.78190    1.53840    1.50480    1.50480    0.30050    -999.25    0.30060    2.50410    1.69290    0.34590    0.34590   -2.17550   -3.75670    1.69290
 6350.00000    9.83060    9.83060  392.51090    0.01560    2.51520    0.10610    -999.25    0.11390    2.54770    0.01560   82.34820   82.34820   81.13540   78.02240   78.02240    2.54770    2.35280    2.35280    0.16750    -999.25    0.14640    2.51520    2.57750    0.24210    0.24210   -1.30560   -3.61680    2.57750
 6400.00000    9.55490    9.55490  356.67150    0.00570    2.57630    0.07880    -999.25    0.07820    2.80370    0.00570   79.75200   79.75200   67.13010   53.94350   53.94350    2.80370    2.67290    2.67290    0.14690    -999.25    0.15240    2.57630    3.43660    0.22550    0.22550   -1.01950   -4.06080    3.43660
