~Version ---------------------------------------------------
VERS. 2.0 : CWLS log ASCII Standard -VERSION 2.0
WRAP. YES : MULTIPLE LINES PER DEPTH STEP
~Well ------------------------------------------------------
STRT.FT                      300.0 : START DEPTH
STOP.FT                     7950.0 : STOP DEPTH
STEP.FT                   50.00000 : STEP LENGTH
NULL.                      -999.25 : NULL VALUE
COMP. AMOCO PRODUCTION COMPANY USA : COMPANY
WELL.              JOHN JARROTT #1 : WELL
FLD .                     WHEELOCK : FIELD
LOC .                              : LOCATION
CNTY.                    ROBERTSON : COUNTY
STAT.                        TEXAS : STATE
CTRY.     UNITED STATES OF AMERICA : COUNTRY
SRVC.                 Schlumberger : SERVICE COMPANY
DATE.                  12-Jan-1984 : LOGDATE
API .               42395302890000 : API NUMBER
UWI .               42395302890000 : UNIQUE WELL ID
SLAT.WGS84           30.9033199456 : SURFACE LATITUDE
SLON.WGS84          -96.3760313841 : SURFACE LONGITUDE
~Curve Information -----------------------------------------
DEPT    .FT    : DEPTH FEET
CALDED  .IN    : CALIPER FROM DENSITY LOG [DEP ADJ TO GRRED]
CALRED  .IN    : CALIPER FROM RESISTIVITY LOG
CALSED  .IN    : CALIPER FROM SONIC LOG [DEP ADJ TO GRRED]
CALWS   .IN    : CALIPER [97 CALDED 7738.5 CALSED]
CONDWS  .MMHO  : CONDUCTIVITY [1000/DRESWS]
DCORWS  .G/C3  : DENSITY CORRECTION [DRHOED]
DENWS   .G/C3  : BULK DENSITY [M=2.71 F=1.0] [RHOBED]
DPHILSED.V/V   : DENSITY POROSITY [M=2.71 F=1.0] FROM DENSITY LOG [DEP ADJ TO GRRED]
DPOWS   .V/V   : DENSITY POROSITY [M=2.71 F=1.0] [CAL FR DENWS]
DRESWS  .OHMM  : DEEP RESISTIVITY [ILDED]
DRHOED  .G/C3  : DENSITY CORRECTION FROM DENSITY LOG [DEP ADJ TO GRRED]
DTED    .US/F  : DELTA TIME FROM SONIC LOG [DEP ADJ TO GRRED]
DTWS    .US/F  : DELTA TIME [DTED]
GRDED   .GAPI  : GAMMA RAY FROM DENSITY LOG [DEP ADJ TO GRRED]
GRRED   .GAPI  : GAMMA RAY FROM RESISTIVITY LOG
GRSED   .GAPI  : GAMMA RAY FROM SONIC LOG [DEP ADJ TO GRRED]
GRWS    .GAPI  : GAMMA RAY [GRDED]
ILDED   .OHMM  : INDUCTION LOG DEEP RESISTIVITY
ILMED   .OHMM  : INDUCTION LOG MEDIUM RESISTIVITY
MRESWS  .OHMM  : MEDIUM RESISTIVITY [ILMED]
NPHILSED.V/V   : NEUTRON POROSITY LIMESTONE FROM DENSITY LOG [DEP ADJ TO GRRED]
NPOWS   .V/V   : NEUTRON POROSITY LIMESTONE [NPHILSED]
PEFED   .B/E   : PHOTOELECTRIC FACTOR FROM DENSITY LOG [DEP ADJ TO GRRED]
PEFWS   .B/E   : PHOTOELECTRIC FACTOR [PEFED]
RHOBED  .G/C3  : BULK DENSITY FROM DENSITY LOG  [DEP ADJ TO GRRED]
SFLUED  .OHMM  : SPHERICALLY FOCUSED LOG RESISTIVITY
SPHILSED.V/V   : SONIC POROSITY FROM SONIC LOG [DEP ADJ TO GRRED] [M=47.6 F=189]
SPOWS   .V/V   : SONIC POROSITY [CAL FR DTWS] [M=47.6 F=189]
SPRED   .MV    : SPONTANEOUS POTENTIAL FROM RESISTIVITY LOG [SHIFT IS REMOVED]
SPWS    .MV    : SPONTANEOUS POTENTIAL [BASELINE 0 MV] [SPRED]
SRESWS  .OHMM  : SHALLOW RESISTIVITY [SFLUED]
TENDED  .LBF   : TENSION FROM DENSITY LOG [DEP ADJ TO GRRED]
~Params ----------------------------------------------------
PD  .                     GL : PERMANENT DATUM
EPD .FT                404.8 : ELEVATION PERMANENT DATUM
LMF .                     KB : LOG MEASURED FROM
DAPD.FT                 16.6 : FEET ABOVE PERMANENT DATUM
DMF .                     KB : DRILLING MEASURED FROM
EKB .FT                421.4 : KELLY BUSHING
EDF .FT                420.4 : DRILLING FLOOR
EGL .FT                404.8 : GROUND LEVEL
DATE.               01/12/84 : RUN DATE
RUN .                      1 : RUN NUMBER
DD  .FT                 7050 : DEPTH DRILLER
DL  .FT                 7964 : DEPTH LOGGER
BLI .FT                 7958 : BOTTOM LOG INTERVAL
TLI .FT                 3102 : TOP LOG INTERVAL
CS  .IN                9.625 : CASING SIZE
CBD .FT                 3100 : CASING BOTTOM DRILLER
CBL .FT                 3102 : CASING BOTTOM LOGGER
BS  .IN                 8.75 : BIT SIZE
BSD .FT                 7050 : BIT SIZE AT DEPTH
DFT .                    LPH : DRILLING FLUID TYPE
DFD .                    9.6 : DRILLING FLUID DENSITY
DFV .                     38 : DRILLING FLUID VISCOSITY
DFPH.                    9.4 : DRILLING FLUID PH
DFL .                    8.6 : DRILLING FLUID LOSS
MSS .                   TANK : MUD SAMPLE SOURCE
RMS .OHMM               6.45 : RESISTIVITY MUD SAMPLE
MST .DEGF                 74 : MUD SAMPLE TEMPERATURE
RMF .OHMM               5.91 : RESISTIVITY MUD FILTRATE SAMPLE
MFST.DEGF                 74 : MUD FILTRATE SAMPLE TEMPERATURE
RMC .OHMM               7.02 : RESISTIVITY MUD CAKE
MCST.DEGF                 74 : MUD CAKE SAMPLE TEMPERATURE
MFSS.                   MEAS : MUD FILTRATE SAMPLE SOURCE
RMB .OHMM              2.625 : RESISTIVITY MUD AT BHT
TCS .HRS                1000 : TIME CIRCULATED STOPPED
TLAB.HRS                1800 : TIME LOGGER AT BOTTOM
LUN .                   8143 : LOGGING UNIT NUMBER
LUL .                  CARTH : LOGGING UNIT LOCATION
ENGI.             GRANT HIGH : RECORDING ENGINEER
WITN.       ARTIGAS NORVILLE : WITNESSED BY
CLNT.                A2DTECH : CLIENT CODE
ORIG.            2" 5" PRINT : ORIGIN OF DATA
UWI .         42395302890000 : UNIQUE WELL ID
DICO. A2D Technologies, Inc. : DIGITIZING COMPANY
~Other -----------------------------------------------------
~ASCII -----------------------------------------------------
# ...
 6900.00000    8.96900    8.96900    9.05360    8.96900  196.13230   -0.01350    2.57360    0.07610    0.07980    5.09860   -0.01350   74.16430   74.16430   40.90110   37.94130   39.32120   40.90110    5.09860    5.32620    5.32620    0.14050    0.14050    4.66310    4.66310    2.57360    5.52870    0.18520    0.18790  -32.93960  -18.95130    5.52870 3389.22460
 6950.00000    9.14790    9.26330    9.31850    9.14790  169.11600   -0.02030    2.57960    0.07420    0.07630    5.91310   -0.02030   68.59190   68.59190   30.94690   28.48980   31.37960   30.94690    5.91310    6.39030    6.39030    0.11980    0.11980    4.52020    4.52020    2.57960    5.22790    0.16740    0.14850  -36.94950  -22.35710    5.22790 2994.96680
 7000.00000    9.51360    9.65870    9.74580    9.51360  195.53400    0.00540    2.61620    0.05330    0.05490    5.11420    0.00540   72.57210   72.57210   41.82500   43.58920   36.75730   41.82500    5.11420    5.36870    5.36870    0.10450    0.10450    4.66640    4.66640    2.61620    6.10270    0.16640    0.17660  -29.99970  -14.80310    6.10270 3416.47170
 7050.00000    9.90310   10.13250   10.17770    9.90310  195.24390   -0.02050    2.57770    0.07530    0.07740    5.12180   -0.02050   70.39570   70.39570   43.41600   45.03220   39.14200   43.41600    5.12180    5.34790    5.34790    0.11310    0.11310    4.63880    4.63880    2.57770    6.06790    0.16510    0.16120  -29.68060  -13.87980    6.06790 3478.60350
 7100.00000    9.47420    9.69750    9.67810    9.47420  119.47290   -0.01430    2.55880    0.08630    0.08840    8.37010   -0.01430   65.38690   65.38690   34.70310   30.96510   30.31470   34.70310    8.37010    8.80650    8.80650    0.11280    0.11280    4.92530    4.92530    2.55880   10.20500    0.12900    0.12580  -42.50000  -26.29680   10.20500 3308.08980
 7150.00000   14.98340   12.86980   13.24380   14.98340  459.58000    0.06070    2.46930    0.14000    0.14080    2.17590    0.06070   87.64370   87.64370   69.19510   63.54160   69.86540   69.19510    2.17590    2.27350    2.27350    0.30820    0.30820    3.71250    3.71250    2.46930    2.28000    0.24090    0.28320  -32.31800  -16.51930    2.28000 3321.83010
 7200.00000   16.16940   13.19580   13.07370   16.16940  727.37850    0.06230    2.31940    0.22650    0.22840    1.37480    0.06230  100.27840  100.27840   68.30510   59.21530   71.75240   68.30510    1.37480    1.43800    1.43800    0.35620    0.35620    3.04220    3.04220    2.31940    1.56330    0.31510    0.37250  -36.65080  -21.25660    1.56330 3294.49800
 7250.00000   16.99190   13.09340   13.03110   16.99190  859.25420    0.07150    2.14930    0.32670    0.32790    1.16380    0.07150  100.18760  100.18760   63.32260   61.07940   69.81980   63.32260    1.16380    1.21940    1.21940    0.37910    0.37910    4.82930    4.82930    2.14930    1.33080    0.33430    0.37190  -35.22840  -20.23880    1.33080 3305.98240
 7300.00000   17.25620   13.18230   13.09190   17.25620  729.92700    0.07350    2.23580    0.27860    0.27730    1.37000    0.07350  101.59480  101.59480   70.86550   77.00530   76.23850   70.86550    1.37000    1.43300    1.43300    0.39400    0.39400    4.73620    4.73620    2.23580    1.56040    0.32560    0.38190  -35.50890  -20.92380    1.56040 3318.19730
 7350.00000   13.95720   12.92930   12.91410   13.95720  616.63680    0.06900    2.41050    0.17390    0.17510    1.62170    0.06900   94.70380   94.70380   77.38060   72.74270   77.49370   77.38060    1.62170    1.69560    1.69560    0.29160    0.29160    3.35200    3.35200    2.41050    1.87830    0.27940    0.33310  -34.95100  -20.77050    1.87830 3347.18650
 7400.00000   19.74990   13.29170   13.14410   19.74990  835.56150    0.06270    1.96070    0.43630    0.43820    1.19680    0.06270  101.24020  101.24020   62.40820   66.08610   58.82220   62.40820    1.19680    1.26420    1.26420    0.46440    0.46440    6.24990    6.24990    1.96070    1.43370    0.33600    0.37940  -28.66040  -14.88440    1.43370 3371.00590
 7450.00000   14.22020   12.89470   12.88780   14.22020  456.12120    0.06900    2.48000    0.13160    0.13450    2.19240    0.06900   97.74520   97.74520   77.37730   71.55110   71.71920   77.37730    2.19240    2.29330    2.29330    0.33010    0.33010    4.30010    4.30010    2.48000    2.63040    0.32040    0.35460  -20.32890   -6.95750    2.63040 3352.49900
 7500.00000   10.64250   10.55850   10.62850   10.64250  375.02340    0.01970    2.44390    0.15460    0.15560    2.66650    0.01970  100.32910  100.32910   89.70740   79.10330   80.01200   89.70740    2.66650    2.85200    2.85200    0.34400    0.34400    4.05420    4.05420    2.44390    3.86960    0.33660    0.37290  -16.85790   -3.89100    3.86960 3392.34770
 7550.00000   11.17710   10.94000   11.09070   11.17710  326.42400   -0.00100    2.45650    0.14550    0.14820    3.06350   -0.00100  100.44270  100.44270   88.06230   79.58870   77.96140   88.06230    3.06350    3.35140    3.35140    0.29080    0.29080    3.82280    3.82280    2.45650    4.51830    0.32520    0.37370  -14.04720   -2.15090    4.51830 3432.76270
 7600.00000   10.09850   10.46290   10.54460   10.09850  203.66600   -0.00210    2.60030    0.05290    0.06420    4.91000   -0.00210   74.48080   74.48080   74.56110   70.62050   72.79210   74.56110    4.91000    5.60670    5.60670    0.26600    0.26600    4.11210    4.11210    2.60030    7.16060    0.19970    0.19010  -11.21690   -1.31100    7.16060 3427.05080
 7650.00000   15.08500   12.98410   12.92220   15.08500  491.69050    0.07930    2.27170    0.26400    0.25630    2.03380    0.07930  103.83660  103.83660   78.24030   68.74680   64.26170   78.24030    2.03380    1.80940    1.80940    0.40300    0.40300    4.76360    4.76360    2.27170    2.43150    0.33990    0.39770  -17.59830   -8.80100    2.43150 3499.11230
 7700.00000   12.89810   11.29430   11.47020   12.89810  466.07010    0.00030    2.25900    0.26950    0.26370    2.14560    0.00030  112.74110  112.74110   90.01320   71.87230   76.90740   90.01320    2.14560    1.88800    1.88800    0.39520    0.39520    4.08430    4.08430    2.25900    3.21770    0.45670    0.46070  -16.39270   -8.61680    3.21770 3509.56050
 7750.00000    9.23000    9.60230    9.58740    9.58740   61.86660   -0.00520    2.69040    0.01040    0.01150   16.16380   -0.00520   54.93770   54.93770   22.01100   19.53990   22.30870   22.01100   16.16380   18.01860   18.01860    0.03470    0.03470    4.89280    4.89280    2.69040   20.93700    0.05650    0.05190   -8.85610   -4.25070   20.93700 3521.62500
 7800.00000    8.69510    9.02540    9.04030    9.04030   30.05360    0.03650    2.67750    0.01710    0.01900   33.27390    0.03650   55.94030   55.94030   16.87500   18.07050   17.98670   16.87500   33.27390   36.38150   36.38150    0.02470    0.02470    5.19490    5.19490    2.67750   37.04540    0.05640    0.05900   -5.89030   -5.09730   37.04540 3519.98830
 7850.00000    8.27070    8.62630    8.62100    8.62100  109.07270    0.03840    2.57570    0.07090    0.07850    9.16820    0.03840   70.47710   70.47710   71.27720   69.19760   72.83740   71.27720    9.16820    9.82700    9.82700    0.14270    0.14270    4.55470    4.55470    2.57570   10.10860    -999.25    0.16180   -2.14810   -2.95920   10.10860 3573.28420
 7900.00000    8.17930    8.61910    8.50300    8.50300   66.70580    0.02950    2.67580    0.01790    0.02000   14.99120    0.02950   57.36620   57.36620   32.15020   28.93900   24.88280   32.15020   14.99120   15.39670   15.39670    0.05310    0.05310    4.93520    4.93520    2.67580   14.05610    -999.25    0.06910   -3.23170   -4.16070   14.05610 3576.55760
 7950.00000    8.06890    9.03960    8.22040    8.22040   29.26010    0.04470    2.69140    0.00770    0.01090   34.17620    0.04470   53.53560   53.53560    -999.25    -999.25   17.03470    -999.25   34.17620   36.47760   36.47760    0.01950    0.01950    5.22010    5.22010    2.69140   35.48520    -999.25    0.04200   -6.55160   -7.48060   35.48520 3582.96000
