~Version ---------------------------------------------------
VERS.      2.0 : CWLS log ASCII Standard -VERSION 2.0
WRAP.      YES : Multiple lines per depth step
CREA. 08/18/12 : LAS Creation Date
~Well ------------------------------------------------------
STRT.FT                 2900.0 : START DEPTH
STOP.FT                17850.0 : STOP DEPTH
STEP.FT               50.00000 : STEP LENGTH
NULL.                  -999.25 : NULL VALUE
COMP. AMOCO PRODUCTION COMPANY : COMPANY
WELL.   JIMMY HILL GAS UNIT #1 : WELL
FLD .                  WILDCAT : FIELD
LOC .                          : LOCATION
CNTY.                     LEON : COUNTY
STAT.                    TEXAS : STATE
CTRY. UNITED STATES OF AMERICA : COUNTRY
SRVC.             Schlumberger : SERVICE COMPANY
DATE.              04-Jun-1996 : LOGDATE
API .           42289312310000 : API NUMBER
UWI .           42289312310000 : UNIQUE WELL ID
SLAT.WGS84       31.2538599246 : SURFACE LATITUDE
SLON.WGS84      -96.2196025838 : SURFACE LONGITUDE
~Curve Information -----------------------------------------
DEPT    .FT                                                                                                : DEPTH FEET
AO10ED  .OHMM                                                                                              : ARRAY INDUCTION ONE FOOT RESISTIVITY A10 FROM AIT-PI-DITE-LDT-CNT LOG
AO20ED  .OHMM                                                                                              : ARRAY INDUCTION ONE FOOT RESISTIVITY A20 FROM AIT-PI-DITE-LDT-CNT LOG
AO30ED  .OHMM                                                                                              : ARRAY INDUCTION ONE FOOT RESISTIVITY A30 FROM AIT-PI-DITE-LDT-CNT LOG
AO60ED  .OHMM                                                                                              : ARRAY INDUCTION ONE FOOT RESISTIVITY A60 FROM AIT-PI-DITE-LDT-CNT LOG
AO90ED  .OHMM                                                                                              : ARRAY INDUCTION ONE FOOT RESISTIVITY A90 FROM AIT-PI-DITE-LDT-CNT LOG
CALSED  .IN                                                                                                : CALIPER FROM BCS-CALIPER-GR LOG [ADJ. TO GRRED]
CALWS   .IN                                                                                                : CALIPER [DCALED+BITS]
CONDWS  .MMHO                                                                                              : CONDUCTIVITY [1000/DRESWS]
DCALED  .IN                                                                                                : DIFFERENTIAL CALIPER FROM AIT-PI-DITE-LDT-CNT LOG
DCORWS  .G/C3                                                                                              : DENSITY CORRECTION [DRHED SPL. TO DRHOED @ 10860']
DENWS   .G/C3 :   FORMATION BULK DENSITY [RHOMED, DENWS CALCULATED FROM DPOWS FROM 7004'-10889'] [M:2.71,F : 1.0]
DPHILSED.V/V                                                      :   DENSITY POROSITY LIMESTONE [M:2.71,F : 1.0] FROM AIT-PI-DITE-LDT-CNT LOG
DPOLSED .V/V                                                                                               : DENSITY POROSITY LIMESTONE FROM HOSTILE LDL-CN-GR LOG
DPOWS   .V/V                                                                                               : DENSITY POROSITY [DPHILSED SPL. TO DPOLSED @ 10852']
DRESWS  .OHMM                                                                                              : DEEP RESISTIVITY [AO30ED SPL. TO IDPHED]
DRHED   .G/C3                                                                                              : BULK DENSITY CORRECTION FROM HOSTILE LDL-CN-GR LOG
DRHOED  .G/C3                                                                                              : BULK DENSITY CORRECTION FROM AIT-PI-DITE-LDT-CNT LOG
DTED    .US/F                                                                                              : DELTA T FROM BCS-CALIPER-GR LOG [ADJ. TO GRRED/NPHILSED]
DTLFED  .US/F                                                                                              : DELTA-T LONG SPACING FAR FROM AIT-PI-DITE-LDT-CNT-PI-LSS-GR LOG
DTLNED  .US/F                                                                                              : DELTA-T LONG SPACING NEAR FROM AIT-PI-DITE-LDT-CNT-PI-LSS-GR LOG
DTWS    .US/F                                                                                              : COMPRESSIONAL SONIC [DTED SPL. TO DTLNED @ 10865.5'-15946.5']
GRRED   .GAPI                                                                                              : GAMMA RAY FROM AIT-PI-DITE-LDT-CNT LOG
GRSED   .GAPI                                                                                              : GAMMA RAY FROM BCS-CALIPER-GR-PI-LSS LOG [ADJ. TO GRRED]
GRWS    .GAPI                                                                                              : GAMMA RAY [GRRED]
IDPHED  .OHMM                                                                                              : DEEP INDUCTION PHASOR FROM AIT-PI-DITE-LDT-CNT- PI-LSS-GR LOG
LCALED  .IN                                                                                                : LOWER CALIPER FROM HOSTILE LDL-CN-GR LOG
MRESWS  .OHMM                                                                                              : MEDIUM RESISTIVITY [AO30ED]
NPHILSED.V/V                                                                                               : NEUTRON POROSITY LIMESTONE FROM AIT-PI-DITE-LDT-CNT LOG
NPOWS   .V/V                                                                                               : NEUTRON POROSITY [NPHILSED]
PEFED   .B/E                                                                                               : PHOTOELECTRIC FACTOR FROM AIT-PI-DITE-LDT-CNT LOG
PEFLED  .B/E                                                                                               : HLDT PEF LONG SPACING FROM HOSTILE LDL-CN-GR LOG
PEFSED  .B/E                                                                                               : SHORT SPACED CORRECTED PHOTOELECTRIC FACTOR FROM HOSTILE LDL-CN-GR LOG
PEFWS   .B/E                                                                                               : PHOTOELECTRIC FACTOR [PEFED SPL. TO PEFSED @ 10847.5']
RHOMED  .G/C3                                                                                              : CORRECTED BULK DENSITY FROM HOSTILE LDL-CN-GR LOG
SPRED   .MV                                                                                                : SPONTANEOUS POTENTIAL  FROM AIT-PI-DITE-LDT-CNT LOG
SPWS    .MV                                                                                                : SPONTANEOUS POTENTIAL [BASELINE 0, MV SPRED]
SRESWS  .OHMM                                                                                              : SHALLOW RESISTIVITY [AO10ED]
TENDED  .LBF                                                                                               : DIFFERENTIAL TENSION FROM HOSTILE LDL-CN-GR LOG
TENRED  .LBF                                                                                               : TENSION FROM AIT-PI-DITE-LDT-CNT LOG
TENSED  .LBF                                                                                               : TOTAL TENSION FROM BCS-CALIPER-GR LOG [ADJ. TO GRRED]
~Params ----------------------------------------------------
PD  .                     GL : PERMANENT DATUM
EPD .FT                 3759 : ELEVATION PERMANENT DATUM
LMF .                     KB : LOG MEASURED FROM
DAPD.FT                 37.2 : FEET ABOVE PERMANENT DATUM
DMF .                     KB : DRILLING MEASURED FROM
EKB .FT                 4131 : KELLY BUSHING
EDF .FT                 4121 : DRILLING FLOOR
EGL .FT                 3759 : GROUND LEVEL
DATE.               06/04/96 : RUN DATE
RUN .                      4 : RUN NUMBER
DD  .FT                17800 : DEPTH DRILLER
DL  .FT                17800 : DEPTH LOGGER
BLI .FT                17797 : BOTTOM LOG INTERVAL
TLI .FT                15944 : TOP LOG INTERVAL
CS  .IN                    7 : CASING SIZE
CBD .FT                15950 : CASING BOTTOM DRILLER
CBL .FT                15944 : CASING BOTTOM LOGGER
BS  .IN                5.875 : BIT SIZE
BSD .FT                17800 : BIT SIZE AT DEPTH
DFT .              OIL BASED : DRILLING FLUID TYPE
DFD .                     18 : DRILLING FLUID DENSITY
DFV .                     88 : DRILLING FLUID VISCOSITY
RMC .OHMM      OIL BASED MUD : RESISTIVITY MUD CAKE
MCST.DEGF      OIL BASED MUD : MUD CAKE SAMPLE TEMPERATURE
TCS .HRS                2100 : TIME CIRCULATED STOPPED
TLAB.HRS                1500 : TIME LOGGER AT BOTTOM
LUN .                   2019 : LOGGING UNIT NUMBER
LUL .                  TYLER : LOGGING UNIT LOCATION
ENGI.                 FERRIS : RECORDING ENGINEER
WITN.              MCGINNUSS : WITNESSED BY
CLNT.                A2DTECH : CLIENT CODE
ORIG.               5' PRINT : ORIGIN OF DATA
UWI .         42289312310000 : UNIQUE WELL ID
DICO. A2D Technologies, Inc. : DIGITIZING COMPANY
~Other -----------------------------------------------------
~ASCII -----------------------------------------------------
# ...
 4700.00000    1.21930    1.30970    1.24980    1.23560    1.28630   19.11750   18.04020  777.42360    5.79020    -999.25    -999.25    -999.25    -999.25    -999.25    1.28630    -999.25    -999.25  106.48370    -999.25    -999.25  106.48370   79.93010   78.54820   79.93010    -999.25    -999.25    1.24980    -999.25    -999.25    -999.25    -999.25    -999.25    -999.25    -999.25  -48.63340   -7.11410    1.21930    -999.25 2019.64760 2183.20630
 4750.00000    1.07370    1.15760    1.09850    1.09570    1.16010   19.25490   18.22730  861.99470    5.97730    -999.25    -999.25    -999.25    -999.25    -999.25    1.16010    -999.25    -999.25  110.43090    -999.25    -999.25  110.43090   89.50870   87.36000   89.50870    -999.25    -999.25    1.09850    -999.25    -999.25    -999.25    -999.25    -999.25    -999.25    -999.25  -47.27970   -5.63720    1.07370    -999.25 2000.34520 2187.52910
 4800.00000    1.02050    1.08420    1.06830    1.02510    1.11020   19.01620   17.91040  900.73860    5.66040    -999.25    -999.25    -999.25    -999.25    -999.25    1.11020    -999.25    -999.25  111.02660    -999.25    -999.25  111.02660   77.19360   74.34080   77.19360    -999.25    -999.25    1.06830    -999.25    -999.25    -999.25    -999.25    -999.25    -999.25    -999.25  -47.33170   -5.56600    1.02050    -999.25 2028.04100 2203.11430
 4850.00000    1.08740    1.15830    1.11520    1.07830    1.15450   18.36120   17.56180  866.17580    5.31180    -999.25    -999.25    -999.25    -999.25    -999.25    1.15450    -999.25    -999.25  109.03920    -999.25    -999.25  109.03920   82.84760   83.32300   82.84760    -999.25    -999.25    1.11520    -999.25    -999.25    -999.25    -999.25    -999.25    -999.25    -999.25  -46.07710   -4.18830    1.08740    -999.25 2019.50310 2204.74660
 4900.00000    1.37120    1.47560    1.40540    1.40490    1.49520   17.47270   15.98210  668.80680    3.73210    -999.25    -999.25    -999.25    -999.25    -999.25    1.49520    -999.25    -999.25  103.62080    -999.25    -999.25  103.62080   77.35880   87.45140   77.35880    -999.25    -999.25    1.40540    -999.25    -999.25    -999.25    -999.25    -999.25    -999.25    -999.25  -46.51110   -4.49910    1.37120    -999.25 2084.53520 2234.02030
 4950.00000    3.66360    3.36740    3.38960    3.06270    3.02680   15.63310   14.13730  330.38190    1.88730    -999.25    -999.25    -999.25    -999.25    -999.25    3.02680    -999.25    -999.25   87.19940    -999.25    -999.25   87.19940   49.45300   52.08490   49.45300    -999.25    -999.25    3.38960    -999.25    -999.25    -999.25    -999.25    -999.25    -999.25    -999.25  -48.88760   -6.94050    3.66360    -999.25 2093.35600 2228.71750
 5000.00000    2.40070    2.41570    2.17460    2.12730    2.12110   16.12920   14.58370  471.45350    2.33370    -999.25    -999.25    -999.25    -999.25    -999.25    2.12110    -999.25    -999.25   93.87400    -999.25    -999.25   93.87400   73.13100   75.23920   73.13100    -999.25    -999.25    2.17460    -999.25    -999.25    -999.25    -999.25    -999.25    -999.25    -999.25  -48.36630   -6.67220    2.40070    -999.25 2124.07280 2200.67770
 5050.00000    2.01370    2.00070    1.83100    1.79540    1.78480   15.97710   14.81140  560.28690    2.56140    -999.25    -999.25    -999.25    -999.25    -999.25    1.78480    -999.25    -999.25   95.43880    -999.25    -999.25   95.43880   68.73010   77.15850   68.73010    -999.25    -999.25    1.83100    -999.25    -999.25    -999.25    -999.25    -999.25    -999.25    -999.25  -47.54050   -6.09930    2.01370    -999.25 2113.51440 2235.50220
 5100.00000    1.94650    1.88360    1.81840    1.73210    1.71690   15.01370   14.18540  582.44510    1.93540    -999.25    -999.25    -999.25    -999.25    -999.25    1.71690    -999.25    -999.25   99.31310    -999.25    -999.25   99.31310   62.79510   65.25930   62.79510    -999.25    -999.25    1.81840    -999.25    -999.25    -999.25    -999.25    -999.25    -999.25    -999.25  -45.94360   -4.75540    1.94650    -999.25 2146.44480 2234.54050
 5150.00000    2.28310    2.23340    2.11470    2.06670    1.99510   13.81140   13.73580  501.22800    1.48580    -999.25    -999.25    -999.25    -999.25    -999.25    1.99510    -999.25    -999.25   93.57260    -999.25    -999.25   93.57260   45.08860   55.53580   45.08860    -999.25    -999.25    2.11470    -999.25    -999.25    -999.25    -999.25    -999.25    -999.25    -999.25  -45.86290   -4.92770    2.28310    -999.25 2142.06130 2238.87770
 5200.00000    4.01730    3.91120    3.59180    3.62440    3.53490   13.29130   13.12860  282.89340    0.87860    -999.25    -999.25    -999.25    -999.25    -999.25    3.53490    -999.25    -999.25   80.07600    -999.25    -999.25   80.07600   32.60630   34.71830   32.60630    -999.25    -999.25    3.59180    -999.25    -999.25    -999.25    -999.25    -999.25    -999.25    -999.25  -51.61910  -10.93690    4.01730    -999.25 2223.55880 2290.32670
 5250.00000    3.65470    3.51010    3.41200    3.28260    3.28100   13.03220   13.08710  304.78510    0.83710    -999.25    -999.25    -999.25    -999.25    -999.25    3.28100    -999.25    -999.25   81.31860    -999.25    -999.25   81.31860   39.75840   35.73860   39.75840    -999.25    -999.25    3.41200    -999.25    -999.25    -999.25    -999.25    -999.25    -999.25    -999.25  -47.88030   -7.45100    3.65470    -999.25 2142.56200 2274.19170
 5300.00000    3.84760    3.84600    3.54620    3.39010    3.17730   13.04470   13.08190  314.73260    0.83190    -999.25    -999.25    -999.25    -999.25    -999.25    3.17730    -999.25    -999.25   79.34420    -999.25    -999.25   79.34420   33.36110   37.82520   33.36110    -999.25    -999.25    3.54620    -999.25    -999.25    -999.25    -999.25    -999.25    -999.25    -999.25  -50.06320   -9.88690    3.84760    -999.25 2198.09350 2279.84470
 5350.00000    4.94720    4.80290    4.24000    4.14900    4.06230   12.94260   13.05890  246.16600    0.80890    -999.25    -999.25    -999.25    -999.25    -999.25    4.06230    -999.25    -999.25   74.70410    -999.25    -999.25   74.70410   29.60400   28.80830   29.60400    -999.25    -999.25    4.24000    -999.25    -999.25    -999.25    -999.25    -999.25    -999.25    -999.25  -47.96340   -8.04010    4.94720    -999.25 2224.10990 2265.46970
 5400.00000    2.81120    2.78720    2.47750    2.33680    2.10730   13.20660   13.11880  474.54090    0.86880    -999.25    -999.25    -999.25    -999.25    -999.25    2.10730    -999.25    -999.25   97.15390    -999.25    -999.25   97.15390   61.99540   51.71300   61.99540    -999.25    -999.25    2.47750    -999.25    -999.25    -999.25    -999.25    -999.25    -999.25    -999.25  -48.19860   -8.52820    2.81120    -999.25 2216.57980 2360.04760
 5450.00000    4.61090    4.03190    3.70740    3.43900    3.27450   13.30520   13.12560  305.39010    0.87560    -999.25    -999.25    -999.25    -999.25    -999.25    3.27450    -999.25    -999.25   70.57730    -999.25    -999.25   70.57730   22.82980   20.03060   22.82980    -999.25    -999.25    3.70740    -999.25    -999.25    -999.25    -999.25    -999.25    -999.25    -999.25  -64.75530  -25.33790    4.61090    -999.25 2282.26100 2325.91160
 5500.00000    0.97350    0.95170    1.00650    1.00490    1.13620   15.98670   15.60960  880.12670    3.35960    -999.25    -999.25    -999.25    -999.25    -999.25    1.13620    -999.25    -999.25  129.93570    -999.25    -999.25  129.93570   76.60880   75.25110   76.60880    -999.25    -999.25    1.00650    -999.25    -999.25    -999.25    -999.25    -999.25    -999.25    -999.25  -50.88990  -11.67950    0.97350    -999.25 2299.83840 2287.71240
 5550.00000    2.28560    2.39180    2.16680    2.17830    2.11160   15.87360   16.31700  473.57450    4.06700    -999.25    -999.25    -999.25    -999.25    -999.25    2.11160    -999.25    -999.25   93.48740    -999.25    -999.25   93.48740   84.48830   85.63460   84.48830    -999.25    -999.25    2.16680    -999.25    -999.25    -999.25    -999.25    -999.25    -999.25    -999.25  -51.17030  -11.85870    2.28560    -999.25 2247.32520 2372.81590
