~Version ---------------------------------------------------
VERS. 2.0 : CWLS log ASCII Standard -VERSION 2.0
WRAP.  NO : ONE LINE PER DEPTH STEP
~Well ------------------------------------------------------
STRT.F                     3800.0 : START DEPTH
STOP.F                     9750.0 : STOP DEPTH
STEP.F                   50.00000 : STEP LENGTH
NULL.                     -999.25 : NULL VALUE
COMP. MITCHELL ENERGY CORPORATION : COMPANY
WELL.           LEAH G. BARNES #2 : WELL
FLD .               ALABAMA FERRY : FIELD
LOC .                             : LOCATION
CNTY.                        LEON : COUNTY
STAT.                       TEXAS : STATE
CTRY.    UNITED STATES OF AMERICA : COUNTRY
SRVC.                Schlumberger : SERVICE COMPANY
DATE.                 16-Oct-1987 : LOGDATE
API .              42289309370000 : API NUMBER
UWI .              42289309370000 : UNIQUE WELL ID
SLAT.WGS84          31.2184420459 : SURFACE LATITUDE
SLON.WGS84         -95.8739729069 : SURFACE LONGITUDE
~Curve Information -----------------------------------------
DEPT   .F    0   1   0  0 : 1 MEASURED DEPTH
GRR    .GAPI 07 310 01 00 : GAMMA RAY FROM RESISTIVITY LOG
ILD    .OHMM 07 120 46 00 : INDUCTION DEEP RESISTIVITY
ILM    .OHMM 07 120 44 00 : INDUCTION MEDIUM RESISTIVITY
SFLU   .OHMM 07 220 01 00 : SHALLOW FOCUSED RESISTIVITY (UNAVERAGED)
SPR    .MV   07 010 01 00 : SPONTANEOUS POTENTIAL FROM RESISTIVITY LOG
DCAL   .IN   07 280 01 00 : DIFFERENTIAL CALIPER
DT     .US/F 60 500 00 00 : DELTA-T (INTERVAL TRANSIT TIME)
DPHI_LS.DEC  45 890 10 00 : DENSITY POROSITY LIMESTONE
DRHO   .G/C3 45 356 01 00 : BULK DENSITY CORRECTION
PEF    .B/E  45 358 01 00 : PHOTOELECTRIC FACTOR
RHOB   .G/C3 45 350 01 00 : BULK DENSITY
CALD   .IN   45 280 60 00 : CALIPER FROM DENSITY LOG
~Params ----------------------------------------------------
PD  .                     GL : PERMANENT DATUM
EPD .FT                  294 : ELEVATION PERMANENT DATUM
LMF .                    RKB : LOG MEASURED FROM
DAPD.FT                   21 : FEET ABOVE PERMANENT DATUM
DMF .                    RKB : DRILLING MEASURED FROM
EKB .FT                  315 : KELLY BUSHING
EDF .FT                  314 : DRILLING FLOOR
EGL .FT                  294 : GROUND LEVEL
DATE.               10/16/87 : RUN DATE
RUN .                      1 : RUN NUMBER
DD  .FT                 9750 : DEPTH DRILLER
DL  .FT                 9787 : DEPTH LOGGER
BLI .FT                 9784 : BOTTOM LOG INTERVAL
TLI .FT                 6500 : TOP LOG INTERVAL
CS  .IN                8.625 : CASING SIZE
CBD .FT                 3825 : CASING BOTTOM DRILLER
CBL .FT                 3829 : CASING BOTTOM LOGGER
BS  .IN                7.875 : BIT SIZE
BSD .FT                 9750 : BIT SIZE AT DEPTH
DFT .         LIGNOSILFONATE : DRILLING FLUID TYPE
DFD .                     10 : DRILLING FLUID DENSITY
DFV .                     48 : DRILLING FLUID VISCOSITY
DFPH.                    9.5 : DRILLING FLUID PH
DFL .                    9.4 : DRILLING FLUID LOSS
MSS .               CIR TANK : MUD SAMPLE SOURCE
RMS .OHMM               2.89 : RESISTIVITY MUD SAMPLE
MST .DEGF                 75 : MUD SAMPLE TEMPERATURE
RMF .OHMM               2.67 : RESISTIVITY MUD FILTRATE SAMPLE
MFST.DEGF                 75 : MUD FILTRATE SAMPLE TEMPERATURE
RMC .OHMM               3.21 : RESISTIVITY MUD CAKE
MCST.DEGF                 75 : MUD CAKE SAMPLE TEMPERATURE
MFSS.                   MEAS : MUD FILTRATE SAMPLE SOURCE
MCSS.                   MEAS : MUD CAKE SAMPLE SOURCE
RMB .OHMM              1.053 : RESISTIVITY MUD AT BHT
TCS .HRS                 600 : TIME CIRCULATED STOPPED
TLAB.HRS                1400 : TIME LOGGER AT BOTTOM
LUN .                   8505 : LOGGING UNIT NUMBER
LUL .               TYLER OH : LOGGING UNIT LOCATION
ENGI.              LANGHAMER : RECORDING ENGINEER
WITN.                EDWARDS : WITNESSED BY
CLNT.                A2DTECH : CLIENT CODE
ORIG.           5" 25" PRINT : ORIGIN OF DATA
UWI .         42289309370000 : UNIQUE WELL ID
DICO. A2D Technologies, Inc. : DIGITIZING COMPANY
~Other -----------------------------------------------------
~ASCII -----------------------------------------------------
# ...
 6600.00000   38.26590    6.70650    7.00890    8.09040  -14.43380    2.39020   70.26420    0.05750   -0.01730    4.47600    2.60870   10.80750
 6650.00000   37.02940    6.18150    6.40240    5.85870  -14.55540    2.19190   70.11500    0.05810   -0.02240    4.46190    2.61020   10.18470
 6700.00000   28.32810    8.93190    9.25370   11.14970  -30.82140    1.56170   64.99690    0.05910   -0.00570    4.66510    2.60710   10.01440
 6750.00000   20.97850    9.58100    9.93460   10.44460  -26.46350    1.53820   62.55040    0.08040   -0.02230    5.13170    2.56690   10.23420
 6800.00000   88.26790    4.48080    4.68730    5.75840  -11.99690    2.63320   83.89480    0.12100    0.01940    3.40750    2.50300   11.69730
 6850.00000   60.40360    2.86800    2.97240    3.40730  -23.17710    2.38110   80.12660    0.13280    0.03300    2.50260    2.48200   10.85290
 6900.00000   72.92050    2.84150    2.97010    3.78450  -17.91310    3.25330   80.32220    0.17590    0.02480    2.66740    2.40830   11.33760
 6950.00000   90.24220    1.12490    1.16550    1.53610  -12.02360    5.40850  101.81010    0.20910    0.02420    2.73060    2.35180   14.31550
 7000.00000   89.37040    1.39870    1.44940    1.81440  -14.38200    4.60480   95.71500    0.21080    0.04850    3.49590    2.35120   12.72460
 7050.00000   52.84370    6.73280    7.02370   12.68250  -26.98340    2.06320   66.95400    0.07090   -0.01810    2.64920    2.59130   11.01630
 7100.00000   81.33220    3.27150    3.38840    3.97020  -10.85780    3.19880   87.30140    0.13060    0.05270    2.64650    2.48850   12.68370
 7150.00000   79.32330    2.42100    2.50990    3.09840  -13.21120    3.44870   91.09350    0.17730    0.10920    2.90240    2.40770   12.92390
 7200.00000   82.03670    3.10300    3.25660    4.58540  -14.10080    2.80340   78.80300    0.17440    0.04350    2.53240    2.40460   11.74730
 7250.00000   69.79040    3.28620    3.40830    4.50610  -14.67900    2.88300   75.86760    0.07320   -0.00700    2.54100    2.58430   11.30340
 7300.00000   71.36670    2.07670    2.16960    2.39080  -14.95080    5.29860   85.91280    0.21210    0.05320    2.56170    2.32660   15.17040
 7350.00000   72.64660    2.34770    2.43290    3.73970  -15.23770    2.96280   81.97470    0.33070    0.06320    2.47610    2.12950   12.73070
 7400.00000   62.93570    4.06000    4.26440    5.75290  -18.56150    2.32180   73.60920    0.21670   -0.00490    2.74540    2.38620   10.76350
 7450.00000   75.12060    2.14960    2.22780    2.61460  -15.56880    4.44230   85.83480    0.21560    0.08600    2.76890    2.34230   12.97390
 7500.00000   74.87060    1.80780    1.87860    2.36150  -18.77960    4.64200   87.66690    0.29280    0.08560    2.49940    2.22910   15.25850
 7550.00000   78.14830    1.55300    1.61360    1.64570  -18.15450    5.27820  103.02740    0.23390    0.06370    2.84140    2.30900   16.42980
 7600.00000   82.99520    1.60680    1.46900    2.13580  -19.91260    4.94680   99.23850    0.25550    0.03550    2.62890    2.26880   15.64900
 7650.00000   76.35330    1.73560    1.80170    1.94670  -23.08090    4.30740   93.27930    0.29210    0.07040    2.69460    2.23330   13.70410
 7700.00000   19.22080   11.75520   12.18210   15.73670  -29.49460    1.56340   58.93350    0.01570    0.00190    4.51780    2.68330   10.18870
 7750.00000   24.03560   11.47610   11.94790   11.74810  -23.95710    1.99650   58.73330    0.00870   -0.01040    4.51480    2.69250   11.72130
 7800.00000   24.71210    9.87550   10.23350    9.15310  -25.56820    1.79450   62.63270    0.04710   -0.01900    4.62980    2.62650   10.38390
 7850.00000   20.20220   13.78700   14.67900   15.93910  -32.50710    1.94170   56.75940    0.02380   -0.01750    4.51030    2.66870   10.38410
 7900.00000   13.57440   23.57650   24.35470   23.47070  -40.14250    1.95990   54.07820    0.02920   -0.01370    4.26270    2.65990   10.62090
 7950.00000   14.09030   22.24590   25.28660   37.05830  -43.17020    1.66840   54.93550    0.02550   -0.00820    4.79320    2.66520   10.71300
 8000.00000   20.07270   14.46950   14.73210   21.99900  -24.10630    1.85420   55.35300    0.02990   -0.00960    4.23530    2.65780   10.07340
 8050.00000   12.87750   23.13940   24.10130   28.02000  -66.90380    1.77510   53.60650    0.04890   -0.02290    4.65870    2.62460   10.06180
 8100.00000   20.50830   10.87560   11.49900   14.64520  -16.08200    1.89840   56.79570    0.02050   -0.00740    4.90750    2.67380   10.06700
 8150.00000   24.68050    9.06910   10.22410   11.26680  -19.88170    1.89330   59.75810   -0.00010   -0.01030    4.18470    2.70900   10.06000
 8200.00000   16.89670   43.64300   45.60760   70.78440  -16.63350    1.67910   52.91580    0.02340   -0.00350    4.87210    2.67120   10.06660
 8250.00000   80.40540    1.25630    1.30940    1.36940  -19.77970    5.18920  106.04280    0.46630    0.03340    2.43150    1.89810   14.75530
 8300.00000   31.90420   24.51880   25.80700   37.57870  -51.67130    1.88290   53.07350    0.02540   -0.00770    4.26640    2.66640   10.32940
 8350.00000   38.46790   16.03530   17.14870   19.85970  -17.03380    2.07570   55.67760    0.02720    0.00510    4.54240    2.66310   10.46730
 8400.00000   36.72930   17.47780   18.69020   26.11090  -15.19470    2.22400   54.89290    0.01160   -0.01990    4.42160    2.68870   10.48130
 8450.00000   32.72380   24.03180   27.25750   70.94990  -23.08150    1.56040   53.15280    0.01170   -0.01630    4.46010    2.68990   10.02940
 8500.00000   42.97300    5.92150    6.15030    6.56330  -10.57210    1.77840   65.16990    0.02870   -0.02240    4.12680    2.66240   10.05820
 8550.00000   77.30920    3.12320    3.75040    3.73960  -12.73090    2.12420   80.32080    0.12720    0.08290    3.51690    2.49320   10.90880
 8600.00000   55.42010    3.07480    3.24910    3.69850  -13.66490    2.56450   75.21380    0.10620    0.00100    3.85390    2.52390   10.67850
 8650.00000   40.23780    9.17950    9.51840    8.56500  -11.47990    1.44420   62.33420    0.01820   -0.00710    4.17610    2.67770    9.79290
 8700.00000   31.83030    8.91370    9.41990   12.66000  -11.39740    1.39430   58.34410    0.02420   -0.00390    4.57250    2.67120    9.99770
 8750.00000   52.90190    2.29760    2.38010    3.33810  -17.77100    2.26380   74.64780    0.15200    0.10760    3.35270    2.44630   12.12890
 8800.00000   50.21320    2.09010    2.20320    2.68460  -21.93650    2.29100   83.90070    0.29470    0.04860    3.03370    2.26120   12.32380
 8850.00000   50.38060    2.55790    2.33600    3.46840  -23.05340    1.79580   73.04670    0.22280   -0.01830    3.42680    2.29020   10.60520
 8900.00000   45.31320    2.34170    2.49400    4.17280  -23.63780    2.09680   68.72090    0.39210    0.03540    3.55710    1.94040   10.93560
 8950.00000   40.75060    4.59130    4.83960    6.18750  -19.12350    2.29570   67.83140    0.04310    0.06480    4.10870    2.63440   10.91080
 9000.00000   30.68110    7.91440    8.18440    7.69120  -19.06760    1.61030   63.95710    0.11490    0.00060    4.01990    2.51670    9.90990
 9050.00000   31.18460   11.37940   11.78750   13.99330  -19.48640    1.71850   58.65910    0.01440   -0.02050    4.43660    2.68500    9.93690
 9100.00000   29.51890   14.05640   14.62300   16.17390  -17.28770    1.59970   57.11650    0.01610   -0.02350    4.29860    2.68070    9.96260
 9150.00000   30.99840    9.20700    9.63070   12.69160  -19.41320    2.02570   59.76080    0.01470   -0.01640    4.54140    2.68430   10.62510
 9200.00000   32.21970   16.84940   22.85670   58.68430  -16.23530    1.60290   53.93100   -0.00200   -0.00240    4.40660    2.71440   10.33680
 9250.00000   30.87630   10.34990   13.32250   36.64170  -15.47740    1.70170   56.17800    0.01670   -0.00210    4.17300    2.68300   10.56600
 9300.00000   47.84320    9.76630   10.40640   13.08840  -16.91230    1.38050   62.20570    0.00680    0.00910    4.16140    2.70010    9.58330
 9350.00000   35.97610    9.96620   10.32730   12.83980  -11.35070    1.85290   61.10680   -0.00540   -0.00910    3.83640    2.71970   10.20430
