~Version ---------------------------------------------------
VERS. 2.0 : CWLS log ASCII Standard -VERSION 2.0
WRAP. YES : Multiple lines per depth step
~Well ------------------------------------------------------
STRT.FT                  2550.0 : START DEPTH
STOP.FT                 14350.0 : STOP DEPTH
STEP.FT                50.00000 : STEP LENGTH
NULL.                   -999.25 : NULL VALUE
COMP. GENERAL CRUDE OIL COMPANY : COMPANY
WELL.    A G HENKES GAS UNIT #1 : WELL
FLD .                   WILDCAT : FIELD
LOC .                           : LOCATION
CNTY.                    LAVACA : COUNTY
STAT.                     TEXAS : STATE
CTRY.  UNITED STATES OF AMERICA : COUNTRY
SRVC.                   Unknown : SERVICE COMPANY
DATE.               29-Aug-1977 : LOGDATE
API .            42285307220000 : API NUMBER
UWI .            42285307220000 : UNIQUE WELL ID
SLAT.WGS84        29.3839239903 : SURFACE LATITUDE
SLON.WGS84       -96.9359395822 : SURFACE LONGITUDE
~Curve Information -----------------------------------------
DEPT  .FT    : DEPTH
SPED  .MV    : SPONTANEOUS POTENTIAL FROM DIL/SONIC LOG
CALRED.IN    : CALIPER FROM DIL/SONIC LOG
ILDED .OHMM  : INDUCTION LOG DEEP RESISTIVITY FROM DIL/SONIC LOG
ILMED .OHMM  : INDUCTION LOG MEDIUM RESISTIVITY FROM DIL/SONIC LOG
LL8ED .OHMM  : LATEROLOG 8 INCH FROM DIL/SONIC LOG
CILDED.MMHO  : CONDUCTIVITY FROM DIL/SONIC LOG
CALDED.IN    : CALIPER FROM CN/FD LOG
GRDED .GAPI  : GAMMA RAY FROM CN/FD LOG
DRHOED.G/C3  : DENSITY CORRECTION FROM CN/FD LOG
RHOBED.G/C3  : BULK DENSITY FROM CN/FD LOG
NPHIED.V/V   : NEUTRON POROSITY LIMETONE FROM CN/FD LOG
DTED  .US/F  : DELTA TIME FROM DIL/SONIC LOG
DPHIED.V/V   : DENSITY POROSITY [M=2.68, F=1.0] FROM CN/FD LOG
SPWS  .MV    : SPONTANEOUS POTENTIAL [BASELINE 0 MV]
CALWS .IN    : CALIPER [2520 CALRED, 9690.5 CALDED]
CONDWS.MMHO  : CONDUCTIVITY [CILDED]
DCORWS.G/C3  : DENSITY CORRECTION [DRHOED]
DENWS .G/C3  : BULK DENSITY [RHOBED]
DPOWS .V/V   : DENSITY POROSITY [M=2.68, F=1.0] [DPHIED]
DRESWS.OHMM  : DEEP RESISTIVITY [ILDED]
DTWS  .US/F  : DELTA TIME [DTED]
GRWS  .GAPI  : GAMMA RAY [GRDED]
MRESWS.OHMM  : MEDIUM RESISTIVITY [ILMED]
NPOWS .V/V   : NEUTRON POROSITY LIMETONE [NPHIED]
SRESWS.OHMM  : SHALLOW RESISTIVITY [LL8ED]
~Params ----------------------------------------------------
EKB .F                 278.0 : Kelly bushing
EGL .F                 260.0 : Ground level
EDF .F                 277.0 : Drilling floor
EPD .F                 260.0 : Permanent datum
TD  .F               14505.0 : Total depth
DATE.            29-AUG-1977 : Date logged
CLNT.                A2DTECH : Client Code
DAPD.F                    18 : Feet Above Permanent Datum
DD  .F                 14505 : Depth driller
DL  .F                 14401 : Depth logger
BLI .F                 14394 : Bottom log interval
TLI .F                 13663 : Top log interval
CS1 .IN                    7 : Casing size
CBD1.             7" @ 3646' : Casing driller 1
CBL1.F                 13663 : Casing logger 1
BS1 .IN                    6 : Bit size
BSD1.F                 14505 : Depth drilled with bit1
DFT .                CLS-LIG : Type fluid in hole
DFD .                   11.6 : Density
DFV .                     45 : Viscosity
DFPH.                     11 : pH
DFL .                    3.8 : Fluid loss
MSS .              CIRC. PIT : Source of sample
RMS .OHMM              0.865 : Rm
RMF .OHMM               0.57 : Rmf
RMC .OHMM                1.3 : Rmc
MFSS.                   MEAS : Source Rmf.
MCSS.                   CALC : Source Rmc.
TCS .HRS                 330 : Time Circ. stopped
TLAB.HRS                 530 : Time logger at bottom
LUN .                   8005 : Logging unit number
LUL .                   VICT : Logging unit location
ORIG.            2" 5" PRINT : Origin of data
UWI .         42285307220000 : Unique Well ID
DICO. A2D TECHNOLOGIES, INC. : Digitizing Company
SL  .  3700' FWL & 1000' FNL : Surface Location
PD  .                     GL : Permanent Datum
LMF .                     KB : Log Measured From
DMF .                     KB : Drilling Measured From
~Other -----------------------------------------------------
~ASCII -----------------------------------------------------
# ...
 3950.00000  -95.78100   12.17420    0.87230    0.99680    1.91850 1156.19680    -999.25    -999.25    -999.25    -999.25    -999.25  117.94390    -999.25  -55.44120   12.17420 1156.19680    -999.25    -999.25    -999.25    0.87230  117.94390    -999.25    0.99680    -999.25    1.91850
 4000.00000  -43.42360   12.07790    0.93700    0.91350    1.37520 1021.43150    -999.25    -999.25    -999.25    -999.25    -999.25  142.41650    -999.25   -3.11600   12.07790 1021.43150    -999.25    -999.25    -999.25    0.93700  142.41650    -999.25    0.91350    -999.25    1.37520
 4050.00000  -44.91020   12.25790    1.13640    1.12370    1.45360  905.57280    -999.25    -999.25    -999.25    -999.25    -999.25  124.69970    -999.25   -4.63480   12.25790  905.57280    -999.25    -999.25    -999.25    1.13640  124.69970    -999.25    1.12370    -999.25    1.45360
 4100.00000  -69.24110   12.28710    0.88660    1.00620    1.59080 1122.80700    -999.25    -999.25    -999.25    -999.25    -999.25  117.19080    -999.25  -28.99800   12.28710 1122.80700    -999.25    -999.25    -999.25    0.88660  117.19080    -999.25    1.00620    -999.25    1.59080
 4150.00000  -41.50380   11.91300    0.64570    0.64570    1.12460 1568.10420    -999.25    -999.25    -999.25    -999.25    -999.25  155.03000    -999.25   -1.29290   11.91300 1568.10420    -999.25    -999.25    -999.25    0.64570  155.03000    -999.25    0.64570    -999.25    1.12460
 4200.00000  -86.01500   12.31780    0.89270    1.06800    1.81490 1114.55100    -999.25    -999.25    -999.25    -999.25    -999.25  120.94670    -999.25  -45.83640   12.31780 1114.55100    -999.25    -999.25    -999.25    0.89270  120.94670    -999.25    1.06800    -999.25    1.81490
 4250.00000  -46.31680   12.49780    0.83330    0.86140    1.28310 1192.82510    -999.25    -999.25    -999.25    -999.25    -999.25  126.65160    -999.25   -6.17040   12.49780 1192.82510    -999.25    -999.25    -999.25    0.83330  126.65160    -999.25    0.86140    -999.25    1.28310
 4300.00000  -44.63550   12.25790    0.89890    0.90100    1.39450 1080.83840    -999.25    -999.25    -999.25    -999.25    -999.25  125.30150    -999.25   -4.52140   12.25790 1080.83840    -999.25    -999.25    -999.25    0.89890  125.30150    -999.25    0.90100    -999.25    1.39450
 4350.00000  -45.14780   12.26630    1.08280    1.04870    1.56890  806.38720    -999.25    -999.25    -999.25    -999.25    -999.25  121.24620    -999.25   -5.06590   12.26630  806.38720    -999.25    -999.25    -999.25    1.08280  121.24620    -999.25    1.04870    -999.25    1.56890
 4400.00000  -42.75390   12.17740    0.75890    0.77410    1.23940 1291.47990    -999.25    -999.25    -999.25    -999.25    -999.25  142.11740    -999.25   -2.70420   12.17740 1291.47990    -999.25    -999.25    -999.25    0.75890  142.11740    -999.25    0.77410    -999.25    1.23940
 4450.00000  -46.07390   13.21730    0.95440    0.98560    1.39440 1173.39320    -999.25    -999.25    -999.25    -999.25    -999.25  136.71170    -999.25   -6.05650   13.21730 1173.39320    -999.25    -999.25    -999.25    0.95440  136.71170    -999.25    0.98560    -999.25    1.39440
 4500.00000  -53.27570   12.96250    1.11850    1.21230    1.65840  896.86100    -999.25    -999.25    -999.25    -999.25    -999.25  110.55410    -999.25  -13.29050   12.96250  896.86100    -999.25    -999.25    -999.25    1.11850  110.55410    -999.25    1.21230    -999.25    1.65840
 4550.00000  -43.09310   12.70760    0.74260    0.72240    1.25660 1359.74100    -999.25    -999.25    -999.25    -999.25    -999.25    -999.25    -999.25   -3.14020   12.70760 1359.74100    -999.25    -999.25    -999.25    0.74260    -999.25    -999.25    0.72240    -999.25    1.25660
 4600.00000  -42.64340   12.55780    0.67880    0.67420    1.21380 1484.80320    -999.25    -999.25    -999.25    -999.25    -999.25    -999.25    -999.25   -2.72270   12.55780 1484.80320    -999.25    -999.25    -999.25    0.67880    -999.25    -999.25    0.67420    -999.25    1.21380
 4650.00000  -41.14110   12.40780    0.65580    0.63790    1.14830 1544.91020    -999.25    -999.25    -999.25    -999.25    -999.25    -999.25    -999.25   -1.25270   12.40780 1544.91020    -999.25    -999.25    -999.25    0.65580    -999.25    -999.25    0.63790    -999.25    1.14830
 4700.00000  -45.03680   12.43780    0.79570    0.81230    1.40950 1223.55290    -999.25    -999.25    -999.25    -999.25    -999.25    -999.25    -999.25   -5.18060   12.43780 1223.55290    -999.25    -999.25    -999.25    0.79570    -999.25    -999.25    0.81230    -999.25    1.40950
 4750.00000  -43.05220   12.70760    0.85550    0.82930    1.46380 1253.49290    -999.25    -999.25    -999.25    -999.25    -999.25    -999.25    -999.25   -3.22830   12.70760 1253.49290    -999.25    -999.25    -999.25    0.85550    -999.25    -999.25    0.82930    -999.25    1.46380
 4800.00000  -41.86500   12.51270    0.66030    0.64390    1.11690 1532.50770    -999.25    -999.25    -999.25    -999.25    -999.25    -999.25    -999.25   -2.07330   12.51270 1532.50770    -999.25    -999.25    -999.25    0.66030    -999.25    -999.25    0.64390    -999.25    1.11690
 4850.00000  -42.26190   12.81860    0.85840    0.89480    1.59080 1145.50880    -999.25    -999.25    -999.25    -999.25    -999.25    -999.25    -999.25   -2.50240   12.81860 1145.50880    -999.25    -999.25    -999.25    0.85840    -999.25    -999.25    0.89480    -999.25    1.59080
 4900.00000  -43.32740   12.51670    0.63790    0.62920    1.16940 1565.53150    -999.25    -999.25    -999.25    -999.25    -999.25    -999.25    -999.25   -3.60020   12.51670 1565.53150    -999.25    -999.25    -999.25    0.63790    -999.25    -999.25    0.62920    -999.25    1.16940
 4950.00000  -43.57880   13.01510    0.92830    0.89470    1.39440 1143.96290    -999.25    -999.25    -999.25    -999.25    -999.25    -999.25    -999.25   -3.88380   13.01510 1143.96290    -999.25    -999.25    -999.25    0.92830    -999.25    -999.25    0.89470    -999.25    1.39440
 5000.00000  -41.31690   12.95500    1.06670    1.07800    1.56890  887.22560    -999.25    -999.25    -999.25    -999.25    -999.25    -999.25    -999.25   -1.65420   12.95500  887.22560    -999.25    -999.25    -999.25    1.06670    -999.25    -999.25    1.07800    -999.25    1.56890
 5050.00000  -42.51500   12.53450    1.09670    1.08550    1.69330  905.69500    -999.25    -999.25    -999.25    -999.25    -999.25    -999.25    -999.25   -2.88450   12.53450  905.69500    -999.25    -999.25    -999.25    1.09670    -999.25    -999.25    1.08550    -999.25    1.69330
 5100.00000  -41.91620   12.63950    1.16760    1.17940    1.64700  859.28140    -999.25    -999.25    -999.25    -999.25    -999.25    -999.25    -999.25   -2.31800   12.63950  859.28140    -999.25    -999.25    -999.25    1.16760    -999.25    -999.25    1.17940    -999.25    1.64700
 5150.00000  -40.41990   12.35440    0.88270    0.90090    1.36560 1152.69460    -999.25    -999.25    -999.25    -999.25    -999.25    -999.25    -999.25   -0.85390   12.35440 1152.69460    -999.25    -999.25    -999.25    0.88270    -999.25    -999.25    0.90090    -999.25    1.36560
 5200.00000  -42.21560   12.83480    0.81360    0.79570    1.36570 1250.49890    -999.25    -999.25    -999.25    -999.25    -999.25    -999.25    -999.25   -2.68180   12.83480 1250.49890    -999.25    -999.25    -999.25    0.81360    -999.25    -999.25    0.79570    -999.25    1.36570
 5250.00000  -41.50130   13.10510    1.06660    1.09130    1.54030  917.54130    -999.25    -999.25    -999.25    -999.25    -999.25    -999.25    -999.25   -1.99980   13.10510  917.54130    -999.25    -999.25    -999.25    1.06660    -999.25    -999.25    1.09130    -999.25    1.54030
 5300.00000  -44.48680   12.97000    1.21000    1.15310    1.58910  812.59370    -999.25    -999.25    -999.25    -999.25    -999.25    -999.25    -999.25   -5.01750   12.97000  812.59370    -999.25    -999.25    -999.25    1.21000    -999.25    -999.25    1.15310    -999.25    1.58910
