~Version ---------------------------------------------------
VERS. 2.0 : CWLS log ASCII Standard -VERSION 2.0
WRAP.  NO : ONE LINE PER DEPTH STEP
~Well ------------------------------------------------------
STRT.F                  2350.0 : START DEPTH
STOP.F                  7550.0 : STOP DEPTH
STEP.F                50.00000 : STEP LENGTH
NULL.                  -999.25 : NULL VALUE
COMP.        PYRO ENERGY CORP. : COMPANY
WELL.             LINDEMANN #1 : WELL
FLD .                     COST : FIELD
LOC .                          : LOCATION
CNTY.                 GONZALES : COUNTY
STAT.                    TEXAS : STATE
CTRY. UNITED STATES OF AMERICA : COUNTRY
SRVC.            Dresser Atlas : SERVICE COMPANY
DATE.              06-Jul-1983 : LOGDATE
API .           42177314470000 : API NUMBER
UWI .           42177314470000 : UNIQUE WELL ID
SLAT.WGS84       29.4166593766 : SURFACE LATITUDE
SLON.WGS84      -97.5153808555 : SURFACE LONGITUDE
~Curve Information -----------------------------------------
DEPT.F                 : 
GRR .GAPI 07 310 01 00 : GAMMA RAY FROM RESISTIVITY LOG
AC  .MS/F 60 500 00 00 : ACOUSTIC
CALR.IN   07 280 01 00 : CALIPER FROM RESISTIVITY LOG
RFOC.OHMM 07 220 06 00 : SHALLOW FOCUSED LOG RESISTIVITY
RILD.OHMM 07 120 46 00 : RAW DEEP INDUCTION RESISTIVITY
RILM.OHMM 07 120 44 00 : RAW MEDIUM INDUCTION RESISTIVITY
SPR .MV   07 010 01 00 : SPONTANEOUS POTENTIAL FROM RESISTIVITY LOG
~Params ----------------------------------------------------
EKB .FT                  314 : KELLY BUSHING
EDF .FT                  313 : DRILLING FLOOR
EGL .FT                  298 : GROUND LEVEL
DATE.               07/06/83 : RUN DATE
RUN .                      1 : RUN NUMBER
BLI .FT                 7576 : BOTTOM LOG INTERVAL
TLI .FT                 2336 : TOP LOG INTERVAL
CBL .FT                 2336 : CASING BOTTOM LOGGER
DFD .                     50 : DRILLING FLUID DENSITY
DFL .               FLOWLINE : DRILLING FLUID LOSS
TCS .HRS                   4 : TIME CIRCULATED STOPPED
CLNT.                A2DTECH : CLIENT CODE
ORIG.               5" PRINT : ORIGIN OF DATA
UWI .         42177314470000 : UNIQUE WELL ID
DICO. A2D Technologies, Inc. : DIGITIZING COMPANY
~Other -----------------------------------------------------
~ASCII -----------------------------------------------------
 2350.00000   53.25910  108.32270   10.29510   14.52170   28.09860   16.40510  -42.57080
 2400.00000   45.76280  119.38600   10.40370   14.25970   28.32570   16.72870  -29.37750
 2450.00000   88.90440  119.66930    9.44130    3.10430    2.07250    1.97600  -24.23200
 2500.00000   73.99300   96.53600   11.49730    3.20560    3.47900    3.33840  -28.97620
 2550.00000   79.57130  101.59140    8.70690   13.98680    5.36110    4.55050  -28.19330
 2600.00000   71.39140  102.65720    8.52780    5.31390    5.13180    5.44140  -32.50590
 2650.00000   60.48200  124.99110    8.76150    3.29750    2.88000    2.71130  -28.71490
 2700.00000   84.49790   86.47540    8.56320    2.84010    2.53220    2.47690  -24.21070
 2750.00000   77.56630  110.22830    9.15480    3.23260    2.94010    2.85200  -24.18410
 2800.00000   77.96740  116.22090    9.11810    2.53560    2.10950    2.00370  -23.00710
 2850.00000   81.00610  109.36970    8.82710    2.48910    2.48860    2.36660  -21.76820
 2900.00000   80.77240  116.82080    9.21430    2.30440    1.85990    1.80930  -20.33150
 2950.00000   69.14880  106.86260    8.48280    6.29510    5.68090    5.88600  -37.39020
 3000.00000   90.88620  123.17670    8.78810    3.16790    2.61290    2.82920  -28.80630
 3050.00000   72.91630  107.24720    8.55730    4.73940    5.33200    5.21760  -41.21330
 3100.00000   52.25430  118.68410    8.69120    5.55900    5.36080    5.84290  -47.83360
 3150.00000   60.68070  107.13420    8.55650    3.89230    3.51550    3.57440  -45.44380
 3200.00000   86.95570  122.44820    9.11440    2.56700    2.27210    2.36590  -40.00430
 3250.00000   74.01420  113.13400    8.91430    2.68610    2.09580    2.18780  -39.35090
 3300.00000   87.45720  111.18220    9.87620    2.66810    2.09730    2.13460  -38.51450
 3350.00000   57.83160  105.78990    8.19610    5.93150    5.64410    5.45980  -64.49290
 3400.00000   96.07240  114.52810    8.83960    2.18150    1.63280    1.71870  -48.36100
 3450.00000   62.55820   99.24750    7.94500    4.86370    4.66490    4.71830  -64.11360
 3500.00000   75.09970   98.06010    7.84920    4.83700    4.68240    4.86470  -63.20690
 3550.00000   52.25040  109.17550    7.79860    6.03120    5.20250    5.46370  -69.13480
 3600.00000   73.21420  119.53890    9.35160    2.93680    1.82570    2.01860  -49.03660
 3650.00000   57.37790  101.51430    8.42250    5.89100    6.21440    6.05550  -65.15570
 3700.00000   36.35800  104.73450    8.62100    6.87360    5.47270    5.89230  -66.29450
 3750.00000   40.63370  103.02600    8.60590    5.13910    3.93650    4.29060  -64.95460
 3800.00000   51.48690  103.22690    8.70400    6.00270    5.44950    5.65030  -69.42480
 3850.00000   44.89200  107.63540    8.29820    5.60280    4.38490    4.76360  -74.08250
 3900.00000   65.65810  106.74610    8.30670    4.54820    2.84060    2.95830  -56.49370
 3950.00000   88.56830  116.16130    8.79070    1.93530    1.43640    1.47550  -37.81410
 4000.00000   80.22630  105.53540    8.14400    2.64010    2.07350    2.11470  -42.36760
 4050.00000   33.18900  102.22160    8.70610    3.80410    2.24890    2.53120  -79.58670
 4100.00000   44.26920  101.11570    7.82200    4.73580    2.20830    2.56030  -76.09850
 4150.00000   51.33140   98.77650    7.98970    3.75670    2.00220    2.28340  -77.83730
 4200.00000   51.84340   94.85500    8.26550    4.69770    2.19870    2.64890  -71.97570
 4250.00000   57.92950   92.53020    7.78030    5.45920    2.46270    3.05560  -64.22510
 4300.00000   91.51660  102.39770    7.90820    2.31720    1.78520    2.06180  -27.92550
 4350.00000  106.50210  113.67410    8.09630    2.24980    1.79160    1.85660  -26.39720
 4400.00000   88.99090   99.56750    7.89640    2.75320    2.02450    2.15600  -32.84720
 4450.00000   80.66700   95.85890    7.80320    2.46120    1.94940    2.30990  -38.48520
 4500.00000   48.17930   97.03520    7.72530    4.78120    1.40180    1.78960  -87.51410
 4550.00000   87.86100   95.93750    8.72090    2.53980    1.83580    1.84930  -25.95070
 4600.00000  101.10070  104.09280    8.85470    2.07230    1.69730    1.74900  -22.86880
 4650.00000   94.29790  123.11850    8.51410    2.70160    2.28080    2.36960  -34.22310
 4700.00000   89.11240   93.49000    8.34390    2.64700    2.00430    2.08020  -28.18390
 4750.00000  100.81470   93.18960    8.50940    3.12430    2.33850    2.51650  -37.91210
 4800.00000   90.44980   96.16120    8.71650    2.42690    1.97930    2.03840  -26.67180
 4850.00000   99.15110   99.16610    9.08040    2.36270    1.88900    1.94360  -22.34650
 4900.00000    -999.25    -999.25    -999.25    2.17000    1.74180    1.77160  -20.72430
 4950.00000    -999.25    -999.25    -999.25    -999.25    -999.25    -999.25    -999.25
 5000.00000    -999.25    -999.25    -999.25    -999.25    -999.25    -999.25    -999.25
 5050.00000    -999.25    -999.25    -999.25    -999.25    -999.25    -999.25    -999.25
 5100.00000    -999.25    -999.25    -999.25    -999.25    -999.25    -999.25    -999.25
 5150.00000    -999.25    -999.25    -999.25    -999.25    -999.25    -999.25    -999.25
 5200.00000    -999.25    -999.25    -999.25    -999.25    -999.25    -999.25    -999.25
 5250.00000    -999.25    -999.25    -999.25    -999.25    -999.25    -999.25    -999.25
 5300.00000    -999.25    -999.25    -999.25    -999.25    -999.25    -999.25    -999.25
 5350.00000    -999.25    -999.25    -999.25    -999.25    -999.25    -999.25    -999.25
 5400.00000    -999.25    -999.25    -999.25    -999.25    -999.25    -999.25    -999.25
 5450.00000    -999.25    -999.25    -999.25    -999.25    -999.25    -999.25    -999.25
 5500.00000    -999.25    -999.25    -999.25    -999.25    -999.25    -999.25    -999.25
 5550.00000    -999.25    -999.25    -999.25    -999.25    -999.25    -999.25    -999.25
 5600.00000    -999.25    -999.25    -999.25    -999.25    -999.25    -999.25    -999.25
 5650.00000    -999.25    -999.25    -999.25    -999.25    -999.25    -999.25    -999.25
 5700.00000    -999.25    -999.25    -999.25    -999.25    -999.25    -999.25    -999.25
 5750.00000    -999.25    -999.25    -999.25    -999.25    -999.25    -999.25    -999.25
 5800.00000    -999.25    -999.25    -999.25    -999.25    -999.25    -999.25    -999.25
 5850.00000    -999.25    -999.25    -999.25    -999.25    -999.25    -999.25    -999.25
 5900.00000    -999.25    -999.25    -999.25    -999.25    -999.25    -999.25    -999.25
 5950.00000    -999.25    -999.25    -999.25    -999.25    -999.25    -999.25    -999.25
 6000.00000    -999.25    -999.25    -999.25    -999.25    -999.25    -999.25    -999.25
 6050.00000    -999.25    -999.25    -999.25    -999.25    -999.25    -999.25    -999.25
 6100.00000    -999.25    -999.25    -999.25    -999.25    -999.25    -999.25    -999.25
 6150.00000    -999.25    -999.25    -999.25    -999.25    -999.25    -999.25    -999.25
 6200.00000    -999.25    -999.25    -999.25    -999.25    -999.25    -999.25    -999.25
 6250.00000    -999.25    -999.25    -999.25    -999.25    -999.25    -999.25    -999.25
 6300.00000    -999.25    -999.25    -999.25    -999.25    -999.25    -999.25    -999.25
 6350.00000    -999.25    -999.25    -999.25    -999.25    -999.25    -999.25    -999.25
 6400.00000    -999.25    -999.25    -999.25    -999.25    -999.25    -999.25    -999.25
 6450.00000    -999.25    -999.25    -999.25    -999.25    -999.25    -999.25    -999.25
 6500.00000    -999.25    -999.25    -999.25    -999.25    -999.25    -999.25    -999.25
 6550.00000    -999.25    -999.25    -999.25    -999.25    -999.25    -999.25    -999.25
 6600.00000    -999.25    -999.25    -999.25    -999.25    -999.25    -999.25    -999.25
 6650.00000    -999.25    -999.25    -999.25    -999.25    -999.25    -999.25    -999.25
 6700.00000    -999.25    -999.25    -999.25    -999.25    -999.25    -999.25    -999.25
 6750.00000    -999.25    -999.25    -999.25    -999.25    -999.25    -999.25    -999.25
 6800.00000    -999.25    -999.25    -999.25    -999.25    -999.25    -999.25    -999.25
