~Version ---------------------------------------------------
VERS.      2.0 : CWLS log ASCII Standard -VERSION 2.0
WRAP.      YES : Multiple lines per depth step
CREA. 10/06/20 : LAS Creation Date
~Well ------------------------------------------------------
STRT.FT                 3150.0 : START DEPTH
STOP.FT                18400.0 : STOP DEPTH
STEP.FT               50.00000 : STEP LENGTH
NULL.                  -999.25 : NULL VALUE
COMP. AMOCO PRODUCTION COMPANY : COMPANY
WELL.       MARTIN GAS UNIT #1 : WELL
FLD .                  WILDCAT : FIELD
LOC .                          : LOCATION
CNTY.                     LEON : COUNTY
STAT.                    TEXAS : STATE
CTRY. UNITED STATES OF AMERICA : COUNTRY
SRVC.             Schlumberger : SERVICE COMPANY
DATE.              06-Oct-1998 : LOGDATE
API .           42289312900000 : API NUMBER
UWI .           42289312900000 : UNIQUE WELL ID
SLAT.WGS84       31.2448401024 : SURFACE LATITUDE
SLON.WGS84      -96.2384028977 : SURFACE LONGITUDE
~Curve Information -----------------------------------------
DEPT    .FT    : DEPTH FEET
AT20ED  .OHMM  : 20 INCH ARRAY RESISTIVITY TWO FOOT RESOLUTION FROM AIT LOG
AT30ED  .OHMM  : 30 INCH ARRAY RESISTIVITY TWO FOOT RESOLUTION FROM AIT LOG
AT60ED  .OHMM  : 60 INCH ARRAY RESISTIVITY TWO FOOT RESOLUTION FROM AIT LOG
AT90ED  .OHMM  : 90 INCH ARRAY RESISTIVITY TWO FOOT RESOLUTION FROM AIT LOG
BITSED  .IN    : BIT SIZE FROM RUN HEADERS
CALDED  .IN    : CALIPER FROM DENSITY LOG [DSH. TO GRRED]
CALWS   .IN    : CALIPER [TOP CALDED 14108' (DCALDED+BITSED) TD]
CONDWS  .MMHO  : DEEP CONDUCTIVITY [1000/DRESWS]
DCALDED .IN    : DIFFERENTIAL CALIPER FROM DENSITY LOG [DSH. TO GRRED]
DCORWS  .G/C3  : DENSITY CORRECTION [TOP DRHOED 16650' DRHED TD]
DENWS   .G/C3  : BULK DENSITY [CALC. FROM DPOLSWS]
DPHILSED.V/V   : DENSITY POROSITY (LS) [M=2.71 F=1.00] [DSH. TO GRRED]
DPOLSED .V/V   : DENSITY POROSITY (LS) [M=2.71 F=1.00] [DSH. TO GRRED]
DPOLSWS .V/V   : DENSITY POROSITY (LS) [M=2.71 F=1.00] [TOP DPHILSED 16650' DPOLSED TD]
DRESWS  .OHMM  : DEEP RESISTIVITY [TOP AT90ED 14100' ILDED 16650' IDPHED TD]
DRHED   .G/C3  : DENSITY CORRECTION FROM DENSITY LOG [DSH. TO GRRED]
DRHOED  .G/C3  : DENSITY CORRECTION FROM DENSITY LOG [DSH. TO GRRED]
DTCOED  .US/F  : DELTA TIME COMPRESSIONAL FROM SONIC LOG
DTLFED  .US/F  : DELTA TIME LONG SPACING FAR DETECTOR FROM SONIC LOG
DTLNED  .US/F  : DELTA TIME LONG SPACING NEAR DETECTOR FROM SONIC LOG
DTSMED  .US/F  : DELTA TIME SHEAR WAVE FROM SONIC LOG
DTSWS   .US/F  : DELTA TIME SHEAR [DTSMED]
DTWS    .US/F  : DELTA TIME COMPRESSIONAL [TOP DTCOED 16650' DTLNED TD]
GRDED   .GAPI  : GAMMA RAY FROM DENSITY LOG [DSH. TO GRRED]
GRRED   .GAPI  : GAMMA RAY FROM RESISTIVITY LOG
GRWS    .GAPI  : GAMMA RAY [GRRED][RESCALED GRWS IN CSG )14030-14106' & 16606-16645') FROM 0/90-0/150]
IDPHED  .OHMM  : DEEP INDUCTION PHASE RESISTIVITY
ILDED   .OHMM  : DEEP INDUCTION RESISTIVITY
ILMED   .OHMM  : MEDIUM INDUCTION RESISTIVITY
IMPHED  .OHMM  : MEDIUM INDUCTION PHASE RESISTIVITY
MRESWS  .OHMM  : MEDIUM RESISTIVITY [TOP AT30ED 14100' ILMED 16650' IMPHED TD]
NPHILSED.V/V   : NEUTRON POROSITY (LS) [DSH. TO GRRED]
NPOLSWS .V/V   : NEUTRON POROSITY (LS) [NPHILSED]
PEFED   .B/E   : PHOTOELECTRIC FACTOR FROM DENSITY LOG [DSH. TO GRRED]
PEFWS   .B/E   : PHOTOELECTRIC FACTOR [PEFED]
SFLUED  .OHMM  : SPHERICALLY FOCUSED UNAVERAGED RESISTIVITY
SPWS    .MV    : SPONTANEOUS POTENTIAL [BASELINE 0 MV] [SPRED]
SPRED   .MV    : SPONTANEOUS POTENTIAL FROM RESISTIVITY LOG
SRESWS  .OHMM  : SHALLOW RESISTIVITY [TOP AT20ED 14100' SFLUED TD]
TENDED  .LBF   : TENSION FROM DENSITY LOG [DSH. TO GRRED]
TENRED  .LBF   : TENSION FROM RESISTIVITY LOG
~Params ----------------------------------------------------
PD  .                     GL : PERMANENT DATUM
EPD .FT                389.3 : ELEVATION PERMANENT DATUM
LMF .                     KB : LOG MEASURED FROM
DAPD.FT                 33.7 : MEASUREMENT ABOVE PERMANENT DATUM
DMF .                     KB : DRILLING MEASURED FROM
EKB .FT                  423 : KELLY BUSHING
EDF .FT                  422 : DRILLING FLOOR
EGL .FT                389.3 : GROUND LEVEL
DATE.               10/06/98 : RUN DATE
RUN .                      3 : RUN NUMBER
DD  .FT                18400 : DEPTH DRILLER
DL  .FT                18391 : DEPTH LOGGER
BLI .FT                18381 : BOTTOM LOG INTERVAL
TLI .FT                16646 : TOP LOG INTERVAL
CS  .IN                7.625 : CASING SIZE
CBD .FT                16650 : CASING BOTTOM DRILLER
CBL .FT                16646 : CASING BOTTOM LOGGER
BS  .IN                 6.25 : BIT SIZE
BSD .FT                18400 : BIT SIZE AT DEPTH
DFT .             VERSADRILL : DRILLING FLUID TYPE
DFD .                   17.9 : DRILLING FLUID DENSITY
DFV .                     45 : DRILLING FLUID VISCOSITY
MSS .                MUD PIT : MUD SAMPLE SOURCE
MFSS.                   CALC : MUD FILTRATE SAMPLE SOURCE
MCSS.                   CALC : MUD CAKE SAMPLE SOURCE
TCS .HRS                 830 : TIME CIRCULATED STOPPED
TLAB.HRS                2357 : TIME LOGGER AT BOTTOM
LUN .                   2142 : LOGGING UNIT NUMBER
LUL .                  TYLER : LOGGING UNIT LOCATION
ENGI.                SKRBICH : RECORDING ENGINEER
WITN.       WALKER WYSZYNSKI : WITNESSED BY
CLNT.                A2DTECH : CLIENT CODE
ORIG.         1" 2" 5" PRINT : ORIGIN OF DATA
UWI .         42289312900000 : UNIQUE WELL ID
DICO. A2D Technologies, Inc. : DIGITIZING COMPANY
~Other -----------------------------------------------------
1) RESISTIVITY INVALID 14360-14404', 15400-15475 NULLED (REPEAT LOG N/A). PATCHED FROM REPEAT LOG 15950-15980' & 16590-16645'.
2) GRRED PATCHED FROM REPEAT LOG 15400-15500 & 16550-16606'.
3) SONIC NOT LOGGED 14100-16650' AND ERRATIC ON SOME AREAS ABOVE 6300' WITH SOME GAPS AND SPIKES HENCE PATCHED SOME SMALL AREAS.
4) LDL/CNL STICKING TOOL ENTIRE RUN2 - NULLED PEF INVALID @ 15410-15625' & 15730-15410', PATCHED DENSITY@16025-16040', PATCHED NEUTRON@14295-14320' & PATCHED GRDED@VARIOUS DEPTHS BASED ON GRRED. ANY DOUBTS, PLEASE REFER TO ORIGINAL CURVES IN STANDARD LAS. STICKING TOOL MAY SLIGHTLY AFFECT LOG QUALITY ON OTHER AREAS, PLEASE USE WITH CAUTIONS.
~ASCII -----------------------------------------------------
# ...
 5850.00000    2.13820    2.36860    2.46600    2.50790   12.25000   14.79650   14.79650  398.74000    -999.25    0.08140    2.47010    0.14030    -999.25    0.14030    2.50790    -999.25    0.08140   95.94940    -999.25    -999.25  126.09840  126.09840   95.94940   71.49360   75.32070   75.32070    -999.25    -999.25    -999.25    -999.25    2.36860    0.31250    0.31250    5.27720    5.27720    -999.25   -4.46670    3.52950    2.13820 2636.11470 2936.77950
 5900.00000    1.86790    2.03100    2.11350    2.14940   12.25000   15.36150   15.36150  465.24610    -999.25    0.01360    2.34990    0.21060    -999.25    0.21060    2.14940    -999.25    0.01360   99.11980    -999.25    -999.25  134.78000  134.78000   99.11980   82.55340   89.79180   89.79180    -999.25    -999.25    -999.25    -999.25    2.03100    0.35050    0.35050    5.01320    5.01320    -999.25   -3.91300    2.81170    1.86790 2663.64450 2992.86600
 5950.00000    2.70960    3.03060    3.10640    3.26020   12.25000   14.73820   14.73820  306.72960    -999.25    0.01550    2.40150    0.18040    -999.25    0.18040    3.26020    -999.25    0.01550  101.65700    -999.25    -999.25  139.45440  139.45440  101.65700   79.68650   69.16780   69.16780    -999.25    -999.25    -999.25    -999.25    3.03060    0.32640    0.32640    6.04490    6.04490    -999.25   -3.30040    2.15270    2.70960 2750.72800 2959.04170
 6000.00000    2.48320    3.03650    3.16710    3.48100   12.25000   15.16320   15.16320  287.27380    -999.25    0.05500    2.52480    0.10830    -999.25    0.10830    3.48100    -999.25    0.05500   88.06530    -999.25    -999.25  118.53330  118.53330   88.06530   68.24190   60.71450   60.71450    -999.25    -999.25    -999.25    -999.25    3.03650    0.22270    0.22270    6.11330    6.11330    -999.25   -4.36810   -0.17220    2.48320 2700.30660 2986.80810
 6050.00000    2.88900    3.32380    3.97980    4.38870   12.25000   15.11080   15.11080  227.85790    -999.25    0.02540    2.43960    0.15810    -999.25    0.15810    4.38870    -999.25    0.02540   97.17460    -999.25    -999.25  139.14100  139.14100   97.17460   55.56040   51.06170   51.06170    -999.25    -999.25    -999.25    -999.25    3.32380    0.15030    0.15030    5.32310    5.32310    -999.25   -7.56620   -4.48250    2.88900 2750.31880 2984.47730
 6100.00000    0.68780    0.73100    0.90040    0.95400   12.25000   18.81990   18.81990 1048.21800    -999.25   -0.02090    1.94120    0.44960    -999.25    0.44960    0.95400    -999.25   -0.02090   51.48320    -999.25    -999.25   82.26130   82.26130   51.48320   65.01490   64.26090   64.26090    -999.25    -999.25    -999.25    -999.25    0.73100    0.43050    0.43050    8.50880    8.50880    -999.25   -2.53670   -0.56520    0.68780 2696.09990 3012.42650
 6150.00000    0.82330    0.94370    1.10260    1.12550   12.25000   18.26250   18.26250  888.49400    -999.25   -0.00260    -999.25    -999.25    -999.25    -999.25    1.12550    -999.25   -0.00260  105.36180    -999.25    -999.25  143.35590  143.35590  105.36180   57.05910   52.69350   52.69350    -999.25    -999.25    -999.25    -999.25    0.94370    0.37660    0.37660    5.39870    5.39870    -999.25   -1.80240   -0.94320    0.82330 2670.96780 3028.67380
 6200.00000    0.81310    0.89590    1.05210    1.07020   12.25000   19.12080   19.12080  934.40480    -999.25    0.04510    -999.25    -999.25    -999.25    -999.25    1.07020    -999.25    0.04510  102.06370    -999.25    -999.25  140.15800  140.15800  102.06370   66.78070   58.21180   58.21180    -999.25    -999.25    -999.25    -999.25    0.89590    0.48240    0.48240    8.69920    8.69920    -999.25   -3.70580   -3.95880    0.81310 2723.31710 3032.80440
 6250.00000    1.47320    1.74010    2.01820    2.05140   12.25000   15.85700   15.85700  487.47200    -999.25    0.08990    2.29170    0.24460    -999.25    0.24460    2.05140    -999.25    0.08990   91.76470    -999.25    -999.25  115.92110  115.92110   91.76470   50.46140   53.41760   53.41760    -999.25    -999.25    -999.25    -999.25    1.74010    0.33200    0.33200    6.63700    6.63700    -999.25   -4.36950   -5.74100    1.47320 2815.61520 3039.78810
 6300.00000    9.81460   12.57200   17.27400   18.41470   12.25000   14.47210   14.47210   54.30440    -999.25    0.00310    2.66610    0.02570    -999.25    0.02570   18.41470    -999.25    0.00310   53.44320    -999.25    -999.25  111.56060  111.56060   53.44320   12.40380   14.32810   14.32810    -999.25    -999.25    -999.25    -999.25   12.57200    0.02900    0.02900    5.78420    5.78420    -999.25  -18.80320  -21.41210    9.81460 2834.72070 3028.53810
 6350.00000    3.42620    4.22830    5.84640    5.95150   12.25000   17.82420   17.82420  168.02490    -999.25    0.00530    2.61920    0.05310    -999.25    0.05310    5.95150    -999.25    0.00530   64.11860    -999.25    -999.25   91.56490   91.56490   64.11860   25.70900   22.97020   22.97020    -999.25    -999.25    -999.25    -999.25    4.22830    0.13590    0.13590    6.62930    6.62930    -999.25   -5.41130   -9.25770    3.42620 2841.92820 3095.87060
 6400.00000    4.90400    5.57990    6.62370    6.76470   12.25000   14.47310   14.47310  147.82620    -999.25   -0.00120    2.62670    0.04870    -999.25    0.04870    6.76470    -999.25   -0.00120   61.37530    -999.25    -999.25  103.56230  103.56230   61.37530   23.02720   24.27590   24.27590    -999.25    -999.25    -999.25    -999.25    5.57990    0.07980    0.07980    6.64210    6.64210    -999.25   -6.06490  -11.14870    4.90400 2840.02100 3065.64040
 6450.00000    6.62410    9.38570   12.95300   11.96350   12.25000   14.35330   14.35330   83.58760    -999.25    0.00250    2.63660    0.04290    -999.25    0.04290   11.96350    -999.25    0.00250   59.43540    -999.25    -999.25  115.51910  115.51910   59.43540   16.13290   18.10350   18.10350    -999.25    -999.25    -999.25    -999.25    9.38570    0.04110    0.04110    6.45570    6.45570    -999.25   -9.83120  -16.15250    6.62410 2863.33790 3096.95650
 6500.00000    4.36680    5.12250    7.28380    6.43480   12.25000   14.66020   14.66020  155.40500    -999.25    0.00300    2.62230    0.05130    -999.25    0.05130    6.43480    -999.25    0.00300   59.98530    -999.25    -999.25  118.35900  118.35900   59.98530   18.65830   19.82750   19.82750    -999.25    -999.25    -999.25    -999.25    5.12250    0.08370    0.08370    6.24360    6.24360    -999.25  -23.88210  -31.44080    4.36680 2896.85740 3062.68870
 6550.00000    6.97700   10.96000   17.32570   16.13580   12.25000   15.25520   15.25520   61.97400    -999.25   -0.00070    2.63540    0.04360    -999.25    0.04360   16.13580    -999.25   -0.00070   55.93670    -999.25    -999.25  114.79570  114.79570   55.93670   13.99190   11.41110   11.41110    -999.25    -999.25    -999.25    -999.25   10.96000    0.02020    0.02020    5.79670    5.79670    -999.25  -14.12520  -22.92140    6.97700 2867.60060 3095.30810
 6600.00000    5.26370    7.27200    8.86380    7.96110   12.25000   14.41300   14.41300  125.61080    -999.25    0.01620    2.60810    0.05960    -999.25    0.05960    7.96110    -999.25    0.01620   61.87260    -999.25    -999.25  101.27680  101.27680   61.87260   21.63230   19.22760   19.22760    -999.25    -999.25    -999.25    -999.25    7.27200    0.06100    0.06100    6.37990    6.37990    -999.25   -7.06110  -17.09470    5.26370 2918.88840 3116.24610
 6650.00000    7.47380    9.92610   13.73310   12.81430   12.25000   14.22670   14.22670   78.03780    -999.25    0.01670    2.62540    0.04950    -999.25    0.04950   12.81430    -999.25    0.01670   56.59600    -999.25    -999.25  113.72990  113.72990   56.59600   13.91310   13.21270   13.21270    -999.25    -999.25    -999.25    -999.25    9.92610    0.04250    0.04250    6.26790    6.26790    -999.25  -20.41410  -31.68520    7.47380 2939.38530 3143.47140
 6700.00000    6.93000    8.45270   13.89690   12.24810   12.25000   14.80460   14.80460   81.64530    -999.25   -0.00450    2.60040    0.06410    -999.25    0.06410   12.24810    -999.25   -0.00450   59.77400    -999.25    -999.25  120.55820  120.55820   59.77400   15.24760   16.86350   16.86350    -999.25    -999.25    -999.25    -999.25    8.45270    0.03450    0.03450    6.64210    6.64210    -999.25  -14.42260  -26.93110    6.93000 2942.70850 3164.29080
