~Version ---------------------------------------------------
VERS. 2.0 : CWLS log ASCII Standard -VERSION 2.0
WRAP.  NO : ONE LINE PER DEPTH STEP
~Well ------------------------------------------------------
STRT.F                    6600.0 : START DEPTH
STOP.F                    8750.0 : STOP DEPTH
STEP.F                  50.00000 : STEP LENGTH
NULL.                    -999.25 : NULL VALUE
COMP. CHAMPLIN PETROLEUM COMPANY : COMPANY
WELL.       DANSBY-DAVIS UNIT #1 : WELL
FLD .                     KURTEN : FIELD
LOC .                            : LOCATION
CNTY.                     BRAZOS : COUNTY
STAT.                      TEXAS : STATE
CTRY.   UNITED STATES OF AMERICA : COUNTRY
SRVC.                      Welex : SERVICE COMPANY
DATE.                01-Nov-1984 : LOGDATE
API .             42041311970000 : API NUMBER
UWI .             42041311970000 : UNIQUE WELL ID
SLAT.WGS84         30.7061566313 : SURFACE LATITUDE
SLON.WGS84        -96.4108820157 : SURFACE LONGITUDE
~Curve Information -----------------------------------------
DEPT   .F                 : 
GRR    .GAPI 07 310 01 00 : GAMMA RAY FROM RESISTIVITY LOG
ILD    .OHMM 07 120 46 00 : INDUCTION DEEP RESISTIVITY
ILM    .OHMM 07 120 44 00 : INDUCTION MEDIUM RESISTIVITY
SGUARD .OHMM 07 120 05 00 : SHALLOW/SHORT GUARD RESISTIVITY
SPR    .MV   07 010 01 00 : SPONTANEOUS POTENTIAL FROM RESISTIVITY LOG
GRD    .GAPI 45 310 01 00 : GAMMA RAY FROM DENSITY LOG
RHOB   .G/C3 45 350 01 00 : BULK DENSITY
CALD   .IN   45 280 60 00 : CALIPER FROM DENSITY LOG
CORR   .G/C3 45 356 01 00 : DENSITY CORRECTION
TEND   .LB   45 635 00 00 : TENSION FROM DENSITY LOG
NPHI_LS.DEC  42 890 01 00 : NEUTRON POROSITY LIMESTONE
DPHI_LS.DEC  45 890 12 00 : DENSITY POROSITY LIMESTONE
~Params ----------------------------------------------------
~Other -----------------------------------------------------
~ASCII -----------------------------------------------------
 6600.00000   78.54020    1.31280    1.40200    1.55000  -18.60020    -999.25    -999.25    -999.25    -999.25    -999.25    -999.25    -999.25
 6650.00000   81.17270    1.48530    1.57100    1.72170  -18.66420    -999.25    -999.25    -999.25    -999.25    -999.25    -999.25    -999.25
 6700.00000   80.59630    1.28330    1.34030    1.49350  -18.83570    -999.25    -999.25    -999.25    -999.25    -999.25    -999.25    -999.25
 6750.00000   66.24040    2.86210    2.94340    3.01430  -19.04710    -999.25    -999.25    -999.25    -999.25    -999.25    -999.25    -999.25
 6800.00000   71.61590    2.52740    2.68560    2.87900  -19.02870    -999.25    -999.25    -999.25    -999.25    -999.25    -999.25    -999.25
 6850.00000   68.32130    2.77450    2.93120    2.96600  -19.93300    -999.25    -999.25    -999.25    -999.25    -999.25    -999.25    -999.25
 6900.00000   62.32360    2.73310    2.91230    3.03600  -20.43240    -999.25    -999.25    -999.25    -999.25    -999.25    -999.25    -999.25
 6950.00000   68.84550    2.37210    2.47750    2.83440  -20.25700    -999.25    -999.25    -999.25    -999.25    -999.25    -999.25    -999.25
 7000.00000   74.54380    1.64470    1.79330    2.01660  -20.44800    -999.25    -999.25    -999.25    -999.25    -999.25    -999.25    -999.25
 7050.00000   83.63070    1.82020    1.90830    2.08480  -20.63070    -999.25    -999.25    -999.25    -999.25    -999.25    -999.25    -999.25
 7100.00000   76.09870    1.88140    2.01810    2.17330  -20.57060    -999.25    -999.25    -999.25    -999.25    -999.25    -999.25    -999.25
 7150.00000   74.54150    1.87210    2.01330    2.11790  -20.63810    -999.25    -999.25    -999.25    -999.25    -999.25    -999.25    -999.25
 7200.00000   86.73560    1.50390    1.60270    1.77310  -21.40290    -999.25    -999.25    -999.25    -999.25    -999.25    -999.25    -999.25
 7250.00000   80.49910    1.36800    1.46570    1.63260  -21.74010    -999.25    -999.25    -999.25    -999.25    -999.25    -999.25    -999.25
 7300.00000   84.32330    1.47070    1.57310    1.70410  -14.13650    -999.25    -999.25    -999.25    -999.25    -999.25    -999.25    -999.25
 7350.00000   84.96490    1.56530    1.67140    1.85640  -21.68150    -999.25    -999.25    -999.25    -999.25    -999.25    -999.25    -999.25
 7400.00000   78.39100    1.65050    1.77310    1.97890  -22.18640    -999.25    -999.25    -999.25    -999.25    -999.25    -999.25    -999.25
 7450.00000   77.73280    1.52660    1.64190    1.83340  -21.29530   72.62670    2.49160   11.77070    0.14180 1983.42900    0.24940    0.12800
 7500.00000   61.94840    1.63470    1.74750    2.02310  -39.82400   65.69060    2.40230   10.57180    0.14190 2005.34860    0.26220    0.17940
 7550.00000   66.24760    2.50110    2.63980    2.90980  -37.75370   62.39130    2.45950   10.52580    0.14310 2060.83420    0.24790    0.14470
 7600.00000   79.13040    2.47580    2.66140    3.04810  -39.16220   79.46100    2.49080   11.04470    0.11550 2046.98060    0.24330    0.12630
 7650.00000   40.68170    5.53330    5.96350    5.86860  -38.90030   32.90120    2.59030    9.44270    0.02220 2039.84620    0.11170    0.06970
 7700.00000   32.86950    8.48600    9.37600    7.53380  -47.21200   22.54850    2.12360    9.41020    0.17060 2059.78220    0.09340    0.34560
 7750.00000   38.10770    5.78990    6.13850    5.79370  -33.89450   30.74050    2.60590    9.41150    0.04540 2055.57910    0.08690    0.06000
 7800.00000   39.05350    7.19540    7.95600   10.21760  -23.81670   33.23390    2.59680    9.01010    0.01370 2056.13990    0.09930    0.06480
 7850.00000   39.17680    6.98560    7.45550    8.72530  -20.62280   25.70250    2.59830    8.86120    0.01060 2058.65260    0.08190    0.06660
 7900.00000   21.32360   14.74480   16.70030   20.20540  -52.17070   13.87310    2.58800    8.47330    0.02910 2065.17650    0.08690    0.06990
 7950.00000   93.30540    1.34600    1.43110    1.72540  -11.67220   74.58180    2.34730   10.83310    0.17180 2080.97530    0.37460    0.21330
 8000.00000   86.43170    1.18600    1.25590    1.60140  -15.52920   73.45460    2.27870   11.42150    0.17730 2144.34010    0.32230    0.25010
 8050.00000   81.81190    1.31950    1.37960    1.55130  -17.77780   72.97840    2.31600   11.79850    0.13790 2089.96920    0.36180    0.22880
 8100.00000   83.85900    3.06920    2.49030    3.05560  -21.04500   71.37120    2.46900   11.80650    0.13770 2104.96730    0.28100    0.13960
 8150.00000   77.77220    1.56660    1.45750    1.89380  -19.38100   68.59260    2.24230   14.37270    0.14620 2129.06180    0.35930    0.27280
 8200.00000   93.51480    2.94380    3.19920    5.17450  -22.89850   79.04260    2.43580   10.05930    0.15550 2136.39670    0.35590    0.16100
 8250.00000  101.25370    2.54160    2.59170    4.21480  -21.39730   89.01180    2.36870    9.40640    0.16700 2157.10600    0.31350    0.19860
 8300.00000   95.82770    2.70060    2.94100    4.49000  -18.80500   81.48570    2.40590    8.73930    0.15220 2185.08030    0.31360    0.17430
 8350.00000  115.43560    7.60690    8.89200   12.76690  -17.34490  103.96220    2.45410    8.54590    0.02630 2191.36430    0.26090    0.15040
 8400.00000   81.00870    1.96170    2.00710    2.70730  -31.30480   74.62940    2.01830   10.67060    0.13980 2187.63990    0.38970    0.41960
 8450.00000   44.57050    4.56980    4.83410    5.73020  -33.20360   41.16460    2.64550    8.59840    0.02640 2200.62740    0.16700    0.03780
 8500.00000   18.72730   34.08260   40.27750   30.96070  -63.48600   16.01040    2.25480   10.18990    0.13990 2351.00540    0.06090    0.25600
 8550.00000   40.61200    5.54680    5.86640    7.66920  -38.00060   35.64980    2.60320    8.46810    0.00720 2253.18530    0.11220    0.06410
 8600.00000   12.91760   51.41870   58.32700   47.58180  -91.85870    9.32640    2.31460    8.69400    0.15770 2308.31300    0.04370    0.23280
 8650.00000   18.43750   29.93630   33.20320   31.35100  -57.30100   17.48360    2.53220    8.45740    0.16020 2350.85520    0.04740    0.10300
 8700.00000   14.03200   32.17180   34.72440   31.44310  -61.37790   15.51570    2.61710    8.58460    0.09530 2355.35790    0.03360    0.05160
 8750.00000   13.11470   24.66300   28.64550   54.18450  -57.43850   12.24270    2.66680    8.18620    0.02840 2366.13890    0.02460    0.02550
