~Version ---------------------------------------------------
VERS. 2.0 : CWLS log ASCII Standard -VERSION 2.0
WRAP. YES : MULTIPLE LINES PER DEPTH STEP
~Well ------------------------------------------------------
STRT.FT                                1300.0 : START DEPTH
STOP.FT                               10950.0 : STOP DEPTH
STEP.FT                              50.00000 : STEP LENGTH
NULL.                                 -999.25 : NULL VALUE
COMP. GULF EXPLORATION AND PRODUCTION COMPANY : COMPANY
WELL.                HENDERSON GAS UNIT II #2 : WELL
FLD .                                 FASHING : FIELD
LOC .                                         : LOCATION
CNTY.                                ATASCOSA : COUNTY
STAT.                                   TEXAS : STATE
CTRY.                UNITED STATES OF AMERICA : COUNTRY
SRVC.                                 Unknown : SERVICE COMPANY
DATE.                             06-Jun-1981 : LOGDATE
API .                          42013311740000 : API NUMBER
UWI .                          42013311740000 : UNIQUE WELL ID
SLAT.WGS84                      28.8192769779 : SURFACE LATITUDE
SLON.WGS84                      -98.151364978 : SURFACE LONGITUDE
~Curve Information -----------------------------------------
DEPT    .FT                         : DEPTH FEET
CALDED  .IN                         : CALIPER FROM DENSITY LOG [DEPTH SHIFTED TO RES.]
CALWS   .IN                         : CALIPER [CALDED]
CONDWS  .MMHO                       : CONDUCTIVITY [1000/DRESWS]
DCORWS  .G/C3                       : DENSITY CORRECTION [DRHOED]
DENWS   .G/C3                       : BULK DENSITY [M=2.71 F=1.0] [CALCULATED FROM DPOWS]
DPHILSED.V/V                        : DENSITY POROSITY LIMESTONE FROM DENSITY LOG [DEPTH SHIFTED TO RES.]
DPOWS   .V/V                        : DENSITY POROSITY [M=2.71 F=1.0] [DPHILSED]
DRESWS  .OHMM                       : DEEP RESISTIVITY [ILDED]
DRHOED  .G/C3                       : DENSITY CORRECTION FROM DENSITY LOG [DEPTH SHIFTED TO RES.]
DTED    .US/F                       : DELTA TIME FROM SONIC LOG
DTWS    .US/F                       : DELTA TIME [DTED]
GRDED   .GAPI                       : GAMMA RAY FROM DENSITY LOG [DEPTH SHIFTED TO RES.]
GRNED   .CPS                        : GAMMA RAY FROM NEUTRON LOG [DEPTH SHIFTED TO RES.]
GRRED   .GAPI                       : GAMMA RAY FROM RESISTIVITY LOG
GRWS    .GAPI :   GAMMA RAY [SPLICE : 1294 GRNED 2010 GRRED 9954 GRDED. CASED ABOVE 2020]
ILDED   .OHMM                       : INDUCTION LOG DEEP RESISTIVITY
ILMED   .OHMM                       : INDUCTION LOG MEDIUM RESISTIVITY
MRESWS  .OHMM                       : MEDIUM RESISTIVITY [ILMED]
NEUTED  .CPS                        : NEUTRON FROM CASED HOLE NEUTRON LOG [DEPTH SHIFTED TO RES.]
NEUTWS  .CPS                        : NEUTRON [NEUTED]
NPHILSED.V/V                        : NEUTRON POROSITY LIMESTONE [DEPTH SHIFTED TO RES.]
NPOWS   .V/V                        : NEUTRON POROSITY LIMESTONE [NPHILSED]
RHOBED  .G/C3                       : BULK DENSITY FROM DENSITY LOG [DEPTH SHIFTED TO RES.]
SFLUED  .OHMM                       : SPHERICALLY FOCUSED LOG RESISTIVITY
SPRED   .MV                         : SPONTANEOUS POTENTIAL FROM RESISTIVITY LOG
SPWS    .MV                         : SPONTANEOUS POTENTIAL [BASELINE 0 MV] [SPRED]
SRESWS  .OHMM                       : SHALLOW RESISTIVITY [SFLUED]
TENDED  .LBF                        : TENSION FROM DENSITY LOG
~Params ----------------------------------------------------
DATE.               06/06/81 : RUN DATE
RUN .                      1 : RUN NUMBER
CLNT.                A2DTECH : CLIENT CODE
ORIG.               5" PRINT : ORIGIN OF DATA
UWI .         42013311740000 : UNIQUE WELL ID
DICO. A2D Technologies, Inc. : DIGITIZING COMPANY
~Other -----------------------------------------------------
1. NEUTED AND NPHILSED WERE THE PRIMARY DEPTH SHIFTED CURVES FOR THEIR REPRESENTATIVE LOGS; THEY WERE BOTH DEPTH SHIFTED TO SFLUED AND DTED AS THE PRIMARY DEPTH CONTROL CURVES.
2. GRWS IS COMPRISED OF GRNED DOWN TO 2010.
~ASCII -----------------------------------------------------
# ...
 8800.00000    -999.25    -999.25  515.80960    -999.25    -999.25    -999.25    -999.25    1.93870    -999.25   90.21600   90.21600    -999.25    -999.25   77.90000   77.90000    1.93870    2.13270    2.13270    -999.25    -999.25    -999.25    -999.25    -999.25    2.56810    0.08230   -2.43580    2.56810    -999.25
 8850.00000    -999.25    -999.25  360.13970    -999.25    -999.25    -999.25    -999.25    2.77670    -999.25   90.45120   90.45120    -999.25    -999.25   81.01690   81.01690    2.77670    2.70650    2.70650    -999.25    -999.25    -999.25    -999.25    -999.25    2.76670    0.56340   -1.80610    2.76670    -999.25
 8900.00000    -999.25    -999.25  394.15080    -999.25    -999.25    -999.25    -999.25    2.53710    -999.25   84.54480   84.54480    -999.25    -999.25   84.79470   84.79470    2.53710    2.70910    2.70910    -999.25    -999.25    -999.25    -999.25    -999.25    3.12240   -0.31260   -2.49570    3.12240    -999.25
 8950.00000    -999.25    -999.25  465.61430    -999.25    -999.25    -999.25    -999.25    2.14770    -999.25   88.96960   88.96960    -999.25    -999.25   81.67570   81.67570    2.14770    2.27430    2.27430    -999.25    -999.25    -999.25    -999.25    -999.25    2.43090   -2.55240   -4.54900    2.43090    -999.25
 9000.00000    -999.25    -999.25  470.03520    -999.25    -999.25    -999.25    -999.25    2.12750    -999.25   90.91100   90.91100    -999.25    -999.25   86.62310   86.62310    2.12750    2.18350    2.18350    -999.25    -999.25    -999.25    -999.25    -999.25    2.26250   -3.40330   -5.21350    2.26250    -999.25
 9050.00000    -999.25    -999.25  496.32710    -999.25    -999.25    -999.25    -999.25    2.01480    -999.25   97.42430   97.42430    -999.25    -999.25   98.12070   98.12070    2.01480    2.16180    2.16180    -999.25    -999.25    -999.25    -999.25    -999.25    1.67470   -3.38780   -5.01160    1.67470    -999.25
 9100.00000    -999.25    -999.25  476.96270    -999.25    -999.25    -999.25    -999.25    2.09660    -999.25   97.16560   97.16560    -999.25    -999.25   88.33120   88.33120    2.09660    2.08650    2.08650    -999.25    -999.25    -999.25    -999.25    -999.25    1.99500   -1.35900   -2.79630    1.99500    -999.25
 9150.00000    -999.25    -999.25  409.08160    -999.25    -999.25    -999.25    -999.25    2.44450    -999.25   88.22410   88.22410    -999.25    -999.25   76.15330   76.15330    2.44450    2.51670    2.51670    -999.25    -999.25    -999.25    -999.25    -999.25    2.59280   -2.25150   -3.50240    2.59280    -999.25
 9200.00000    -999.25    -999.25  419.39270    -999.25    -999.25    -999.25    -999.25    2.38440    -999.25   89.86530   89.86530    -999.25    -999.25   88.81410   88.81410    2.38440    2.46980    2.46980    -999.25    -999.25    -999.25    -999.25    -999.25    2.51870   -2.03400   -3.09850    2.51870    -999.25
 9250.00000    -999.25    -999.25  470.41120    -999.25    -999.25    -999.25    -999.25    2.12580    -999.25   94.85510   94.85510    -999.25    -999.25   96.09710   96.09710    2.12580    2.19870    2.19870    -999.25    -999.25    -999.25    -999.25    -999.25    2.26360   -0.63120   -1.50920    2.26360    -999.25
 9300.00000    -999.25    -999.25  488.06680    -999.25    -999.25    -999.25    -999.25    2.04890    -999.25   99.62280   99.62280    -999.25    -999.25  136.09380  136.09380    2.04890    2.17420    2.17420    -999.25    -999.25    -999.25    -999.25    -999.25    1.91650   -0.73740   -1.42900    1.91650    -999.25
 9350.00000    -999.25    -999.25  446.80760    -999.25    -999.25    -999.25    -999.25    2.23810    -999.25   92.99590   92.99590    -999.25    -999.25   87.64900   87.64900    2.23810    2.31270    2.31270    -999.25    -999.25    -999.25    -999.25    -999.25    2.38900   -0.42960   -1.14260    2.38900    -999.25
 9400.00000    -999.25    -999.25  447.04720    -999.25    -999.25    -999.25    -999.25    2.23690    -999.25   91.70810   91.70810    -999.25    -999.25   91.71170   91.71170    2.23690    2.30330    2.30330    -999.25    -999.25    -999.25    -999.25    -999.25    2.37830   -0.50180   -1.27580    2.37830    -999.25
 9450.00000    -999.25    -999.25  491.83550    -999.25    -999.25    -999.25    -999.25    2.03320    -999.25   94.53780   94.53780    -999.25    -999.25   94.66480   94.66480    2.03320    2.06770    2.06770    -999.25    -999.25    -999.25    -999.25    -999.25    2.11150   -1.60880   -2.44380    2.11150    -999.25
 9500.00000    -999.25    -999.25  403.99140    -999.25    -999.25    -999.25    -999.25    2.47530    -999.25   87.68230   87.68230    -999.25    -999.25  119.54760  119.54760    2.47530    2.65010    2.65010    -999.25    -999.25    -999.25    -999.25    -999.25    3.15630   -0.71770   -1.61370    3.15630    -999.25
 9550.00000    -999.25    -999.25  478.21720    -999.25    -999.25    -999.25    -999.25    2.09110    -999.25   93.82770   93.82770    -999.25    -999.25   94.79570   94.79570    2.09110    2.19670    2.19670    -999.25    -999.25    -999.25    -999.25    -999.25    2.26410   -1.04630   -2.00330    2.26410    -999.25
 9600.00000    -999.25    -999.25  470.01320    -999.25    -999.25    -999.25    -999.25    2.12760    -999.25   93.33000   93.33000    -999.25    -999.25   94.77700   94.77700    2.12760    2.22380    2.22380    -999.25    -999.25    -999.25    -999.25    -999.25    2.33270   -0.44400   -1.46190    2.33270    -999.25
 9650.00000    -999.25    -999.25  453.00110    -999.25    -999.25    -999.25    -999.25    2.20750    -999.25   92.53560   92.53560    -999.25    -999.25   90.91660   90.91660    2.20750    2.29710    2.29710    -999.25    -999.25    -999.25    -999.25    -999.25    2.39600   -1.74710   -2.82600    2.39600    -999.25
 9700.00000   12.42240   12.42240  351.49380    -999.25    -999.25    -999.25    -999.25    2.84500    -999.25   88.87190   88.87190    -999.25    -999.25   86.51840   86.51840    2.84500    2.96310    2.96310    -999.25    -999.25    -999.25    -999.25    -999.25    2.67410   -2.15170   -3.29160    2.67410    -999.25
 9750.00000   12.42820   12.42820  423.35210    -999.25    -999.25    -999.25    -999.25    2.36210    -999.25   90.16670   90.16670    -999.25    -999.25   88.30250   88.30250    2.36210    2.45390    2.45390    -999.25    -999.25    -999.25    -999.25    -999.25    2.55680   -0.68850   -1.88940    2.55680    -999.25
 9800.00000   11.93460   11.93460  419.83290    -999.25    -999.25    -999.25    -999.25    2.38190    -999.25   90.21020   90.21020    -999.25    -999.25   89.02270   89.02270    2.38190    2.47990    2.47990    -999.25    -999.25    -999.25    -999.25    -999.25    2.56490   -1.73100   -2.99290    2.56490    -999.25
 9850.00000   12.54740   12.54740  401.21970    -999.25    -999.25    -999.25    -999.25    2.49240    -999.25   90.58700   90.58700    -999.25    -999.25   92.57720   92.57720    2.49240    2.57610    2.57610    -999.25    -999.25    -999.25    -999.25    -999.25    2.59160   -1.23680   -2.55970    2.59160    -999.25
 9900.00000   13.01400   13.01400  421.69180    -999.25    -999.25    -999.25    -999.25    2.37140    -999.25   90.89050   90.89050    -999.25   68.14670   80.31380   80.31380    2.37140    2.44020    2.44020   68.49210   68.49210    -999.25    -999.25    -999.25    2.47450   -0.62880   -2.01270    2.47450    -999.25
 9950.00000   11.65370   11.65370  451.06000    -999.25    -999.25    -999.25    -999.25    2.21700    -999.25   92.94720   92.94720    -999.25   36.58860   91.10360   91.10360    2.21700    2.29270    2.29270    3.41560    3.41560    -999.25    -999.25    -999.25    2.35100   -0.87550   -2.32040    2.35100    -999.25
 10000.00000   11.95640   11.95640  291.98790   -0.00030    2.40900    0.17600    0.17600    3.42480   -0.00030   82.52350   82.52350   80.74240   63.68190   70.90370   80.74240    3.42480    3.57320    3.57320  124.33160  124.33160    0.17940    0.17940    2.41090    3.58540   -0.60930   -2.11520    3.58540 3728.02860
