~Version ---------------------------------------------------
VERS.      2.0 : CWLS log ASCII Standard -VERSION 2.0
WRAP.      YES : Multiple lines per depth step
CREA. 03/30/13 : LAS Creation Date
~Well ------------------------------------------------------
STRT.FT                 1500.0 : START DEPTH
STOP.FT                10200.0 : STOP DEPTH
STEP.FT               50.00000 : STEP LENGTH
NULL.                  -999.25 : NULL VALUE
COMP.     MARATHON OIL COMPANY : COMPANY
WELL.   MARATHON MARSHALL A #7 : WELL
FLD .               BEAR GRASS : FIELD
LOC .                          : LOCATION
CNTY.                     LEON : COUNTY
STAT.                    TEXAS : STATE
CTRY. UNITED STATES OF AMERICA : COUNTRY
SRVC.             Schlumberger : SERVICE COMPANY
DATE.              17-Feb-1998 : LOGDATE
API .           42289312850000 : API NUMBER
UWI .           42289312850000 : UNIQUE WELL ID
SLAT.WGS84       31.3583372232 : SURFACE LATITUDE
SLON.WGS84      -96.2380251185 : SURFACE LONGITUDE
~Curve Information -----------------------------------------
DEPT    .FT    : DEPTH FEET
AHT10ED .OHMM  : 10 INCH RESISTIVITY TWO FOOT RESOLUTION FROM RESISTIVITY LOG
AHT20ED .OHMM  : 20 INCH RESISTIVITY TWO FOOT RESOLUTION FROM RESISTIVITY LOG
AHT30ED .OHMM  : 30 INCH RESISTIVITY TWO FOOT RESOLUTION FROM RESISTIVITY LOG
AHT60ED .OHMM  : 60 INCH RESISTIVITY TWO FOOT RESOLUTION FROM RESISTIVITY LOG
AHT90ED .OHMM  : 90 INCH RESISTIVITY TWO FOOT RESOLUTION FROM RESISTIVITY LOG
CALWS   .IN    : CALIPER [DCALRED+BITS]
CONDWS  .MMHO  : CONDUCTIVITY [1000/DRESWS]
DCALRED .IN    : DIFFERENTIAL CALIPER FROM RESISTIVITY LOG
DCORWS  .G/C3  : DENSITY CORRECTION [HDRAED]
DENWS   .G/C3  : FORMATION BULK DENSITY [CALC FROM DPOWS, M=2.71,F=1.0]
DPHZLSED.V/V   : DENSITY POROSITY LIMESTONE [M=2.71,F=1.0] FROM DENSITY LOG
DPOWS   .V/V   : DENSITY POROSITY LIMESTONE [DPHZLSED]
DRESWS  .OHMM  : DEEP RESISTIVITY [AHT90ED]
DTED    .US/F  : DELTA TIME FROM SONIC LOG
DTWS    .US/F  : COMPRESSIONAL SONIC [DTED]
GRMED   .GAPI  : GAMMA RAY FROM MICROLOG
GRRED   .GAPI  : GAMMA RAY FROM RESISTIVITY LOG
GRWS    .GAPI  : GAMMA RAY [GRRED SPL. TO GRMED @ 4602']
HDRAED  .G/C3  : DENSITY CORRECTION FROM DENSITY LOG
MCALED  .IN    : CALIPER FROM MICROLOG
MRESWS  .OHMM  : MEDIUM RESISTIVITY [AHT30ED]
NPHILSED.V/V   : NEUTRON POROSITY LIMESTONE FROM DENSITY LOG
NPOWS   .V/V   : NEUTRON POROSITY LIMESTONE [NPHILSED]
SPRED   .MV    : SPONTANEOUS POTENTIAL FROM RESISTIVITY LOG
SPWS    .MV    : SPONTANEOUS POTENTIAL [BASELINE 0 MV, SPRED]
SRESWS  .OHMM  : SHALLOW RESISTIVITY [AHT10ED]
TENRED  .LBF   : TENSION FROM RESISTIVITY LOG
~Params ----------------------------------------------------
PD  .                     GL : PERMANENT DATUM
EPD .FT                  472 : ELEVATION PERMANENT DATUM
LMF .                     KB : LOG MEASURED FROM
DAPD.FT                   17 : FEET ABOVE PERMANENT DATUM
DMF .                     KB : DRILLING MEASURED FROM
EKB .FT                  489 : KELLY BUSHING
EDF .FT                  488 : DRILLING FLOOR
EGL .FT                  472 : GROUND LEVEL
DATE.               02/17/98 : RUN DATE
RUN .                      1 : RUN NUMBER
DD  .FT                10250 : DEPTH DRILLER
DL  .FT                10240 : DEPTH LOGGER
BLI .FT                10240 : BOTTOM LOG INTERVAL
TLI .FT                 1610 : TOP LOG INTERVAL
MST .DEGF                110 : MUD SAMPLE TEMPERATURE
MFST.DEGF                109 : MUD FILTRATE SAMPLE TEMPERATURE
MCST.DEGF                109 : MUD CAKE SAMPLE TEMPERATURE
MFSS.                   CALC : MUD FILTRATE SAMPLE SOURCE
MCSS.                   CALC : MUD CAKE SAMPLE SOURCE
CLNT.                A2DTECH : CLIENT CODE
ORIG.         1" 2" 5" PRINT : ORIGIN OF DATA
UWI .         42289312850000 : UNIQUE WELL ID
DICO. A2D Technologies, Inc. : DIGITIZING COMPANY
~Other -----------------------------------------------------
AIT & LDT-CNL & BHC & ML RUN IN COMBO
~ASCII -----------------------------------------------------
 1500.00000    -999.25    -999.25    -999.25    -999.25    -999.25    -999.25    -999.25    -999.25    -999.25    -999.25    -999.25    -999.25    -999.25    -999.25    -999.25    -999.25   64.55160   64.55160    -999.25    -999.25    -999.25    -999.25    -999.25    -999.25    -999.25    -999.25    -999.25
 1550.00000    -999.25    -999.25    -999.25    -999.25    -999.25    -999.25    -999.25    -999.25    -999.25    -999.25    -999.25    -999.25    -999.25    -999.25    -999.25    -999.25   50.98030   50.98030    -999.25    -999.25    -999.25    -999.25    -999.25    -999.25    -999.25    -999.25    -999.25
 1600.00000    -999.25    -999.25    -999.25    -999.25    -999.25    -999.25    -999.25    -999.25    -999.25    -999.25    -999.25    -999.25    -999.25    -999.25    -999.25    -999.25   56.47560   56.47560    -999.25    -999.25    -999.25    -999.25    -999.25    -999.25    -999.25    -999.25    -999.25
 1650.00000    2.30980    2.66670    2.74060    2.94750    3.04660    8.93710  328.23480    1.06210    -999.25    -999.25    -999.25    -999.25    3.04660  125.08430  125.08430    -999.25   81.62160   81.62160    -999.25    -999.25    2.74060    -999.25    -999.25  -24.77500  -10.67770    2.30980 2050.98340
 1700.00000    2.30540    2.54110    2.69960    2.86730    2.95790    9.62540  338.07770    1.75040    -999.25    -999.25    -999.25    -999.25    2.95790  124.98020  124.98020    -999.25   77.29550   77.29550    -999.25    -999.25    2.69960    -999.25    -999.25  -17.46760   -5.48580    2.30540 2045.39750
 1750.00000    1.53760    1.81400    2.00930    2.28580    2.33630   12.51380  428.02720    4.63880    -999.25    -999.25    -999.25    -999.25    2.33630  120.81980  120.81980    -999.25   71.41430   71.41430    -999.25    -999.25    2.00930    -999.25    -999.25  -12.71420   -1.95930    1.53760 2057.74580
 1800.00000    1.66380    1.91220    2.08260    2.38470    2.42350   12.41240  412.62640    4.53740    -999.25    -999.25    -999.25    -999.25    2.42350  124.10960  124.10960    -999.25   73.26650   73.26650    -999.25    -999.25    2.08260    -999.25    -999.25  -13.65860   -2.90370    1.66380 2038.70080
 1850.00000    1.32830    1.53440    1.65430    1.89520    2.00410   13.81020  498.97710    5.93520    -999.25    -999.25    -999.25    -999.25    2.00410  122.88580  122.88580    -999.25   82.61800   82.61800    -999.25    -999.25    1.65430    -999.25    -999.25  -14.03390   -3.99370    1.32830 2018.31120
 1900.00000    1.34370    1.55860    1.71150    1.94220    2.00290   13.87760  499.27600    6.00260    -999.25    -999.25    -999.25    -999.25    2.00290  119.66340  119.66340    -999.25   79.99660   79.99660    -999.25    -999.25    1.71150    -999.25    -999.25  -12.41730   -3.14550    1.34370 2053.93510
 1950.00000    1.13050    1.35030    1.42510    1.61530    1.64160   13.02520  609.16180    5.15020    -999.25    -999.25    -999.25    -999.25    1.64160  128.27030  128.27030    -999.25   79.79830   79.79830    -999.25    -999.25    1.42510    -999.25    -999.25  -13.76160   -4.35020    1.13050 2072.77470
 2000.00000    1.30670    1.55500    1.68300    1.92560    2.00510   11.08950  498.72820    3.21450    -999.25    -999.25    -999.25    -999.25    2.00510  122.92080  122.92080    -999.25   80.86280   80.86280    -999.25    -999.25    1.68300    -999.25    -999.25  -14.57510   -4.39310    1.30670 2062.27440
 2050.00000    0.22740    0.32510    1.46290    1.62400    1.68480   11.82900  593.54230    3.95400    -999.25    -999.25    -999.25    -999.25    1.68480  118.26320  118.26320    -999.25   76.55410   76.55410    -999.25    -999.25    1.46290    -999.25    -999.25  -12.36170   -1.40910    0.22740 2049.88620
 2100.00000    1.28760    1.49040    1.57580    1.73060    1.76790   15.18750  565.64290    7.31250    -999.25    -999.25    -999.25    -999.25    1.76790  133.00690  133.00690    -999.25   72.16530   72.16530    -999.25    -999.25    1.57580    -999.25    -999.25  -13.65450   -1.94710    1.28760 2053.51880
 2150.00000    1.55880    1.83060    1.99650    2.21610    2.25310    9.56910  443.83290    1.69410    -999.25    -999.25    -999.25    -999.25    2.25310  118.21120  118.21120    -999.25   81.31670   81.31670    -999.25    -999.25    1.99650    -999.25    -999.25  -15.59330   -3.29150    1.55880 2063.93950
 2200.00000    1.51180    1.66820    1.80960    1.95830    2.01560    9.69480  496.13020    1.81980    -999.25    -999.25    -999.25    -999.25    2.01560  122.76450  122.76450    -999.25   91.22120   91.22120    -999.25    -999.25    1.80960    -999.25    -999.25  -15.76670   -2.87040    1.51180 2040.78770
 2250.00000    1.80920    2.00030    2.17510    2.39960    2.43860   10.12390  410.07140    2.24890    -999.25    -999.25    -999.25    -999.25    2.43860  112.36660  112.36660    -999.25   91.46140   91.46140    -999.25    -999.25    2.17510    -999.25    -999.25  -19.00070   -5.51000    1.80920 2015.83250
 2300.00000    1.39360    1.62760    1.74990    1.81880    1.90330   11.57390  525.40320    3.69890    -999.25    -999.25    -999.25    -999.25    1.90330  113.03590  113.03590    -999.25   73.14290   73.14290    -999.25    -999.25    1.74990    -999.25    -999.25  -16.43010   -2.34500    1.39360 2042.09840
 2350.00000    1.03700    1.18480    1.28030    1.36910    1.39150   11.70400  718.64890    3.82900    -999.25    -999.25    -999.25    -999.25    1.39150  122.91890  122.91890    -999.25   64.65080   64.65080    -999.25    -999.25    1.28030    -999.25    -999.25  -17.70780   -3.02830    1.03700 2066.70830
 2400.00000    1.07920    1.15580    1.24600    1.31910    1.34060   13.42150  745.93470    5.54650    -999.25    -999.25    -999.25    -999.25    1.34060  122.63690  122.63690    -999.25   72.28960   72.28960    -999.25    -999.25    1.24600    -999.25    -999.25  -18.32720   -2.89490    1.07920 2060.63750
 2450.00000    0.99850    1.10010    1.15460    1.25300    1.27340   13.53020  785.29920    5.65520    -999.25    -999.25    -999.25    -999.25    1.27340  129.97430  129.97430    -999.25   79.40310   79.40310    -999.25    -999.25    1.15460    -999.25    -999.25  -21.94600   -3.09950    0.99850 2057.58810
 2500.00000    1.02260    1.12380    1.22270    1.34110    1.36880   13.16060  730.56690    5.28560    -999.25    -999.25    -999.25    -999.25    1.36880  129.01450  129.01450    -999.25   72.99240   72.99240    -999.25    -999.25    1.22270    -999.25    -999.25  -24.00030   -5.15380    1.02260 2054.53880
 2550.00000    0.91040    1.01970    1.08650    1.16070    1.17970   13.51040  847.67310    5.63540    -999.25    -999.25    -999.25    -999.25    1.17970  134.07870  134.07870    -999.25   76.01050   76.01050    -999.25    -999.25    1.08650    -999.25    -999.25  -22.04760   -3.20110    0.91040 2057.02030
 2600.00000    0.88500    0.98410    1.03960    1.08970    1.12540   13.06410  888.57300    5.18910    -999.25    -999.25    -999.25    -999.25    1.12540  134.61820  134.61820    -999.25   70.23940   70.23940    -999.25    -999.25    1.03960    -999.25    -999.25  -23.16740   -4.32090    0.88500 2026.88830
 2650.00000    1.41080    1.48950    1.60500    1.67650    1.70430   10.23080  586.75120    2.35580    -999.25    -999.25    -999.25    -999.25    1.70430  127.12780  127.12780    -999.25   83.68190   83.68190    -999.25    -999.25    1.60500    -999.25    -999.25  -27.45360   -8.60710    1.41080 1984.50090
 2700.00000    2.51900    2.70080    2.81620    2.88960    2.95020    9.09980  338.96010    1.22480    -999.25    -999.25    -999.25    -999.25    2.95020  105.41930  105.41930    -999.25   59.32230   59.32230    -999.25    -999.25    2.81620    -999.25    -999.25  -27.36360   -8.51710    2.51900 2079.77760
 2750.00000    1.51620    1.70520    1.79430    1.84940    1.88570    9.00190  530.30700    1.12690    -999.25    -999.25    -999.25    -999.25    1.88570   87.12530   87.12530    -999.25   74.52590   74.52590    -999.25    -999.25    1.79430    -999.25    -999.25  -31.91090  -13.06440    1.51620 2223.39700
