~Version ---------------------------------------------------
VERS. 2.0 : CWLS log ASCII Standard -VERSION 2.0
WRAP.  NO : ONE LINE PER DEPTH STEP
~Well ------------------------------------------------------
STRT.F                   300.0 : START DEPTH
STOP.F                 14000.0 : STOP DEPTH
STEP.F                50.00000 : STEP LENGTH
NULL.                  -999.25 : NULL VALUE
COMP.        GETTY OIL COMPANY : COMPANY
WELL.           R. B. LEWIS #1 : WELL
FLD .                  WILDCAT : FIELD
LOC .                          : LOCATION
CNTY.                 BURLESON : COUNTY
STAT.                    TEXAS : STATE
CTRY. UNITED STATES OF AMERICA : COUNTRY
SRVC.             Schlumberger : SERVICE COMPANY
DATE.              12-May-1980 : LOGDATE
API .           42051306100000 : API NUMBER
UWI .           42051306100000 : UNIQUE WELL ID
SLAT.WGS84           30.417676 : SURFACE LATITUDE
SLON.WGS84          -96.504349 : SURFACE LONGITUDE
~Curve Information -----------------------------------------
DEPT.F                 : 
SPR .MV   07 010 01 00 : SPONTANEOUS POTENTIAL
DT  .US/F 60 520 00 00 : DELTA TIME
ILD .OHMM 07 120 46 00 : DEEP INDUCTION RESISTIVITY
ILM .OHMM 07 120 44 00 : INDUCTION LOG MEDIUM RESISTIVITY
SFLU.OHMM 07 220 01 00 : SPHERICALLY FOCUSED LOG UNAVERAGED RESISTIVITY
GRD .GAPI 45 310 01 00 : GAMMA RAY FROM DENSITY LOG
CALD.IN   45 280 60 00 : CALIPER FROM DENSITY
DRHO.G/C3 45 356 01 00 : DENSITY CORRECTION
RHOB.G/C3 45 350 01 00 : BULK DENSITY
NPHI.DEC  42 890 03 00 : NEUTRON POROSITY SANDSTONE
GR  .GAPI 30 310 01 00 : GAMMA RAY
~Params ----------------------------------------------------
EKB .F                 283.0 : KELLY BUSHING
EGL .F                   266 : ELEVATION GROUND LEVEL
EDF .F                   282 : ELEVATION DERRICK FLOOR
EPD .F                   266 : ELEVATION PERMANENT DATUM
TD  .F               14006.0 : TOTAL DEPTH
DATE.            14-MAY-1980 : DATE LOGGED
CLNT.                A2DTECH : CLIENT CODE
SL  . 3459' FNEL & 2038' FSL : SURFACE LOCATION
PD  .                     GL : PERMANENT DATUM
LMF .                     KB : LOG MEASURED FROM
DMF .                     KB : DRILLING MEASURED FROM
DAPD.F                    17 : FEET ABOVE PERMANENT DATUM
DD  .F                 14001 : DEPTH DRILLER
DL  .F                 14006 : DEPTH LOGGER
BLI .F                 14003 : BOTTOM LOG INTERVAL
TLI .F                  9717 : TOP LOG INTERVAL
CS1 .IN                7.875 : CASING SIZE
CBD1.         7.875" @ 9729' : CASING DRILLER 1
CBL1.F                  9717 : CASING LOGGER 1
BS1 .IN                  6.5 : BIT SIZE
BSD1.F                 14001 : DEPTH DRILLED WITH BIT1
DFT .         SPERSENE/XF-20 : TYPE FLUID IN HOLE
DFD .                   10.2 : DENSITY
DFV .                     43 : VISCOSITY
DFPH.                     10 : PH
DFL .                   10.4 : FLUID LOSS
MSS .              CIRC TANK : SOURCE OF SAMPLE
RMS .OHMM              0.616 : RM
RMF .OHMM               0.46 : RMF
RMC .OHMM               0.92 : RMC
MFSS.                   CALC : SOURCE RMF.
MCSS.                   CALC : SOURCE RMC.
RMB .OHMM              0.143 : RM. AT BHT
BHT .F                   322 : BHT.
TCS .HRS                2200 : TIME CIRC. STOPPED
TLAB.HRS                 500 : TIME LOGGER AT BOTTOM
LUN .                   8176 : LOGGING UNIT NUMBER
LUL .                BRENHAM : LOGGING UNIT LOCATION
ENGI.                 HARVEY : RECORDED BY
WITN.           ADDINGTON JR : WITNESSED BY
ORIG.               5" PRINT : ORIGIN OF DATA
UWI .         42051306100000 : UNIQUE WELL ID
DICO. A2D TECHNOLOGIES, INC. : DIGITIZING COMPANY
~Other -----------------------------------------------------
# NPHI SANDSTONE/LIMESTONE
~ASCII -----------------------------------------------------
# ...
 6400.00000   -9.22700   97.44300    1.45700    1.47300    1.64800   81.51700    2.63100    0.24300    2.40800    0.44600    -999.25
 6450.00000   -8.57900   94.32500    1.63300    1.67900    1.91900  105.52400    2.61200    0.11200    2.51800    0.44200    -999.25
 6500.00000   -7.05500   90.02500    1.95600    2.02100    2.23000   98.04000   10.84500    0.04300    2.57300    0.28700    -999.25
 6550.00000   -7.64000   94.03500    1.48100    1.54600    1.62800   88.15000   12.47400    0.14300    2.51000    0.35200    -999.25
 6600.00000   -7.68800   97.91600    1.27500    1.34400    1.46600   90.26200   10.93700    0.06300    2.48700    0.30700    -999.25
 6650.00000   -8.69500   79.88300    3.35600    3.70100    4.25000   60.33900   10.34700    0.03400    2.62100    0.22000    -999.25
 6700.00000   -8.33800   84.40000    3.02000    3.13600    3.38200   75.55700   10.93800    0.03300    2.55700    0.23400    -999.25
 6750.00000   -9.31300   87.99700    2.39400    2.50200    2.78600   83.26600   10.93800    0.05600    2.58500    0.24500    -999.25
 6800.00000  -10.17500   90.16700    2.12500    2.22200    2.56200   84.89000   10.73900    0.04600    2.56700    0.27100    -999.25
 6850.00000   -8.84900   89.62300    1.93700    2.01700    2.45600   85.56400   10.40400    0.03900    2.56100    0.28900    -999.25
 6900.00000   -9.79100   86.60900    2.22200    2.32500    2.45500   71.03200   10.13800    0.04700    2.58700    0.27900    -999.25
 6950.00000   -8.30100  100.13400    1.40700    1.41500    1.53200   80.22800   11.71100    0.24800    2.41600    0.40900    -999.25
 7000.00000   -7.52700   98.93300    1.37900    1.39700    1.55600   79.13900   10.67800    0.23500    2.40200    0.38500    -999.25
 7050.00000   -7.63400   93.72500    1.55600    1.64200    1.90200   80.74000   10.21800    0.05700    2.53500    0.34700    -999.25
 7100.00000   -6.91900  103.21300    1.19400    1.23500    1.39100   82.59600   11.75800    0.14800    2.35800    0.38000    -999.25
 7150.00000   -8.80400   88.12000    1.76700    1.63800    2.19600   83.44300   11.45900    0.25000    2.55600    0.26100    -999.25
 7200.00000   -8.27500   90.55100    2.19700    2.27600    2.64800   82.62200   10.64700    0.01700    2.55200    0.26200    -999.25
 7250.00000   -8.14000   75.65700    4.29500    4.43400    4.78300   63.61800   10.85800    0.04600    2.63700    0.18700    -999.25
 7300.00000  -11.12400   81.77200    2.12600    2.19300    2.35600   66.45400   10.49600    0.03700    2.48800    0.23100    -999.25
 7350.00000   -6.46100   97.49100    1.85100    1.47300    1.82500   88.02200   10.88900    0.01200    2.21000    0.27600    -999.25
 7400.00000   -5.81800   84.76300    2.07900    2.28300    2.46900   87.66800    2.71100    0.05000    2.53500    0.31700    -999.25
 7450.00000   -4.38400   85.41500    1.78800    1.83600    2.10600   85.80600    2.70100    0.25000    2.59100    0.31600    -999.25
 7500.00000   -4.25400   94.14800    1.80100    1.68300    1.67400   71.87100    2.73100    0.16200    2.01000    0.45300    -999.25
 7550.00000   -6.17200   86.86200    1.92700    2.10500    2.41200   80.85700    2.72300    0.04700    2.42000    0.33100    -999.25
 7600.00000   -5.18200   90.19200    1.65800    1.75200    2.07900   97.68500    2.71100    0.15700    2.50200    0.33400    -999.25
 7650.00000   -4.32400   90.37700    1.76700    1.86800    1.97300   95.40300    2.71500    0.15100    2.39300    0.36100    -999.25
 7700.00000   -4.39300   86.99000    2.00900    2.10300    2.37700   93.29000    2.73400    0.15500    2.50200    0.27400    -999.25
 7750.00000   -2.83400   97.87500    2.47900    3.41300    1.62800   76.39000    2.73100    0.04900    1.99600    0.61600    -999.25
 7800.00000   -4.11000   92.26600    1.94400    1.99000    2.31700   95.82000    2.70800    0.14700    2.59600    0.32800    -999.25
 7850.00000   -4.65400   84.63600    2.04400    2.22200    2.52600   88.45300    2.69100    0.04400    2.54300    0.29400    -999.25
 7900.00000   -4.61500   88.86400    1.80800    1.90300    2.20400   83.14400    2.67100    0.04700    2.51000    0.35700    -999.25
 7950.00000   -5.39600   86.01200    2.05900    2.15400    2.76600   81.05800    2.68300    0.11100    2.59300    0.31600    -999.25
 8000.00000   -5.49100   89.12400    1.82700    1.94200    2.27400  172.47000    2.67100    0.04100    2.53100    0.29300    -999.25
 8050.00000   -4.95500   95.16400    1.52700    1.62600    1.84100  104.66400   10.94800    0.07600    2.55000    0.26600    -999.25
 8100.00000   -5.71000   82.13100    2.35400    2.59000    3.03300   82.60200   10.68300    0.02400    2.57700    0.18400    -999.25
 8150.00000   -5.33600   89.29400    1.85100    1.88300    2.33000   90.09700   10.59500    0.04200    2.54300    0.22100    -999.25
 8200.00000   -5.79800   84.12600    2.13900    2.28400    2.76600   92.28000    9.06300   -0.16200    2.73100    0.21500    -999.25
 8250.00000   -6.21600   69.86300    4.91000    5.35600    5.87200   44.79300   10.71900    0.03900    2.63500    0.09100    -999.25
 8300.00000   -6.20100   74.30600    3.96900    4.14700    4.55500   59.26900   10.75300    0.03400    2.61200    0.11400    -999.25
 8350.00000   -7.01100   76.92400    3.08700    3.28400    3.54000   60.21900   10.67600    0.04000    2.65100    0.13700    -999.25
 8400.00000   -7.63200   70.13900    5.63400    5.79900    6.07000   55.69500   10.63900    0.04300    2.66300    0.09500    -999.25
 8450.00000   -8.32300   78.04000    3.20100    3.37900    3.77900   73.73400   10.62000    0.03800    2.62400    0.15300    -999.25
 8500.00000   -7.53200   73.53700    4.47500    4.71700    5.26100   58.66000   10.69600    0.01500    2.58600    0.09800    -999.25
 8550.00000   -8.00300   79.86100    3.09800    3.33000    3.50900   77.05900   10.75900    0.04200    2.57500    0.15300    -999.25
 8600.00000  -11.27100   78.56300    3.32700    3.54800    4.02300   82.74400   10.73900    0.02800    2.59400    0.14500    -999.25
 8650.00000   -9.77200   84.64900    2.09200    2.32600    3.05900   87.09700   10.61400    0.03700    2.59000    0.19100    -999.25
 8700.00000  -10.43400   82.01700    3.01100    3.20200    3.46500   80.87200   10.59400    0.05300    2.62100    0.19300    -999.25
 8750.00000   -8.72600   83.96600    2.59500    2.67200    3.29100   94.15300   10.76900    0.01500    2.56300    0.18700    -999.25
 8800.00000  -10.97000   88.59100    2.00900    2.20000    2.67900   87.48700   10.76200    0.01600    2.54800    0.22700    -999.25
 8850.00000  -11.34500   87.81200    1.93700    2.14400    2.53300   99.55000   10.78500    0.04700    2.60000    0.23600    -999.25
 8900.00000  -13.10500   85.99400    2.26300    2.40100    2.92200   89.28000   10.85800    0.05900    2.61600    0.21200    -999.25
 8950.00000  -14.58000   86.69400    2.12500    2.30400    2.83600   93.98600   10.85400    0.01200    2.54700    0.22100    -999.25
 9000.00000  -14.11100   84.00200    2.35900    2.53400    3.07900   93.81900   10.90200    0.01900    2.55700    0.20800    -999.25
 9050.00000  -13.26800   85.55300    2.03700    2.22600    2.72000   89.04100   10.91100    0.02000    2.57100    0.21200    -999.25
 9100.00000  -13.21300   86.59300    2.08400    2.26500    2.79200   90.63200   10.93400    0.04400    2.60300    0.19400    -999.25
 9150.00000  -13.11700   86.33800    2.24400    2.45600    3.03100   88.52000   10.95500    0.01400    2.57100    0.21800    -999.25
 9200.00000  -14.44200   84.13900    2.54800    2.66700    3.26100   87.89000   10.84500    0.01900    2.57700    0.21000    -999.25
 9250.00000  -14.66500   86.08100    2.27600    2.52500    3.13800   90.08500   11.03500    0.02300    2.58200    0.22400    -999.25
 9300.00000  -14.77500   82.41600    2.84300    3.07200    3.71900   84.98900   11.01100    0.03500    2.62100    0.20100    -999.25
 9350.00000  -13.62900   78.27400    3.56900    3.84200    4.87500   76.33500   10.95900    0.02200    2.63000    0.16700    -999.25
 9400.00000  -12.17200   80.13900    3.25000    2.94100    3.08700   99.69500   10.82900    0.10900    2.59600    0.18600    -999.25
