~Version ---------------------------------------------------
VERS. 2.0 : CWLS log ASCII Standard -VERSION 2.0
WRAP. YES : Multiple lines per depth step
~Well ------------------------------------------------------
STRT.FT                    300.0 : START DEPTH
STOP.FT                  19600.0 : STOP DEPTH
STEP.FT                 50.00000 : STEP LENGTH
NULL.                    -999.25 : NULL VALUE
COMP. CITIES SERVICE OIL COMPANY : COMPANY
WELL.          PEELER RANCH A #1 : WELL
FLD .                    WILDCAT : FIELD
LOC .                            : LOCATION
CNTY.                   ATASCOSA : COUNTY
STAT.                      TEXAS : STATE
CTRY.   UNITED STATES OF AMERICA : COUNTRY
SRVC.               Schlumberger : SERVICE COMPANY
DATE.                12-Feb-1972 : LOGDATE
API .             42013301410000 : API NUMBER
UWI .             42013301410000 : UNIQUE WELL ID
SLAT.WGS84         28.6903618688 : SURFACE LATITUDE
SLON.WGS84        -98.4697337546 : SURFACE LONGITUDE
~Curve Information -----------------------------------------
DEPT  .FT    : DEPTH
ALL8ED.OHMM  : LATEROLOG-8 RESISTIVITY AMPLIFIED
ASNED .OHMM  : AMPLIFIED SHORT NORMAL 16 IN.
CALWS .IN    : CALIPER (CALSED)
CALSED.IN    : CALIPER FROM SONIC LOG (ADJ TO RES.)
CILDED.MMHO  : CONDUCTIVITY FROM LOG
CONDWS.MMHO  : CONDUCTIVITY (1000/DRESws)
DCORWS.G/C3  : DENSITY CORRECTION (DRHOED)
DENWS .G/C3  : BULK DENSITY  (RHOBED LS)
DPOWS .V/V   : DENSITY POROSITY (M=2.71 F=1 FROM DENws)
DRESWS.OHMM  : DEEP RESISTIVITY (IF ILDED<1, THEN 1000/CILDED)
DRHOED.G/C3  : DENSITY CORRECTION (ADJ TO RES.)
DTED  .US/F  : DELTA TIME  (ADJ TO RES.)
DTWS  .US/F  : DELTA TIME  (DTED)
GRDED .GAPI  : GAMMA RAY FROM DENSITY LOG (ADJ TO RES.)
GRWS  .GAPI  : GAMMA RAY (GRSED/GRDED @ 8498)
GRSED .GAPI  : GAMMA RAY FROM SONIC LOG (ADJ TO RES.)
ILDED .OHMM  : DEEP INDUCTION RESISTIVITY
NEUTED.CU    : NEUTRON FROM GAMMA RAY NEUTRON LOG (ADJ TO RES.)
NEUTWS.CU    : NEUTRON FROM GAMMA RAY NEUTRON LOG (NEUTED)
NPOWS .V/V   : NEUTRON POROSITY LIMESTONE (SNPED)
RHOBED.G/C3  : BULK DENSITY (ADJ TO RES.)
SNPED .V/V   : SIDEWALL NEUTRON POROSITY (ADJ TO RES.)
SPWS  .MV    : SPONTANEOUS POTENTIAL BASELINE 0 MV (SPRED)
SPRED .MMHO  : SPONTANEOUS POTENTIAL FROM RESISTIVITY
SRESWS.OHMM  : SHALLOW RESISTIVITY (ASNED/ALL8ED @ 12329)
~Params ----------------------------------------------------
PD  .                     GL : PERMANENT DATUM
EPD .F                   297 : ELEVATION PERMANENT DATUM
LMF .                     KB : LOG MEASURED FROM
DAPD.F                  30.5 : FEET ABOVE PERMANENT DATUM
DMF .                     KB : DRILLING MEASURED FROM
EKB .F                 327.5 : KELLING BUSHING
EDF .F                 326.5 : DRILLING FLOOR
EGL .F                   297 : GROUND LEVEL
DATE.             02-12-1972 : RUN DATE
RUN .                      9 : RUN NUMBER
DD  .F                 19629 : DEPTH DRILLER
DL  .F                 19635 : DEPTH LOGGER
BLI .F                 19628 : BOTTOM LOG INTERVAL
TLI .F                 19127 : TOP LOG INTERVAL
BS  .IN                  4.4 : BIT SIZE
BSD .F                 19629 : BIT SIZE AT DEPTH
DFT .       INVERMUL 43% OIL : DRILLING FLUID TYPE
DFD .                   19.1 : DRILLING FLUID DENSITY
DFV .                     88 : DRILLING FLUID VISCOSITY
TCS .HRS                  12 : TIME CURCULATED STOPPED
LUN .                   7504 : LOGGING UNIT NUMBER
LUL .                  PLEAS : LOGGING UNIT LOCATION
ENGI.               CLEMENTS : RECORDING ENGINEER
WITN.         GRIGSBY THOMAS : WITNESSED BY
CLNT.                A2DTECH : CLIENT CODE
ORIG.            2" 5" PRINT : ORIGIN OF DATA
UWI .         42013301410000 : UNIQUE WELL ID
DICO. A2D Technologies, Inc. : DIGITIZING COMPANY
~Other -----------------------------------------------------
~ASCII -----------------------------------------------------
# ...
 15700.00000    -999.25    -999.25    9.85000    9.85000   80.16440   78.07250   -0.00850    2.70490    0.00300   12.80860   -0.00850   66.72600   66.72600   64.03200   64.03200   81.96700   12.80860    -999.25    -999.25    0.08170    2.70490    0.08170    -999.25    -999.25    -999.25
 15750.00000    -999.25    -999.25    9.87000    9.87000   32.66930   29.82240    0.02470    2.76880   -0.03440   33.53180    0.02470   54.32600   54.32600   32.93100   32.93100   57.30900   33.53180    -999.25    -999.25    0.01800    2.76880    0.01800    -999.25    -999.25    -999.25
 15800.00000    -999.25    -999.25    9.97800    9.97800   39.94020   44.58650    0.00870    2.77890   -0.04030   22.42830    0.00870   55.89300   55.89300   58.04500   58.04500   76.60600   22.42830    -999.25    -999.25    0.07040    2.77890    0.07040    -999.25    -999.25    -999.25
 15850.00000    -999.25    -999.25   11.11200   11.11200    -999.25   11.17240    0.04520    2.47760    0.13590   89.50620    0.04520   57.59400   57.59400   21.91200   21.91200   37.94000   89.50620    -999.25    -999.25    0.03510    2.47760    0.03510    -999.25    -999.25    -999.25
 15900.00000    -999.25    -999.25    9.79000    9.79000    -999.25   13.26930    0.02610    2.66140    0.02840   75.36210    0.02610   51.16200   51.16200   26.91100   26.91100   36.30500   75.36210    -999.25    -999.25    0.00960    2.66140    0.00960    -999.25    -999.25    -999.25
 15950.00000    -999.25    -999.25    9.82200    9.82200   40.23900   27.89240    0.01280    2.74150   -0.01840   35.85200    0.01280   58.31100   58.31100   35.99200   35.99200   50.92600   35.85200    -999.25    -999.25    0.01250    2.74150    0.01250    -999.25    -999.25    -999.25
 16000.00000    -999.25    -999.25    9.89800    9.89800   49.55050   27.05640    0.02450    2.71760   -0.00440   36.95990    0.02450   51.29000   51.29000    9.82200    9.82200   15.77300   36.95990    -999.25    -999.25    0.00950    2.71760    0.00950    -999.25    -999.25    -999.25
 16050.00000    -999.25    -999.25    9.87000    9.87000   29.92950   10.61420    0.00540    2.73110   -0.01230   94.21300    0.00540   49.32700   49.32700   13.74300   13.74300   36.20500   94.21300    -999.25    -999.25    0.00520    2.73110    0.00520    -999.25    -999.25    -999.25
 16100.00000    -999.25    -999.25    9.81000    9.81000   65.74680   66.12230    0.01380    2.77730   -0.03940   15.12350    0.01380   58.11500   58.11500   32.70000   32.70000   42.85300   15.12350    -999.25    -999.25    0.04130    2.77730    0.04130    -999.25    -999.25    -999.25
 16150.00000    -999.25    -999.25    9.81300    9.81300   58.16730   91.46700    0.00230    2.74580   -0.02090   10.93290    0.00230   56.82500   56.82500   25.07200   25.07200   36.09400   10.93290    -999.25    -999.25    0.03710    2.74580    0.03710    -999.25    -999.25    -999.25
 16200.00000    -999.25    -999.25    9.88600    9.88600  121.51390  129.23400    0.00230    2.72420   -0.00830    7.73790    0.00230   64.44700   64.44700   46.60000   46.60000   51.17100    7.73790    -999.25    -999.25    0.05610    2.72420    0.05610    -999.25    -999.25    -999.25
 16250.00000    -999.25    -999.25    9.89000    9.89000  180.34530  182.53500    0.00540    2.72190   -0.00700    5.47840    0.00540   67.32100   67.32100   53.91900   53.91900   60.54200    5.47840    -999.25    -999.25    0.09070    2.72190    0.09070    -999.25    -999.25    -999.25
 16300.00000    -999.25    -999.25    9.89000    9.89000  195.61750  190.58870    0.00540    2.70030    0.00570    5.24690    0.00540   71.80600   71.80600   49.33300   49.33300   61.49300    5.24690    -999.25    -999.25    0.10740    2.70030    0.10740    -999.25    -999.25    -999.25
 16350.00000    -999.25    -999.25    9.85000    9.85000  189.08370  172.80110    0.00530    2.71960   -0.00560    5.78700    0.00530   74.38500   74.38500   49.99600   49.99600   60.67500    5.78700    -999.25    -999.25    0.08600    2.71960    0.08600    -999.25    -999.25    -999.25
 16400.00000    -999.25    -999.25    9.87400    9.87400  174.40240  172.36030    0.00230    2.70130    0.00510    5.80180    0.00230   68.71000   68.71000   48.97700   48.97700   60.49400    5.80180    -999.25    -999.25    0.11010    2.70130    0.11010    -999.25    -999.25    -999.25
 16450.00000    -999.25    -999.25    9.82400    9.82400  163.25810  141.89830    0.02840    2.73650   -0.01550    7.04730    0.02840   69.82100   69.82100   42.30000   42.30000   58.87300    7.04730    -999.25    -999.25    0.06950    2.73650    0.06950    -999.25    -999.25    -999.25
 16500.00000    -999.25    -999.25    9.81000    9.81000  166.83270  172.80110   -0.00460    2.65180    0.03400    5.78700   -0.00460   73.90900   73.90900   62.83000   62.83000   63.32800    5.78700    -999.25    -999.25    0.07850    2.65180    0.07850    -999.25    -999.25    -999.25
 16550.00000    -999.25    -999.25    9.87200    9.87200   88.56000  114.18390    0.02150    2.66640    0.02550    8.75780    0.02150   64.17400   64.17400   42.19400   42.19400   41.13100    8.75780    -999.25    -999.25    0.04500    2.66640    0.04500    -999.25    -999.25    -999.25
 16600.00000    -999.25    -999.25    9.86800    9.86800  200.00000  190.58870    0.00760    2.69570    0.00840    5.24690    0.00760   71.72600   71.72600   67.57700   67.57700   64.09900    5.24690  744.88030  744.88030    0.08990    2.69570    0.08990    -999.25    -999.25    -999.25
 16650.00000    -999.25    -999.25    9.82600    9.82600  220.83990  217.20720    0.00150    2.70030    0.00570    4.60390    0.00150   74.02800   74.02800   70.55600   70.55600   70.63400    4.60390  687.93750  687.93750    0.10770    2.70030    0.10770    -999.25    -999.25    -999.25
 16700.00000    -999.25    -999.25    9.89000    9.89000  212.15360  205.71480    0.00610    2.68960    0.01190    4.86110    0.00610   72.69800   72.69800   61.84300   61.84300   71.26500    4.86110  665.26510  665.26510    0.10140    2.68960    0.10140    -999.25    -999.25    -999.25
 16750.00000    -999.25    -999.25    9.88900    9.88900  261.08020  251.64830    0.00840    2.68570    0.01420    3.97380    0.00840   75.46000   75.46000   72.39400   72.39400   78.36700    3.97380  618.87450  618.87450    0.11160    2.68570    0.11160    -999.25    -999.25    -999.25
 16800.00000    -999.25    -999.25    9.87000    9.87000  250.59760  188.73620    0.00080    2.71110   -0.00060    5.29840    0.00080   69.94000   69.94000   62.07500   62.07500   65.14700    5.29840  669.88070  669.88070    0.07960    2.71110    0.07960    -999.25    -999.25    -999.25
 16850.00000    -999.25    -999.25    6.88300    6.88300  200.17480  226.66490   -0.05370    2.65410    0.03270    4.41180   -0.05370   70.67400   70.67400   93.94400   93.94400   99.20900    4.41180  947.65270  947.65270    -999.25    2.65410    -999.25    -999.25    -999.25    -999.25
 16900.00000    -999.25    -999.25    6.79000    6.79000  199.60160  239.25740   -0.05260    2.64560    0.03770    4.17960   -0.05260   70.45800   70.45800   96.52500   96.52500   90.85400    4.17960  983.50950  983.50950    -999.25    2.64560    -999.25    -999.25    -999.25    -999.25
 16950.00000    -999.25    -999.25    6.75700    6.75700  229.08370  253.33130   -0.04940    2.67570    0.02010    3.94740   -0.04940   74.12400   74.12400  106.76200  106.76200   96.82900    3.94740  920.54590  920.54590    -999.25    2.67570    -999.25    -999.25    -999.25    -999.25
 17000.00000    -999.25    -999.25    6.74100    6.74100  152.25230  190.02740   -0.05760    2.69130    0.01090    5.26240   -0.05760   67.43000   67.43000   84.91900   84.91900   90.81900    5.26240 1020.17570 1020.17570    -999.25    2.69130    -999.25    -999.25    -999.25    -999.25
 17050.00000    -999.25    -999.25    6.73000    6.73000  131.45910  146.81920   -0.04830    2.67030    0.02320    6.81110   -0.04830   66.35500   66.35500   75.19200   75.19200   73.74000    6.81110 1399.69600 1399.69600    -999.25    2.67030    -999.25    -999.25    -999.25    -999.25
