~Version ---------------------------------------------------
VERS. 2.0 : CWLS log ASCII Standard -VERSION 2.0
WRAP.  NO : ONE LINE PER DEPTH STEP
~Well ------------------------------------------------------
STRT.F                    3850.0 : START DEPTH
STOP.F                    8500.0 : STOP DEPTH
STEP.F                  50.00000 : STEP LENGTH
NULL.                    -999.25 : NULL VALUE
COMP. CHAMPLIN PETROLEUM COMPANY : COMPANY
WELL.        BRINKMAN JUNELL  #1 : WELL
FLD .                   GIDDINGS : FIELD
LOC .                            : LOCATION
CNTY.                   BURLESON : COUNTY
STAT.                      TEXAS : STATE
CTRY.   UNITED STATES OF AMERICA : COUNTRY
SRVC.               Schlumberger : SERVICE COMPANY
DATE.                11-Apr-1980 : LOGDATE
API .             42051306040000 : API NUMBER
UWI .             42051306040000 : UNIQUE WELL ID
SLAT.WGS84         30.3775396068 : SURFACE LATITUDE
SLON.WGS84        -96.7226538324 : SURFACE LONGITUDE
~Curve Information -----------------------------------------
DEPT.F                 : 
SPR .MV   07 010 01 00 : SPONTANEOUS POTENTIAL FROM RESISTIVITY
GRR .GAPI 07 310 01 00 : GAMMA RAY FROM RESISTIVITY
DT  .US/F 60 520 00 00 : DELTA-T (INTERVAL TRANSIT TIME)
ILM .OHMM 07 120 44 00 : INDUCTION MEDIUM RESISTIVITY
ILD .OHMM 07 120 46 00 : INDUCTION DEEP RESISTIVITY
SFLU.OHMM 07 220 01 00 : SFL RESISTIVITY (UNAVERAGED)
CALD.IN   45 280 60 00 : CALIPER FROM DENSITY LOG
RHOB.G/C3 45 350 01 00 : BULK DENSITY
DRHO.G/C3 45 356 01 00 : BULK DENSITY CORRECTION
NPHI.DEC  42 890 03 00 : NEUTRON POROSITY
DPHI.DEC  45 890 12 00 : DENSITY POROSITY
~Params ----------------------------------------------------
PD  .                             GL : PERMANENT DATUM
EPD .FT                          367 : ELEVATION PERMANENT DATUM
LMF .                             KB : LOG MEASURED FROM
DAPD.FT                         13.6 : FEET ABOVE PERMANENT DATUM
DMF .                             KB : DRILLING MEASURED FROM
EKB .FT                        380.6 : KELLY BUSHING
EDF .FT                        379.6 : DRILLING FLOOR
EGL .FT                          367 : GROUND LEVEL
DATE.                       04/11/80 : RUN DATE
RUN .                              1 : RUN NUMBER
DD  .FT                         8538 : DEPTH DRILLER
DL  .FT                         8514 : DEPTH LOGGER
BLI .FT                         8511 : BOTTOM LOG INTERVAL
TLI .FT                         3831 : TOP LOG INTERVAL
CS  .IN                        9.625 : CASING SIZE
CBD .FT                         3820 : CASING BOTTOM DRILLER
CBL .FT                         3831 : CASING BOTTOM LOGGER
BS  .IN                         8.75 : BIT SIZE
BSD .FT                         8538 : BIT SIZE AT DEPTH
DFT .                            LNS : DRILLING FLUID TYPE
DFD .                            9.6 : DRILLING FLUID DENSITY
DFV .                             40 : DRILLING FLUID VISCOSITY
DFPH.                              9 : DRILLING FLUID PH
DFL .                            8.8 : DRILLING FLUID LOSS
MSS .                            PIT : MUD SAMPLE SOURCE
RMS .OHMM                       2.46 : RESISTIVITY MUD SAMPLE
MST .DEGF                         75 : MUD SAMPLE TEMPERATURE
RMF .OHMM                       1.82 : RESISTIVITY MUD FILTRATE SAMPLE
MFST.DEGF                         75 : MUD FILTRATE SAMPLE TEMPERATURE
RMC .OHMM                       3.61 : RESISTIVITY MUD CAKE
MCST.DEGF                         75 : MUD CAKE SAMPLE TEMPERATURE
MFSS.                              M : MUD FILTRATE SAMPLE SOURCE
MCSS.                              C : MUD CAKE SAMPLE SOURCE
RMB .OHMM                       0.96 : RESISTIVITY MUD AT BHT
TCS .HRS                        1800 : TIME CIRCULATED STOPPED
TLAB.HRS                        2300 : TIME LOGGER AT BOTTOM
LUN .                           8138 : LOGGING UNIT NUMBER
LUL .                        BRENHAM : LOGGING UNIT LOCATION
ENGI.                       CRAWFORD : RECORDING ENGINEER
WITN. SCHELL DRAKE CAMERON DAUGHTERY : WITNESSED BY
CLNT.                        A2DTECH : CLIENT CODE
ORIG.                    2" 5" PRINT : ORIGIN OF DATA
UWI .                 42051306040000 : UNIQUE WELL ID
DICO.         A2D Technologies, Inc. : DIGITIZING COMPANY
~Other -----------------------------------------------------
~ASCII -----------------------------------------------------
# ...
 6900.00000  -13.53200   50.30090   77.10760    3.44110    3.33620    4.01150   11.11870    2.61850    0.03080    0.13150    0.04750
 6950.00000  -23.15730   38.51350   68.92880    6.12980    5.68180   10.28850   11.04450    2.61920    0.03080    0.09530    0.05600
 7000.00000  -10.22560   62.61520   77.25730    3.68890    3.40620    5.71060   11.80740    2.73920    0.13630    0.13060    0.03360
 7050.00000  -16.69290   51.80360   93.94720    1.93170    1.81550    2.38640   14.71110    2.52910    0.24480    0.27800    0.10510
 7100.00000  -17.89400   46.62380   87.54130    2.36330    2.21860    2.91700   14.68150    2.56320    0.13260    0.22750    0.08770
 7150.00000  -13.38270   47.52380   82.77290    2.91190    2.69870    3.82170   12.42960    2.59310    0.07620    0.17070    0.06310
 7200.00000   -9.62190   54.09170   84.26230    2.90530    2.73010    3.76900   11.67410    2.59200    0.04350    0.19530    0.06940
 7250.00000  -11.12730   50.90340   84.55930    2.76800    2.51270    3.32700   11.83700    2.56040    0.09700    0.20830    0.09210
 7300.00000   -9.92420   47.07460   85.00750    3.11340    3.07060    3.54130   10.68150    2.62070    0.06350    0.19090    0.05330
 7350.00000  -12.48000   59.68690   97.07950    1.45510    1.41540    2.02100   13.55260    2.52990    0.17350    0.32000    0.12120
 7400.00000  -13.68420   52.25410   93.20420    1.82200    1.77170    2.61110   14.04450    2.56260    0.17200    0.28290    0.08450
 7450.00000   -9.32330   48.64970   89.77680    2.14320    2.04200    3.21400   12.64820    2.64160    0.24780    0.25070    0.04480
 7500.00000  -11.72860   57.43410   90.07480    2.09920    2.03490    3.10480   12.26110    2.59310    0.18980    0.24310    0.07650
 7550.00000  -23.15730   47.67270   90.69550    2.05610    1.97930    2.93730   12.57260    2.60880    0.24030    0.27310    0.06670
 7600.00000  -32.62990   48.87480   89.62740    2.05610    1.86980    2.83740   11.45070    2.58270    0.23510    0.22530    0.07340
 7650.00000  -36.39100   18.24510   63.39790   10.01680    8.59250   15.58720   10.69720    2.66540    0.06790    0.04570    0.04840
 7700.00000  -31.87970   20.72070   62.57100    9.81130    8.83380   10.81840   10.83680    2.65000    0.03970    0.04840    0.03540
 7750.00000  -30.07520   23.20040   57.04010   17.90530   13.10920   32.87930   10.85180    2.67590    0.07250    0.02560    0.02020
 7800.00000  -27.51780   22.97480   59.00010   14.65190   14.84940   17.30060   10.63930    2.67140    0.05390    0.03090    0.01800
 7850.00000  -27.81950   22.52250   60.47830   10.73400    9.93740   17.78510   10.66020    2.64750    0.03750    0.04340    0.03670
 7900.00000  -35.93990   24.32580   62.42170   10.66000   10.14590    9.88970   10.76270    2.65570    0.08510    0.05680    0.03050
 7950.00000  -35.03640   22.29730   60.32880   13.02710   11.65310   19.72550   10.59570    2.65280    0.07500    0.06620    0.04610
 8000.00000  -44.66170   21.84680   60.17950   17.29690   16.82060   32.20490   10.52530    2.60730    0.03680    0.05330    0.05420
 8050.00000  -35.93940   27.47750   62.27200   15.27260   14.77500   16.71370   10.10990    2.59240    0.02640    0.05330    0.04700
 8100.00000  -35.03760   29.05700   64.81320   15.80990   17.29310   20.27790    9.87250    2.64950    0.07240    0.06000    0.03590
 8150.00000  -33.98410   73.19930   97.95840    1.62690    1.52130    2.44500   13.18100    2.47090    0.20540    0.35800    0.14080
 8200.00000  -35.78950   58.33330  101.88340    2.07040    2.24770    3.55960   14.05080    2.54770    0.25000    0.35800    0.09300
 8250.00000  -29.47220   65.08860   87.50370    5.50770    6.07770    5.85270   11.68260    2.58050    0.24660    0.32310    0.08860
 8300.00000  -13.53310   55.18020   79.48510   13.67300   12.46810   55.18390   10.01490    2.57260    0.05020    0.18510    0.08900
 8350.00000  -23.30830   69.81980   87.38410    5.22940    5.04110    8.03950   12.59260    2.63560    0.20470    0.26500    0.04840
 8400.00000  -19.54990   37.38450   66.45740    4.91380    4.76950    9.29390    9.68890    2.68770    0.04870    0.13190    0.01040
 8450.00000  -13.23310   31.97870   58.38540   15.59270   14.74680   27.47680    9.45370    2.72130    0.04730    0.07780    0.00150
 8500.00000  -43.00640    -999.25    -999.25   55.26770   57.70060   54.05290    8.92280    2.71160    0.06500    0.01040    0.00590
