~Version ---------------------------------------------------
VERS.      2.0 : CWLS log ASCII Standard -VERSION 2.0
WRAP.      YES : Multiple lines per depth step
CREA. 07/19/18 : LAS Creation Date
~Well ------------------------------------------------------
STRT.FT                           4000.0 : START DEPTH
STOP.FT                          13600.0 : STOP DEPTH
STEP.FT                         50.00000 : STEP LENGTH
NULL.                            -999.25 : NULL VALUE
COMP. TEXSTAR NORTH AMERICA INCORPORATED : COMPANY
WELL.                         HOMEYER #2 : WELL
FLD .                     CENTRAL KENEDY : FIELD
LOC .                                    : LOCATION
CNTY.                             KARNES : COUNTY
STAT.                              TEXAS : STATE
CTRY.           UNITED STATES OF AMERICA : COUNTRY
SRVC.                       Schlumberger : SERVICE COMPANY
DATE.                        30-Mar-1990 : LOGDATE
API .                     42255312470000 : API NUMBER
UWI .                     42255312470000 : UNIQUE WELL ID
SLAT.WGS84                 28.7726896993 : SURFACE LATITUDE
SLON.WGS84                -97.8709093626 : SURFACE LONGITUDE
~Curve Information -----------------------------------------
DEPT    .FT    : DEPTH FEET
CALWS   .IN    : CALIPER [DCALDED+BIT]
CONDWS  .MMHO  : DEEP CONDUCTIVITY [1000/DRESWS]
DCALDED .IN    : DIFFERENTIAL CALIPER FROM DENSITY LOG
DCORWS  .G/C3  : DENSITY CORRECTION [DRHOED]
DENWS   .G/C3  : BULK DENSITY [TOP CALC. DPHISSED M=2.68 F=1.0, 12400' DPHISSED M=2.71 F=1.0]]
DPHILSED.V/V   : DENSITY POROSITY (LS) [M=2.71 F=1.0] FROM DENSITY LOG
DPHISSED.V/V   : DENSITY POROSITY (SS) [M=2.68 F=1.0] FROM DENSITY LOG
DPOLSWS .V/V   : DENSITY POROSITY LIMESTONE [M=2.71 F=1.0] [CALC. FROM DENWS]
DRESWS  .OHMM  : DEEP RESISTIVITY [ILDED]
DRHOED  .G/C3  : DENSITY CORRECTION FROM DENSITY LOG
DTED    .US/F  : DELTA TIME FROM DIL/SONIC LOG
DTLED   .US/F  : DELTA TIME LONG SPACING FROM DIL/SONIC LOG
DTWS    .US/F  : DELTA TIME COMPRESSIONAL [DTED]
GRDED   .GAPI  : GAMMA RAY FROM DENSITY LOG
GRRED   .GAPI  : GAMMA RAY FROM RESISTIVITY LOG
GRWS    .GAPI  : GAMMA RAY [TOP GRDED 6100' GRRED 13560' GRDED]
ILDED   .OHMM  : INDUCTION LOG DEEP RESISTIVITY
ILMED   .OHMM  : INDUCTION LOG MEDIUM RESISTIVITY
MRESWS  .OHMM  : MEDIUM RESISTIVITY [ILMED]
NPHILSED.V/V   : NEUTRON POROSITY LIMESTONE FROM DENSITY LOG
NPHISSED.V/V   : NEUTRON POROSITY SANDSTONE FROM DENSITY LOG
NPOLSWS .V/V   : NEUTRON POROSITY LIMESTONE [TOP CONVERSED NPHISSED TO LIME FROM POWER LOG; 12400' NPHILSED]
PEFED   .B/E   : PHOTOELECTRIC FACTOR FROM DENSITY LOG
PEFWS   .B/E   : PHOTOELECTRIC FACTOR [PEFED]
SFLUED  .OHMM  : SPHERICALLY FOCUSED LOG RESISTIVITY
SPHILSED.V/V   : SONIC POROSITY (LS) [DTM=49 DTF=189] FROM DIL/SONIC LOG
SPHISSED.V/V   : SONIC POROSITY (SS) [DTM=55.6 DTF=189] FROM DIL/SONIC LOG
SPOLSWS .V/V   : SONIC POROSITY (LS) [DTM=49 DTF=189] [CALC. FROM DTWS]
SPRED   .MV    : SPONTANEOUS POTENTIAL FROM RESISTIVITY LOG
SPWS    .MV    : SPONTANEOUS POTENTIAL [BASELINE 0 MV] [SPRED]
SRESWS  .OHMM  : SHALLOW RESISTIVITY [SFLUED]
TENDED  .LBF   : TENSION FROM DENSITY LOG
TENRED  .LBF   : TENSION FROM RESISTIVITY LOG
~Params ----------------------------------------------------
PD  .                     GL : PERMANENT DATUM
EPD .FT                  455 : ELEVATION PERMANENT DATUM
LMF .                     KB : LOG MEASURED FROM
DAPD.FT                   23 : MEASUREMENT ABOVE PERMANENT DATUM
DMF .                     KB : DRILLING MEASURED FROM
EKB .FT                  478 : KELLY BUSHING
EDF .FT                  477 : DRILLING FLOOR
EGL .FT                  455 : GROUND LEVEL
DATE.               03/30/90 : RUN DATE
RUN .                      1 : RUN NUMBER
DD  .FT                13600 : DEPTH DRILLER
DL  .FT                13608 : DEPTH LOGGER
BLI .FT                13602 : BOTTOM LOG INTERVAL
TLI .FT                 3954 : TOP LOG INTERVAL
CS  .IN                9.625 : CASING SIZE
CBD .FT                 3950 : CASING BOTTOM DRILLER
CBL .FT                 3954 : CASING BOTTOM LOGGER
BS  .IN                  8.5 : BIT SIZE
BSD .FT                13600 : BIT SIZE AT DEPTH
DFT .               KCL KLIG : DRILLING FLUID TYPE
DFD .                   10.7 : DRILLING FLUID DENSITY
DFV .                     41 : DRILLING FLUID VISCOSITY
DFPH.                   11.5 : DRILLING FLUID PH
DFL .                    9.4 : DRILLING FLUID LOSS
MSS .               CIRC PIT : MUD SAMPLE SOURCE
RMS .OHMM               0.63 : RESISTIVITY MUD SAMPLE
MST .DEGF                 75 : MUD SAMPLE TEMPERATURE
RMF .OHMM               0.55 : RESISTIVITY MUD FILTRATE SAMPLE
MFST.DEGF                 75 : MUD FILTRATE SAMPLE TEMPERATURE
RMC .OHMM               0.95 : RESISTIVITY MUD CAKE
MCST.DEGF                 75 : MUD CAKE SAMPLE TEMPERATURE
MFSS.                   MEAS : MUD FILTRATE SAMPLE SOURCE
MCSS.                   CALC : MUD CAKE SAMPLE SOURCE
RMB .OHMM              0.167 : RESISTIVITY MUD AT BHT
TCS .HRS                1530 : TIME CIRCULATED STOPPED
TLAB.HRS                  50 : TIME LOGGER AT BOTTOM
LUN .                   8268 : LOGGING UNIT NUMBER
LUL .             PLEASANTON : LOGGING UNIT LOCATION
ENGI.                 WILKIE : RECORDING ENGINEER
WITN.         REQUARTH GIBBS : WITNESSED BY
CLNT.                A2DTECH : CLIENT CODE
ORIG.            1" 5" PRINT : ORIGIN OF DATA
UWI .         42255312470000 : UNIQUE WELL ID
DICO. A2D Technologies, Inc. : DIGITIZING COMPANY
~Other -----------------------------------------------------
GRR SATURATED AT 5988'.
~ASCII -----------------------------------------------------
# ...
 6200.00000    -999.25 1004.31860    -999.25    -999.25    -999.25    -999.25    -999.25    -999.25    0.99570    -999.25   86.23950   84.83750   86.23950    -999.25   60.02790   60.02790    0.99570    1.32800    1.32800    -999.25    -999.25    -999.25    -999.25    -999.25    2.05130    -999.25    0.22020    0.26600  -58.98190  -42.75710    2.05130    -999.25 2406.73290
 6250.00000    -999.25 1565.68030    -999.25    -999.25    -999.25    -999.25    -999.25    -999.25    0.63870    -999.25   89.25670   88.51290   89.25670    -999.25   44.06670   44.06670    0.63870    0.81750    0.81750    -999.25    -999.25    -999.25    -999.25    -999.25    1.27610    -999.25    0.23300    0.28750  -63.52750  -47.48290    1.27610    -999.25 2397.77660
 6300.00000    -999.25  453.39140    -999.25    -999.25    -999.25    -999.25    -999.25    -999.25    2.20560    -999.25   85.89090   85.73180   85.89090    -999.25   79.33000   79.33000    2.20560    2.27310    2.27310    -999.25    -999.25    -999.25    -999.25    -999.25    3.00210    -999.25    0.22160    0.26350  -31.54010  -15.67570    3.00210    -999.25 2427.21780
 6350.00000    -999.25  712.80920    -999.25    -999.25    -999.25    -999.25    -999.25    -999.25    1.40290    -999.25   83.81050   83.24850   83.81050    -999.25   64.49900   64.49900    1.40290    1.84210    1.84210    -999.25    -999.25    -999.25    -999.25    -999.25    2.94560    -999.25    0.20800    0.24860  -59.91240  -44.22820    2.94560    -999.25 2426.30350
 6400.00000    -999.25  880.59180    -999.25    -999.25    -999.25    -999.25    -999.25    -999.25    1.13560    -999.25   86.78740   86.49850   86.78740    -999.25   68.16990   68.16990    1.13560    1.51990    1.51990    -999.25    -999.25    -999.25    -999.25    -999.25    2.43300    -999.25    0.22330    0.26990  -58.60890  -43.10490    2.43300    -999.25 2415.99510
 6450.00000    -999.25  560.69530    -999.25    -999.25    -999.25    -999.25    -999.25    -999.25    1.78350    -999.25   83.25750   82.79190   83.25750    -999.25   89.96840   89.96840    1.78350    2.18770    2.18770    -999.25    -999.25    -999.25    -999.25    -999.25    3.06060    -999.25    0.20690    0.24470  -52.30300  -36.97920    3.06060    -999.25 2453.99170
 6500.00000    -999.25 1260.55720    -999.25    -999.25    -999.25    -999.25    -999.25    -999.25    0.79330    -999.25   87.89210   87.42030   87.89210    -999.25   49.45310   49.45310    0.79330    1.00540    1.00540    -999.25    -999.25    -999.25    -999.25    -999.25    1.44500    -999.25    0.22630    0.27780  -65.21240  -50.06880    1.44500    -999.25 2474.09620
 6550.00000    -999.25 1128.28610    -999.25    -999.25    -999.25    -999.25    -999.25    -999.25    0.88630    -999.25   90.89380   88.81070   90.89380    -999.25   64.82370   64.82370    0.88630    1.08520    1.08520    -999.25    -999.25    -999.25    -999.25    -999.25    1.67830    -999.25    0.24260    0.29920  -61.69950  -46.73610    1.67830    -999.25 2482.94950
 6600.00000    -999.25  801.15370    -999.25    -999.25    -999.25    -999.25    -999.25    -999.25    1.24820    -999.25   81.64750   81.86870   81.64750    -999.25   71.21870   71.21870    1.24820    1.69430    1.69430    -999.25    -999.25    -999.25    -999.25    -999.25    3.36670    -999.25    0.19960    0.23320  -61.19320  -46.41000    3.36670    -999.25 2471.62480
 6650.00000    -999.25 1603.84920    -999.25    -999.25    -999.25    -999.25    -999.25    -999.25    0.62350    -999.25   84.92430   84.73850   84.92430    -999.25   49.82540   49.82540    0.62350    0.76910    0.76910    -999.25    -999.25    -999.25    -999.25    -999.25    1.22920    -999.25    0.21290    0.25660  -60.52340  -45.92040    1.22920    -999.25 2503.35130
 6700.00000    -999.25  666.97790    -999.25    -999.25    -999.25    -999.25    -999.25    -999.25    1.49930    -999.25   84.76460   84.07300   84.76460    -999.25   74.01780   74.01780    1.49930    1.84270    1.84270    -999.25    -999.25    -999.25    -999.25    -999.25    2.65080    -999.25    0.21400    0.25550  -59.17280  -44.75000    2.65080    -999.25 2516.79930
 6750.00000    -999.25 1243.47180    -999.25    -999.25    -999.25    -999.25    -999.25    -999.25    0.80420    -999.25   83.76940   83.43300   83.76940    -999.25   50.43270   50.43270    0.80420    1.14290    1.14290    -999.25    -999.25    -999.25    -999.25    -999.25    1.96730    -999.25    0.20840    0.24840  -64.57320  -50.33060    1.96730    -999.25 2545.45630
 6800.00000    -999.25  543.80340    -999.25    -999.25    -999.25    -999.25    -999.25    -999.25    1.83890    -999.25   91.91200   90.95650   91.91200    -999.25  104.40730  104.40730    1.83890    1.91930    1.91930    -999.25    -999.25    -999.25    -999.25    -999.25    2.43490    -999.25    0.24640    0.30650  -18.17110   -4.10870    2.43490    -999.25 2545.49290
 6850.00000    -999.25  373.77590    -999.25    -999.25    -999.25    -999.25    -999.25    -999.25    2.67540    -999.25   83.05380   82.47590   83.05380    -999.25   89.49810   89.49810    2.67540    2.74840    2.74840    -999.25    -999.25    -999.25    -999.25    -999.25    3.16940    -999.25    0.20550    0.24320  -21.63960   -7.75740    3.16940    -999.25 2562.74680
 6900.00000    -999.25 1006.33990    -999.25    -999.25    -999.25    -999.25    -999.25    -999.25    0.99370    -999.25   82.62150   82.00930   82.62150    -999.25   58.72560   58.72560    0.99370    1.33830    1.33830    -999.25    -999.25    -999.25    -999.25    -999.25    2.12910    -999.25    0.20350    0.24020  -55.87070  -42.16870    2.12910    -999.25 2613.26930
 6950.00000    -999.25  592.94400    -999.25    -999.25    -999.25    -999.25    -999.25    -999.25    1.68650    -999.25   90.95820   92.40840   90.95820    -999.25  107.66510  107.66510    1.68650    1.73890    1.73890    -999.25    -999.25    -999.25    -999.25    -999.25    1.98880    -999.25    0.24340    0.29970  -14.77040   -1.24860    1.98880    -999.25 2624.77100
 7000.00000    -999.25  436.50970    -999.25    -999.25    -999.25    -999.25    -999.25    -999.25    2.29090    -999.25   80.88370   80.48940   80.88370    -999.25   75.93440   75.93440    2.29090    2.82500    2.82500    -999.25    -999.25    -999.25    -999.25    -999.25    3.97610    -999.25    0.19700    0.22770  -41.90100  -28.50300    3.97610    -999.25 2664.68240
 7050.00000    -999.25  591.19130    -999.25    -999.25    -999.25    -999.25    -999.25    -999.25    1.69150    -999.25   85.54410   84.56150   85.54410    -999.25   89.67270   89.67270    1.69150    1.81220    1.81220    -999.25    -999.25    -999.25    -999.25    -999.25    2.48990    -999.25    0.21750    0.26100  -14.13300   -0.84560    2.48990    -999.25 2620.29690
 7100.00000    -999.25  446.05020    -999.25    -999.25    -999.25    -999.25    -999.25    -999.25    2.24190    -999.25   92.80320   91.56410   92.80320    -999.25  109.28950  109.28950    2.24190    1.94930    1.94930    -999.25    -999.25    -999.25    -999.25    -999.25    2.57080    -999.25    0.25140    0.31290  -14.85740   -1.68060    2.57080    -999.25 2668.44190
 7150.00000    -999.25  478.90430    -999.25    -999.25    -999.25    -999.25    -999.25    -999.25    2.08810    -999.25   89.35520   90.22300   89.35520    -999.25  106.54180  106.54180    2.08810    2.23980    2.23980    -999.25    -999.25    -999.25    -999.25    -999.25    2.68580    -999.25    0.23370    0.28830  -26.90360  -13.83740    2.68580    -999.25 2679.64430
 7200.00000    -999.25  811.95190    -999.25    -999.25    -999.25    -999.25    -999.25    -999.25    1.23160    -999.25   85.53560   86.91010   85.53560    -999.25   61.38150   61.38150    1.23160    1.58410    1.58410    -999.25    -999.25    -999.25    -999.25    -999.25    2.57260    -999.25    0.22080    0.26100  -46.73940  -33.78380    2.57260    -999.25 2669.52440
 7250.00000    -999.25  422.60070    -999.25    -999.25    -999.25    -999.25    -999.25    -999.25    2.36630    -999.25   81.80190   82.80430   81.80190    -999.25   71.13960   71.13960    2.36630    2.71460    2.71460    -999.25    -999.25    -999.25    -999.25    -999.25    3.74060    -999.25    0.20250    0.23430  -34.91240  -22.06740    3.74060    -999.25 2721.76390
