~Version ---------------------------------------------------
VERS. 2.0 : CWLS log ASCII Standard -VERSION 2.0
WRAP. YES : Multiple lines per depth step
~Well ------------------------------------------------------
STRT.FT                   3400.0 : START DEPTH
STOP.FT                  16600.0 : STOP DEPTH
STEP.FT                 50.00000 : STEP LENGTH
NULL.                    -999.25 : NULL VALUE
COMP. CHAMPLIN PETROLEUM COMPANY : COMPANY
WELL.      CHARLES C. CHARTER #1 : WELL
FLD .                    WILDCAT : FIELD
LOC .                            : LOCATION
CNTY.                     BRAZOS : COUNTY
STAT.                      TEXAS : STATE
CTRY.   UNITED STATES OF AMERICA : COUNTRY
SRVC.                            : SERVICE COMPANY
DATE.                            : LOGDATE
API .             42041304470000 : API NUMBER
UWI .             42041304470000 : UNIQUE WELL ID
SLAT.WGS84         30.8464717491 : SURFACE LATITUDE
SLON.WGS84        -96.3676910928 : SURFACE LONGITUDE
~Curve Information -----------------------------------------
DEPT  .FT    : DEPTH
CALDED.IN    : CALIPER FROM DENSITY LOG
CALWS .IN    : CALIPER [CALDED]
CONDWS.MMHO  : CONDUCTIVITY [1000/DRESWS]
DCORWS.G/C3  : DENSITY CORRECTION [DRHOED]
DENWS .G/C3  : BULK DENSITY [RHOBED]
DPOWS .V/V   : DENSITY POROSITY [3434 M=2.71 F=1.0, 11632 M=2.65 F=1.0, 15400 M=2.71 F=1.0] [CALCULATED FROM RHOBED]
DRESWS.OHMM  : DEEP RESISTIVITY [ILDED]
DRHOED.G/C3  : DENSITY CORRECTION FROM DENSITY LOG
DTED  .US/F  : DELTA TIME FROM SONIC LOG
DTWS  .US/F  : DELTA TIME [DTED]
GRDED .GAPI  : GAMMA RAY FROM DENSITY LOG
GRRED .GAPI  : GAMMA RAY FROM RESISTIVITY LOG
GRWS  .GAPI  : GAMMA RAY [GRDED]
ILDED .OHMM  : INDUCTION LOG DEEP RESISTIVITY
ILMED .OHMM  : INDUCTION LOG MEDIUM RESISTIVITY
MRESWS.OHMM  : MEDIUM RESISTIVITY [ILMED]
NPHIED.V/V   : NEUTRON POROSITY 3434 LIMESTONE 11632 SANDSTONE 15400 LIMESTONE FROM DENSITY LOG
NPOWS .V/V   : NEUTRON POROSITY 3434 LIMESTONE 11632 SANDSTONE 15400 LIMESTONE [NPHIED]
RHOBED.G/C3  : BULK DENSITY FROM DENSITY LOG
SFLED .OHMM  : SPHERICALLY FOCUSED LOG RESISTIVITY
SPED  .MV    : SPONTANEOUS POTENTIAL [BASELINE 0 MV] FROM RESISTIVITY LOG
SPWS  .MV    : SPONTANEOUS POTENTIAL [SPED]
SRESWS.OHMM  : SHALLOW RESISTIVITY [SFLED]
~Params ----------------------------------------------------
EKB .F                 368.0 : Kelly bushing
EGL .F                 346.0 : Ground level
EDF .F                 367.0 : Drilling floor
EPD .F                 346.0 : Permanent datum
TD  .F               16600.0 : Total depth
DATE.            01-OCT-1979 : DATE LOGGED
CLNT.                A2DTECH : CLIENT CODE
SL  . 100' FSEL & 3100' FNEL : SURFACE LOCATION
PD  .                     GL : PERMANENT DATUM
LMF .                     KB : LOG MEASURED FROM
DMF .                     KB : DRILLING MEASURED FROM
DAPD.F                    22 : FEET ABOVE PERMANENT DATUM
DD  .F                 16600 : DEPTH DRILLER
DL  .F                 16600 : DEPTH LOGGER
BLI .F                 16593 : BOTTOM LOG INTERVAL
TLI .F                 10338 : TOP LOG INTERVAL
CS1 .IN                9.625 : CASING SIZE
CBD1.        9.625" @ 10324' : CASING DRILLER 1
CBL1.F                 10338 : CASING LOGGER 1
BS1 .IN                  8.5 : BIT SIZE
BSD1.F                 16600 : DEPTH DRILLED WITH BIT1
DFT .             SPER XP-20 : TYPE FLUID IN HOLE
DFD .                   12.2 : DENSITY
DFV .                     47 : VISCOSITY
DFPH.                   10.5 : PH
DFL .                    5.3 : FLUID LOSS
MSS .                    PIT : SOURCE OF SAMPLE
RMS .OHMM               0.21 : RM
RMF .OHMM               0.16 : RMF
RMC .OHMM               0.32 : RMC
MFSS.                   CALC : SOURCE RMF.
MCSS.                   CALC : SOURCE RMC.
RMB .OHMM               0.04 : RM. AT BHT
BHT .F                   334 : BHT.
TCS .HRS                 600 : TIME CIRC. STOPPED
TLAB.HRS                 530 : TIME LOGGER AT BOTTOM
LUN .                   8101 : LOGGING UNIT NUMBER
LUL .                BRENHAM : LOGGING UNIT LOCATION
ENGI.                   EAST : RECORDED BY
WITN.           LANNY CRAMER : WITNESSED BY
ORIG.               5" PRINT : ORIGIN OF DATA
UWI .         42041304470000 : UNIQUE WELL ID
DICO. A2D TECHNOLOGIES, INC. : DIGITIZING COMPANY
~Other -----------------------------------------------------
~ASCII -----------------------------------------------------
 3400.00000    -999.25    -999.25    -999.25    -999.25    -999.25    -999.25    -999.25    -999.25    -999.25    -999.25    -999.25    -999.25    -999.25    -999.25    -999.25    -999.25    -999.25    -999.25    -999.25    -999.25    -999.25    -999.25    -999.25
 3450.00000   12.17300   12.17300  257.00330   -0.00700    2.22800    0.28190    3.89100   -0.00700  102.52600  102.52600   58.95200   55.51500   58.95200    3.89100    -999.25    -999.25    0.33300    0.33300    2.22800    3.68900  -11.81750  -11.81750    3.68900
 3500.00000   12.12400   12.12400  224.56770    0.00000    2.25000    0.26900    4.45300    0.00000  101.39500  101.39500   85.17000   71.43800   85.17000    4.45300    -999.25    -999.25    0.32400    0.32400    2.25000    4.40400  -14.91510  -14.91510    4.40400
 3550.00000   12.24300   12.24300  289.51940   -0.01200    2.26900    0.25790    3.45400   -0.01200  103.64400  103.64400   69.98800   65.19000   69.98800    3.45400    -999.25    -999.25    0.34900    0.34900    2.26900    3.18500  -16.06370  -16.06370    3.18500
 3600.00000   12.22400   12.22400  292.56880    0.01300    2.28300    0.24970    3.41800    0.01300  105.50300  105.50300   79.60100   67.79000   79.60100    3.41800    -999.25    -999.25    0.32900    0.32900    2.28300    3.23900  -15.98510  -15.98510    3.23900
 3650.00000   12.28800   12.28800  297.53050   -0.00600    2.27900    0.25200    3.36100   -0.00600  100.15900  100.15900   83.60200   72.42400   83.60200    3.36100    -999.25    -999.25    0.29900    0.29900    2.27900    3.22600  -19.51450  -19.51450    3.22600
 3700.00000   12.23000   12.23000  357.65380    0.00500    2.29900    0.24040    2.79600    0.00500  100.77500  100.77500   82.06200   69.72100   82.06200    2.79600    -999.25    -999.25    0.32800    0.32800    2.29900    2.60100  -21.77390  -21.77390    2.60100
 3750.00000   13.11300   13.11300  577.03410    0.00400    2.35300    0.20880    1.73300    0.00400  101.55300  101.55300   88.56000   73.99000   88.56000    1.73300    -999.25    -999.25    0.34400    0.34400    2.35300    1.66900  -23.30330  -23.30330    1.66900
 3800.00000   14.41800   14.41800  539.08360    0.00700    2.34600    0.21290    1.85500    0.00700  105.70700  105.70700   95.11600   79.25000   95.11600    1.85500    -999.25    -999.25    0.32100    0.32100    2.34600    1.73400  -20.41570  -20.41570    1.73400
 3850.00000   15.04000   15.04000  533.61790    0.00900    2.34100    0.21580    1.87400    0.00900  105.34100  105.34100   94.90300   81.59400   94.90300    1.87400    -999.25    -999.25    0.28000    0.28000    2.34100    1.62000  -20.16910  -20.16910    1.62000
 3900.00000   16.50000   16.50000  445.03780    0.02200    2.36600    0.20120    2.24700    0.02200  105.64100  105.64100   84.45900   70.82500   84.45900    2.24700    -999.25    -999.25    0.29700    0.29700    2.36600    2.18800  -21.72050  -21.72050    2.18800
 3950.00000   16.32600   16.32600  439.75380    0.00300    2.37500    0.19590    2.27400    0.00300   90.89800   90.89800   94.57900   77.89400   94.57900    2.27400    -999.25    -999.25    0.26800    0.26800    2.37500    1.82100  -19.67990  -19.67990    1.82100
 4000.00000   17.34600   17.34600  540.24850    0.01500    2.33800    0.21750    1.85100    0.01500  102.12200  102.12200   92.55500   76.80400   92.55500    1.85100    -999.25    -999.25    0.33000    0.33000    2.33800    1.78100  -16.46620  -16.46620    1.78100
 4050.00000   17.70900   17.70900  696.37880   -0.00100    2.28800    0.24680    1.43600   -0.00100  110.92800  110.92800   96.40600   82.25800   96.40600    1.43600    -999.25    -999.25    0.33800    0.33800    2.28800    1.41000  -15.51560  -15.51560    1.41000
 4100.00000   18.07500   18.07500  580.38310   -0.00100    2.35400    0.20820    1.72300   -0.00100  103.85200  103.85200   93.66600   78.63200   93.66600    1.72300    -999.25    -999.25    0.28500    0.28500    2.35400    1.62700  -15.59000  -15.59000    1.62700
 4150.00000   17.41200   17.41200  747.94320    0.00300    2.33400    0.21990    1.33700    0.00300  109.44600  109.44600   99.57700   83.42900   99.57700    1.33700    -999.25    -999.25    0.35600    0.35600    2.33400    1.37300  -15.99540  -15.99540    1.37300
 4200.00000   16.33100   16.33100  784.92930    0.00700    2.32900    0.22280    1.27400    0.00700  112.22900  112.22900  100.79100   83.98100  100.79100    1.27400    -999.25    -999.25    0.35700    0.35700    2.32900    1.30500  -15.90480  -15.90480    1.30500
 4250.00000   15.64300   15.64300  691.56290    0.02900    2.37000    0.19880    1.44600    0.02900  107.58600  107.58600  101.73000   84.05900  101.73000    1.44600    -999.25    -999.25    0.35700    0.35700    2.37000    1.45500  -16.37420  -16.37420    1.45500
 4300.00000   15.23200   15.23200  585.48010   -0.00500    2.41700    0.17130    1.70800   -0.00500  101.47800  101.47800  110.31900   92.78700  110.31900    1.70800    -999.25    -999.25    0.31300    0.31300    2.41700    1.70800  -20.96960  -20.96960    1.70800
 4350.00000   13.89700   13.89700  610.87350   -0.00600    2.41700    0.17130    1.63700   -0.00600  102.73500  102.73500  106.10100   88.78600  106.10100    1.63700    -999.25    -999.25    0.31200    0.31200    2.41700    1.60800  -20.40100  -20.40100    1.60800
 4400.00000   14.13900   14.13900  813.66970    0.03500    2.33300    0.22050    1.22900    0.03500  111.26300  111.26300  106.07200   89.50200  106.07200    1.22900    -999.25    -999.25    0.36200    0.36200    2.33300    1.33700  -15.15840  -15.15840    1.33700
 4450.00000   14.34900   14.34900  495.29470    0.00700    2.37400    0.19650    2.01900    0.00700   92.73100   92.73100   77.31700   63.47800   77.31700    2.01900    -999.25    -999.25    0.23700    0.23700    2.37400    1.78800  -22.88680  -22.88680    1.78800
 4500.00000   15.15000   15.15000  731.52890    0.02100    2.34100    0.21580    1.36700    0.02100   97.28400   97.28400   84.17500   70.96900   84.17500    1.36700    -999.25    -999.25    0.27300    0.27300    2.34100    1.44900  -18.05220  -18.05220    1.44900
 4550.00000   15.65300   15.65300 1162.79060    0.00200    2.27900    0.25200    0.86000    0.00200  113.29400  113.29400   88.68700   74.49700   88.68700    0.86000    -999.25    -999.25    0.35000    0.35000    2.27900    0.88400  -18.70960  -18.70960    0.88400
 4600.00000   16.29800   16.29800 1060.44530    0.02000    2.31000    0.23390    0.94300    0.02000  112.00800  112.00800   94.08700   79.05700   94.08700    0.94300    -999.25    -999.25    0.31200    0.31200    2.31000    0.98700  -16.36090  -16.36090    0.98700
 4650.00000   16.03200   16.03200  791.76560    0.02300    2.36000    0.20470    1.26300    0.02300  104.29000  104.29000   83.09400   68.51100   83.09400    1.26300    -999.25    -999.25    0.28400    0.28400    2.36000    1.20700  -17.69430  -17.69430    1.20700
 4700.00000   17.37100   17.37100 1141.55250    0.01800    2.30400    0.23740    0.87600    0.01800  114.05200  114.05200   87.24600   72.87700   87.24600    0.87600    -999.25    -999.25    0.32400    0.32400    2.30400    0.90900  -15.87970  -15.87970    0.90900
 4750.00000   15.46200   15.46200  534.18800    0.00600    2.42000    0.16960    1.87200    0.00600  102.37200  102.37200   84.98000   70.48900   84.98000    1.87200    -999.25    -999.25    0.27100    0.27100    2.42000    1.81700  -22.15910  -22.15910    1.81700
 4800.00000   14.86600   14.86600  792.39310    0.02400    2.36300    0.20290    1.26200    0.02400  108.75400  108.75400   88.20900   75.06200   88.20900    1.26200    -999.25    -999.25    0.31200    0.31200    2.36300    1.30000  -17.85750  -17.85750    1.30000
 4850.00000   15.21000   15.21000  980.39220    0.00700    2.34300    0.21460    1.02000    0.00700  114.36600  114.36600   94.94600   80.50500   94.94600    1.02000    -999.25    -999.25    0.37400    0.37400    2.34300    1.08100  -16.97790  -16.97790    1.08100
 4900.00000   13.62400   13.62400 1022.49490    0.01300    2.29500    0.24270    0.97800    0.01300  114.51400  114.51400   95.95100   79.69900   95.95100    0.97800    -999.25    -999.25    0.36900    0.36900    2.29500    1.06600  -15.04030  -15.04030    1.06600
