~Version ---------------------------------------------------
VERS. 2.0 : CWLS log ASCII Standard -VERSION 2.0
WRAP.  NO : ONE LINE PER DEPTH STEP
~Well ------------------------------------------------------
STRT.F                     2750.0 : START DEPTH
STOP.F                    11000.0 : STOP DEPTH
STEP.F                   50.00000 : STEP LENGTH
NULL.                     -999.25 : NULL VALUE
COMP. HOUSTON OIL & MINERALS CORP : COMPANY
WELL.         ARTHUR C A ET AL #1 : WELL
FLD .                     WILDCAT : FIELD
LOC .                             : LOCATION
CNTY.                     MADISON : COUNTY
STAT.                       TEXAS : STATE
CTRY.    UNITED STATES OF AMERICA : COUNTRY
SRVC.                             : SERVICE COMPANY
DATE.                             : LOGDATE
API .              42313302370000 : API NUMBER
UWI .              42313302370000 : UNIQUE WELL ID
SLAT.WGS84          31.0049875571 : SURFACE LATITUDE
SLON.WGS84         -95.8184071728 : SURFACE LONGITUDE
~Curve Information -----------------------------------------
DEPT.F                 : 
DCAL.IN   45 280 30 00 : DIFFERENTIAL CALIPER
GR  .GAPI 42 310 01 00 : GAMMA RAY
NPHI.DEC  42 890 01 00 : NEUTRON POROSITY LIMESTONE
DPHI.DEC  45 890 10 00 : DENSITY POROSITY LIMESTONE
SP  .MV   07 010 01 00 : SPONTANEOUS POTENTIAL
ALL8.OHMM 11 221 08 00 : AMP. LATEROLOG-8
ASFL.OHMM 07 221 01 00 : AMPPLIFIED SHALLOW FOCUSED LOG RESISTIVITY
ILD .OHMM 07 120 46 00 : DEEP INDUCTION RESISTIVITY
CALR.IN   07 280 01 00 : CALIPER FROM RESISTIVITY
DRHO.G/C3 45 356 01 00 : DENSITY CORRECTION
~Params ----------------------------------------------------
EKB .F                       248.45 : Kelly bushing
EGL .F                       226.35 : Ground level
EDF .F                       247.45 : Drilling floor
EPD .F                        226.8 : Permanent datum
TD  .F                      11017.0 : Total depth
DATE.                   07-APR-1979 : DATE LOGGED
CLNT.                       A2DTECH : CLIENT CODE
SL  . 2653.84' FNEL & 3823.37' FNWL : SURFACE LOCATION
PD  .                            GL : PERMANENT DATUM
LMF .                            KB : LOG MEASURED FROM
DMF .                            KB : DRILLING MEASURED FROM
DAPD.F                        21.65 : FEET ABOVE PERMANENT DATUM
DD  .F                        11000 : DEPTH DRILLER
DL  .F                        11017 : DEPTH LOGGER
BLI .F                        11010 : BOTTOM LOG INTERVAL
TLI .F                         8350 : TOP LOG INTERVAL
CS1 .IN                       10.75 : CASING SIZE
CBD1.                10.75" @ 2715' : CASING DRILLER 1
BS1 .IN                       9.875 : BIT SIZE
BSD1.F                        11000 : DEPTH DRILLED WITH BIT1
DFT .                           GEL : TYPE FLUID IN HOLE
DFD .                          10.1 : DENSITY
DFV .                            42 : VISCOSITY
DFPH.                           9.5 : PH
DFL .                           5.8 : FLUID LOSS
MSS .                           PIT : SOURCE OF SAMPLE
RMS .OHMM                      2.08 : RM
RMF .OHMM                      1.13 : RMF
RMC .OHMM                      3.16 : RMC
MFSS.                          MEAS : SOURCE RMF.
MCSS.                          CALC : SOURCE RMC.
RMB .OHMM                      0.85 : RM. AT BHT
BHT .F                          214 : BHT.
TCS .HRS                       1600 : TIME CIRC. STOPPED
TLAB.                          2200 : TIME LOGGER AT BOTTOM
LUN .                          8096 : LOGGING UNIT NUMBER
LUL .                       BRENHAM : LOGGING UNIT LOCATION
ENGI.                     GILLILAND : RECORDED BY
WITN.      FOWLER, DAILEY, HUMPHREY : WITNESSED BY
ORIG.                   1" 5" PRINT : ORIGIN OF DATA
UWI .                42313302370000 : UNIQUE WELL ID
DICO.        A2D TECHNOLOGIES, INC. : DIGITIZING COMPANY
~Other -----------------------------------------------------
~ASCII -----------------------------------------------------
# ...
 6050.00000    -999.25    -999.25    -999.25    -999.25  -49.84660    3.03350    -999.25    2.30180    -999.25    -999.25
 6100.00000    -999.25    -999.25    -999.25    -999.25  -50.00000    2.71540    -999.25    2.08130    -999.25    -999.25
 6150.00000    -999.25    -999.25    -999.25    -999.25  -49.23310    2.70620    -999.25    2.07320    -999.25    -999.25
 6200.00000    -999.25    -999.25    -999.25    -999.25  -49.17920    2.95590    -999.25    2.13410    -999.25    -999.25
 6250.00000    -999.25    -999.25    -999.25    -999.25  -48.77300    2.81740    -999.25    1.97410    -999.25    -999.25
 6300.00000    -999.25    -999.25    -999.25    -999.25  -48.81690    2.63780    -999.25    1.87500    -999.25    -999.25
 6350.00000    -999.25    -999.25    -999.25    -999.25  -47.59710    2.79220    -999.25    2.01980    -999.25    -999.25
 6400.00000    -999.25    -999.25    -999.25    -999.25  -45.36010    2.65680    -999.25    2.05490    -999.25    -999.25
 6450.00000    -999.25    -999.25    -999.25    -999.25  -48.15950    3.79860    -999.25    2.40090    -999.25    -999.25
 6500.00000    -999.25    -999.25    -999.25    -999.25  -48.77300    3.36680    -999.25    2.51520    -999.25    -999.25
 6550.00000    -999.25    -999.25    -999.25    -999.25  -45.55210    2.61490    -999.25    2.01980    -999.25    -999.25
 6600.00000    -999.25    -999.25    -999.25    -999.25  -44.17180    2.47490    -999.25    1.80440    -999.25    -999.25
 6650.00000    -999.25    -999.25    -999.25    -999.25  -46.93250    2.62710    -999.25    1.87120    -999.25    -999.25
 6700.00000    -999.25    -999.25    -999.25    -999.25  -44.78470    3.27250    -999.25    2.50010    -999.25    -999.25
 6750.00000    -999.25    -999.25    -999.25    -999.25  -45.70550    2.78080    -999.25    2.16460    -999.25    -999.25
 6800.00000    -999.25    -999.25    -999.25    -999.25  -44.17180    2.84570    -999.25    2.07320    -999.25    -999.25
 6850.00000    -999.25    -999.25    -999.25    -999.25  -40.65940    1.70620    -999.25    1.27430    -999.25    -999.25
 6900.00000    -999.25    -999.25    -999.25    -999.25  -42.79140    1.66820    -999.25    1.26840    -999.25    -999.25
 6950.00000    -999.25    -999.25    -999.25    -999.25  -44.40180    1.86760    -999.25    1.25760    -999.25    -999.25
 7000.00000    -999.25    -999.25    -999.25    -999.25  -44.64970    1.79910    -999.25    1.25000    -999.25    -999.25
 7050.00000    -999.25    -999.25    -999.25    -999.25  -43.02120    1.78080    -999.25    1.24240    -999.25    -999.25
 7100.00000    -999.25    -999.25    -999.25    -999.25  -42.17750    1.79300    -999.25    1.20430    -999.25    -999.25
 7150.00000    -999.25    -999.25    -999.25    -999.25  -40.75920    1.62860    -999.25    1.05180    -999.25    -999.25
 7200.00000    -999.25    -999.25    -999.25    -999.25  -41.10430    1.73210    -999.25    1.21690    -999.25    -999.25
 7250.00000    -999.25    -999.25    -999.25    -999.25  -40.49080    1.86910    -999.25    1.34150    -999.25    -999.25
 7300.00000    -999.25    -999.25    -999.25    -999.25  -41.10430    2.36530    -999.25    1.64630    -999.25    -999.25
 7350.00000    -999.25    -999.25    -999.25    -999.25  -41.10430    4.97410    -999.25    3.44510    -999.25    -999.25
 7400.00000    -999.25    -999.25    -999.25    -999.25  -43.04700    6.11450    -999.25    4.72560    -999.25    -999.25
 7450.00000    -999.25    -999.25    -999.25    -999.25  -40.03070    5.57530    -999.25    4.31780    -999.25    -999.25
 7500.00000    -999.25    -999.25    -999.25    -999.25  -40.49050    6.81330    -999.25    5.21340    -999.25    -999.25
 7550.00000    -999.25    -999.25    -999.25    -999.25  -40.33740    6.40960    -999.25    5.86130    -999.25    -999.25
 7600.00000    -999.25    -999.25    -999.25    -999.25  -40.49080    3.78040    -999.25    2.86590    -999.25    -999.25
 7650.00000    -999.25    -999.25    -999.25    -999.25  -40.15080    2.50600    -999.25    1.79880    -999.25    -999.25
 7700.00000    -999.25    -999.25    -999.25    -999.25  -37.88340    6.86740    -999.25    4.51980    -999.25    -999.25
 7750.00000    -999.25    -999.25    -999.25    -999.25  -36.15800    5.09790    -999.25    3.93290    -999.25    -999.25
 7800.00000    -999.25    -999.25    -999.25    -999.25  -36.19630    3.73370    -999.25    2.81990    -999.25    -999.25
 7850.00000    -999.25    -999.25    -999.25    -999.25  -38.57360    2.78370    -999.25    2.03510    -999.25    -999.25
 7900.00000    -999.25    -999.25    -999.25    -999.25  -39.63190    3.20440    -999.25    2.36280    -999.25    -999.25
 7950.00000    -999.25    -999.25    -999.25    -999.25  -40.87420    3.23750    -999.25    2.38190    -999.25    -999.25
 8000.00000    4.99290   89.38150    -999.25    0.09730  -38.78170    2.67780    -999.25    2.04270    -999.25    0.10800
 8050.00000    1.62780   73.28210    -999.25    0.04800  -34.43250    4.65660    -999.25    3.04120    -999.25    0.09470
 8100.00000    0.83210   57.56550    -999.25    0.02690  -36.25040    7.23150    -999.25    5.41160    -999.25    0.01250
 8150.00000    0.75290   47.09900    -999.25    0.02300  -37.00760    8.73220    -999.25    7.16650    -999.25    0.00000
 8200.00000    0.99380   35.72130    -999.25    0.01110  -36.19630   12.56280    -999.25    8.84150    -999.25    0.02150
 8250.00000    0.91310   41.80150    -999.25    0.02650  -39.80060   11.61570    -999.25    9.57320    -999.25    0.00560
 8300.00000    1.90570   41.30740    -999.25    0.14250  -48.92640   13.79120    -999.25   12.92610    -999.25    0.08660
 8350.00000    2.63920   26.49030    0.09590    0.60240  -78.91160   24.35070    -999.25   26.41770   13.18300   -0.00150
 8400.00000    1.50590   84.16790    0.16960    0.04810  -47.76290    5.65200    -999.25    5.12190   12.32930    0.01330
 8450.00000    0.06130   32.09500    0.09290    0.06620  -83.25430   13.09460    -999.25    4.64160    9.66600    0.02920
 8500.00000    3.62660   75.00250    -999.25    0.36140  -41.10430    2.39640    -999.25    1.68450   15.92690    0.09410
 8550.00000    1.31020   47.06270    0.20410    0.12610  -49.21030    3.49100    -999.25    3.83390   13.10720    0.04740
 8600.00000    0.75480   39.90520    0.15810    0.11320  -64.85110    4.87140    -999.25    2.79420   11.30810    0.01410
 8650.00000    0.43650   27.90730    0.12800    0.16680  -96.62580   15.79430    -999.25    2.57620    9.98150    0.00000
 8700.00000    0.80030   26.48900    0.15360    0.32100  -95.27610    6.35960    -999.25    1.98170   10.33230    0.16130
 8750.00000    0.79130   46.83430    0.16280    0.11420  -72.46930    4.55980    -999.25    4.04330   11.56700    0.03940
 8800.00000    1.97620   39.10240    0.15610    0.59140  -67.48470   11.64310    -999.25    8.06660   11.54920    0.03260
 8850.00000    0.75450   49.51710    0.16070    0.08310  -65.72040    7.74280    -999.25    6.34520   11.43800    0.00250
 8900.00000    5.78040   68.99860    -999.25    0.55680  -40.03070    3.06810    -999.25    2.69810   17.87660    0.05480
 8950.00000    4.27140   79.91870    -999.25    0.21290  -39.61660    5.08320    -999.25    3.05260   18.92300    0.00760
 9000.00000    4.68430   74.94020    -999.25    0.32880  -35.70550    3.99370    -999.25    2.83540   19.41770    0.10210
 9050.00000   -0.00990   70.75260    -999.25    0.23380  -33.32830    4.10490    -999.25    2.27900   15.92530    0.15020
 9100.00000    5.00270   70.75400    -999.25    0.37770  -30.64420    4.70930    -999.25    3.82630   20.31710    0.05990
 9150.00000    4.88360   59.86350    -999.25    0.60460  -30.98960    4.10350    -999.25    2.79340   18.22970   -0.05100
 9200.00000    5.42990   61.13940    -999.25    0.40010  -29.87410    3.98480    -999.25    2.56100   17.52960    0.15680
 9250.00000    5.51830   60.24590    -999.25    0.47870  -28.42020    3.63470    -999.25    2.24850   20.42380   -0.00850
 9300.00000    2.81930   75.22350    -999.25    0.29570  -33.54290    6.70400    -999.25    3.64330   19.64010    0.08200
