~Version ---------------------------------------------------
VERS. 2.0 : CWLS log ASCII Standard -VERSION 2.0
WRAP. YES : MULTIPLE LINES PER DEPTH STEP
~Well ------------------------------------------------------
STRT.FT                   950.0 : START DEPTH
STOP.FT                  8250.0 : STOP DEPTH
STEP.FT                50.00000 : STEP LENGTH
NULL.                   -999.25 : NULL VALUE
COMP. PRAIRIE PRODUCING COMPANY : COMPANY
WELL.       SPETTEL BENDELE  #1 : WELL
FLD .                        WC : FIELD
LOC .                           : LOCATION
CNTY.                      FRIO : COUNTY
STAT.                     TEXAS : STATE
CTRY.  UNITED STATES OF AMERICA : COUNTRY
SRVC.              Schlumberger : SERVICE COMPANY
DATE.               05-Sep-1976 : LOGDATE
API .            42163306230000 : API NUMBER
UWI .            42163306230000 : UNIQUE WELL ID
SLAT.WGS84        28.6473106988 : SURFACE LATITUDE
SLON.WGS84       -98.9591866936 : SURFACE LONGITUDE
~Curve Information -----------------------------------------
DEPT    .FT    : DEPTH FEET
CALDED  .IN    : CALIPER FROM DENSITY LOG [DEP ADJ TO SPRED]
CALWS   .IN    : CALIPER [CALDED]
CONDWS  .MMHO  : CONDUCTIVITY [1000/DRESWS]
CORRED  .G/C3  : DENSITY CORRECTION FROM DENSITY LOG [DEP ADJ TO SPRED]
DCORWS  .G/C3  : DENSITY CORRECTION [CORRED]
DENWS   .G/C3  : BULK DENSITY [M=2.71 F=1.0] [RHOBED]
DPHILSED.V/V   : DENSITY POROSITY [M=2.71 F=1.0] FROM DENSITY LOG [DEP ADJ TO SPRED]
DPHISSED.V/V   : DENSITY POROSITY [M=2.65 F=1.0, MIGHT BE 2.68 MIDDLE SECTION] FROM DENSITY LOG [DEP ADJ TO SPRED]
DPOLSWS .V/V   : DENSITY POROSITY [M=2.71 F=1.0] [CAL FR DENWS]
DRESWS  .OHMM  : DEEP RESISTIVITY [ILDED]
GRDED   .GAPI  : GAMMA RAY FROM DENSITY LOG [DEP ADJ TO SPRED]
GRWS    .GAPI  : GAMMA RAY [GRDED]
ILDED   .OHMM  : INDUCTION LOG DEEP RESISTIVITY
ILMED   .OHMM  : INDUCTION LOG MEDIUM RESISTIVITY
LL8ED   .OHMM  : 8 INCH LATEROLOG RESISTIVITY
MRESWS  .OHMM  : MEDIUM RESISTIVITY [ILMED]
NPHILSED.V/V   : NEUTRON POROSITY LIMESTONE FROM DENSITY LOG [DEP ADJ TO SPRED]
NPHISSED.V/V   : NEUTRON POROSITY SANDSTONE FROM DENSITY LOG [DEP ADJ TO SPRED]
NPOLSWS .V/V   : NEUTRON POROSITY LIMESTONE [901 NPOLSCAL 7482 NPHILSED][NPHISSED IS CONVERTED TO NPOLSCAL USING POWERLOG MODULE]
RHOBED  .G/C3  : BULK DENSITY FROM DENSITY LOG [DEP ADJ TO SPRED/DPHIED]
SPRED   .MV    : SPONTANEOUS POTENTIAL FROM RESISTIVITY LOG
SPWS    .MV    : SPONTANEOUS POTENTIAL [BASELINE 0 MV] [SPRED]
SRESWS  .OHMM  : SHALLOW RESISTIVITY [LL8ED]
~Params ----------------------------------------------------
PD  .                     GL : PERMANENT DATUM
EPD .FT                446.5 : ELEVATION PERMANENT DATUM
LMF .                     KB : LOG MEASURED FROM
DAPD.FT                 13.2 : FEET ABOVE PERMANENT DATUM
DMF .                     KB : DRILLING MEASURED FROM
EKB .FT                459.7 : KELLY BUSHING
EDF .FT                458.7 : DRILLING FLOOR
EGL .FT                446.5 : GROUND LEVEL
DATE.               09/05/76 : RUN DATE
RUN .                      1 : RUN NUMBER
DD  .FT                 8269 : DEPTH DRILLER
DL  .FT                 8262 : DEPTH LOGGER
BLI .FT                 8261 : BOTTOM LOG INTERVAL
TLI .FT                  935 : TOP LOG INTERVAL
CS  .IN                9.625 : CASING SIZE
CBD .FT                  925 : CASING BOTTOM DRILLER
CBL .FT                  935 : CASING BOTTOM LOGGER
BS  .IN                  8.5 : BIT SIZE
BSD .FT                 8269 : BIT SIZE AT DEPTH
DFT .              SPER TANN : DRILLING FLUID TYPE
DFD .                   10.2 : DRILLING FLUID DENSITY
DFV .                     43 : DRILLING FLUID VISCOSITY
DFPH.                     10 : DRILLING FLUID PH
DFL .                    5.8 : DRILLING FLUID LOSS
MSS .               FLOWLINE : MUD SAMPLE SOURCE
RMS .OHMM               1.52 : RESISTIVITY MUD SAMPLE
MST .FT                   94 : MUD SAMPLE TEMPERATURE
RMF .OHMM               1.39 : RESISTIVITY MUD FILTRATE SAMPLE
MFST.FT                   78 : MUD FILTRATE SAMPLE TEMPERATURE
RMC .OHMM               1.43 : RESISTIVITY MUD CAKE
MCST.FT                   94 : MUD CAKE SAMPLE TEMPERATURE
MFSS.                   MEAS : MUD FILTRATE SAMPLE SOURCE
MCSS.                  CHART : MUD CAKE SAMPLE SOURCE
RMB .OHMM                0.8 : RESISTIVITY MUD AT BHT
TCS .HRS                2200 : TIME CURCULATED STOPPED
TLAB.HRS                 930 : TIME LOGGER AT BOTTOM
LUN .                   7799 : LOGGING UNIT NUMBER
LUL .                  PLEAS : LOGGING UNIT LOCATION
ENGI.               BREVETTI : RECORDING ENGINEER
WITN.               MR SMITH : WITNESSED BY
CLNT.                A2DTECH : CLIENT CODE
ORIG.           5" 25" PRINT : ORIGIN OF DATA
UWI .         42163306230000 : UNIQUE WELL ID
DICO. A2D Technologies, Inc. : DIGITIZING COMPANY
~Other -----------------------------------------------------
~ASCII -----------------------------------------------------
# ...
 7150.00000    -999.25    -999.25  345.90110    -999.25    -999.25    -999.25    -999.25    -999.25    -999.25    2.89100    -999.25    -999.25    2.89100    3.01360    3.60860    3.01360    -999.25    -999.25    -999.25    -999.25  -29.67000  -11.88000    3.60860
 7200.00000    -999.25    -999.25  382.77510    -999.25    -999.25    -999.25    -999.25    -999.25    -999.25    2.61250    -999.25    -999.25    2.61250    2.79110    3.38580    2.79110    -999.25    -999.25    -999.25    -999.25  -31.88250  -13.62310    3.38580
 7250.00000    -999.25    -999.25  251.57870    -999.25    -999.25    -999.25    -999.25    -999.25    -999.25    3.97490    -999.25    -999.25    3.97490    4.19170    5.14040    4.19170    -999.25    -999.25    -999.25    -999.25  -29.36950  -10.64070    5.14040
 7300.00000    -999.25    -999.25  278.43520    -999.25    -999.25    -999.25    -999.25    -999.25    -999.25    3.59150    -999.25    -999.25    3.59150    3.71440    4.69220    3.71440    -999.25    -999.25    -999.25    -999.25  -28.77580   -9.57760    4.69220
 7350.00000    -999.25    -999.25  236.80970    -999.25    -999.25    -999.25    -999.25    -999.25    -999.25    4.22280    -999.25    -999.25    4.22280    4.44170    5.16260    4.44170    -999.25    -999.25    -999.25    -999.25  -36.05070  -16.38300    5.16260
 7400.00000    -999.25    -999.25  110.49480    -999.25    -999.25    -999.25    -999.25    -999.25    -999.25    9.05020    -999.25    -999.25    9.05020    8.20480   10.28540    8.20480    -999.25    -999.25    -999.25    -999.25  -39.66840  -19.53130   10.28540
 7450.00000    -999.25    -999.25   87.77010    -999.25    -999.25    -999.25    -999.25    -999.25    -999.25   11.39340    -999.25    -999.25   11.39340   12.04700   12.90600   12.04700    -999.25    -999.25    -999.25    -999.25  -42.07960  -21.47310   12.90600
 7500.00000   11.34930   11.34930  218.90460    0.00930    0.00930    2.63170    0.04430    -999.25    0.04580    4.56820   55.36030   55.36030    4.56820    4.97260    5.19660    4.97260    0.13330    -999.25    0.13330    2.63170  -35.26470  -14.18880    5.19660
 7550.00000   11.21560   11.21560  175.77160    0.00210    0.00210    2.61550    0.05510    -999.25    0.05530    5.68920   47.01550   47.01550    5.68920    6.12260    6.92170    6.12260    0.10390    -999.25    0.10390    2.61550  -36.11830  -14.57300    6.92170
 7600.00000   11.75290   11.75290  182.87550    0.02360    0.02360    2.61920    0.04770    -999.25    0.05310    5.46820   50.82730   50.82730    5.46820    5.31200    6.66650    5.31200    0.13350    -999.25    0.13350    2.61920  -35.19180  -13.17710    6.66650
 7650.00000   10.53800   10.53800  103.28120    0.00780    0.00780    2.61340    0.06170    -999.25    0.05650    9.68230   47.23860   47.23860    9.68230   10.29250   12.63520   10.29250    0.10090    -999.25    0.10090    2.61340  -36.12770  -13.64350   12.63520
 7700.00000   10.14900   10.14900  114.80790    0.01770    0.01770    2.65150    0.03240    -999.25    0.03420    8.71020   37.43000   37.43000    8.71020    9.37400   12.22550    9.37400    0.07570    -999.25    0.07570    2.65150  -41.30270  -18.34910   12.22550
 7750.00000   10.37590   10.37590  196.46370    0.21200    0.21200    2.40810    0.19440    -999.25    0.17650    5.09000   58.74800   58.74800    5.09000    4.87360    4.61260    4.87360    0.08110    -999.25    0.08110    2.40810  -40.87920  -17.45620    4.61260
 7800.00000   10.97500   10.97500   52.67930    0.20770    0.20770    2.26280    0.26500    -999.25    0.26150   18.98280   25.33470   25.33470   18.98280   21.57350   18.47180   21.57350    0.09710    -999.25    0.09710    2.26280  -52.66730  -28.77490   18.47180
 7850.00000   10.50210   10.50210   53.83900    0.22810    0.22810    2.27060    0.25940    -999.25    0.25700   18.57390   27.20450   27.20450   18.57390   15.11090   18.41820   15.11090    0.08840    -999.25    0.08840    2.27060  -50.36090  -25.99910   18.41820
 7900.00000    9.19850    9.19850   66.44650    0.01520    0.01520    2.62980    0.04880    -999.25    0.04690   15.04970   42.32670   42.32670   15.04970   16.32240   23.30670   16.32240    0.07850    -999.25    0.07850    2.62980  -44.25820  -19.42700   23.30670
 7950.00000    9.16450    9.16450   60.32780    0.02640    0.02640    2.64550    0.03890    -999.25    0.03770   16.57610   31.52700   31.52700   16.57610   17.29580   19.83980   17.29580    0.07690    -999.25    0.07690    2.64550  -46.59400  -21.29330   19.83980
 8000.00000    9.09150    9.09150   29.41710    0.00930    0.00930    2.60430    0.06130    -999.25    0.06180   33.99380   42.68750   42.68750   33.99380   31.13840   43.96420   31.13840    0.07540    -999.25    0.07540    2.60430  -35.74020   -9.97010   43.96420
 8050.00000    9.13590    9.13590   26.49690    0.01730    0.01730    2.60100    0.06560    -999.25    0.06370   37.74020   60.30630   60.30630   37.74020   31.80910   50.36840   31.80910    0.09140    -999.25    0.09140    2.60100  -37.84840  -11.60890   50.36840
 8100.00000    9.16660    9.16660   86.73630    0.03850    0.03850    2.53130    0.10590    -999.25    0.10450   11.52920   97.57690   97.57690   11.52920   12.17340   17.32040   12.17340    0.22970    -999.25    0.22970    2.53130  -28.52180   -1.85510   17.32040
 8150.00000    8.80410    8.80410   16.17190    0.05700    0.05700    2.58620    0.07530    -999.25    0.07240   61.83550   88.87030   88.87030   61.83550   48.26940  128.33840   48.26940    0.16190    -999.25    0.16190    2.58620  -37.08350  -10.41680  128.33840
 8200.00000    8.77490    8.77490    5.54400    0.01680    0.01680    2.61150    0.05620    -999.25    0.05760  180.37440   80.82230   80.82230  180.37440  160.90050  248.87460  160.90050    0.12770    -999.25    0.12770    2.61150  -49.73290  -23.06620  248.87460
 8250.00000    8.72810    8.72810    2.66400    0.02280    0.02280    2.69210    0.00740    -999.25    0.01050  375.36960    -999.25    -999.25  375.36960  153.73550  172.80070  153.73550    -999.25    -999.25    -999.25    2.69210  -60.72750  -34.06080  172.80070
