~Version ---------------------------------------------------
VERS.      2.0 : CWLS log ASCII Standard -VERSION 2.0
WRAP.      YES : Multiple lines per depth step
CREA. 09/17/12 : LAS Creation Date
~Well ------------------------------------------------------
STRT.FT                   3250.0 : START DEPTH
STOP.FT                   8300.0 : STOP DEPTH
STEP.FT                 50.00000 : STEP LENGTH
NULL.                    -999.25 : NULL VALUE
COMP. CHAMPLIN PETROLEUM COMPANY : COMPANY
WELL.       L W BRINKMAN UNIT #1 : WELL
FLD .                   GIDDINGS : FIELD
LOC .                            : LOCATION
CNTY.                   BURLESON : COUNTY
STAT.                      TEXAS : STATE
CTRY.   UNITED STATES OF AMERICA : COUNTRY
SRVC.               Schlumberger : SERVICE COMPANY
DATE.                19-Jul-1980 : LOGDATE
API .             42051307850000 : API NUMBER
UWI .             42051307850000 : UNIQUE WELL ID
SLAT.WGS84         30.3775896841 : SURFACE LATITUDE
SLON.WGS84        -96.7431946132 : SURFACE LONGITUDE
~Curve Information -----------------------------------------
DEPT    .FT    : DEPTH FEET
CALDED  .IN    : CALIPER FROM CNFD LOG [ADJ. TO GRRED]
CALWS   .IN    : CALIPER [CALDED]
CONDWS  .MMHO  : CONDUCTIVITY [1000/DRESWS]
DCORWS  .G/C3  : DENSITY CORRECTION [DRHOED]
DENWS   .G/C3  : FORMATION BULK DENSITY [RHOBED]
DPHILSED.V/V   : DENSITY POROSITY LIMESTONE [M=2.71 F=1.0] FROM CNFD LOG  [ADJ. TO GRRED]
DPOWS   .V/V   : DENSITY POROSITY LIMESTONE [DPHILSED]
DRESWS  .OHMM  : DEEP RESISTIVITY [ILDED]
DRHOED  .G/C3  : BULK DENSITY CORRECTION FROM CNFD LOG  [ADJ. TO GRRED]
DTED    .US/F  : DELTA-T (INTERVAL TRANSIT TIME)  FROM ISF SONIC LOG  [ADJ. TO GRRED]
DTWS    .US/F  : COMPRESSIONAL SONIC [DTED]
GRDED   .GAPI  : GAMMA RAY FROM CNFD LOG  [ADJ. TO GRRED]
GRED    .GAPI  : CASED HOLE GAMMA RAY FROM CEMENT LOG  [ADJ. TO GRRED]
GRRED   .GAPI  : GAMMA RAY FROM ISF SONIC LOG
GRWS    .GAPI  : GAMMA RAY [GRED SPL. TO GRDED @ 3799']
ILDED   .OHMM  : DEEP INDUCTION FROM ISF SONIC LOG
ILMED   .OHMM  : MEDIUM INDUCTION FROM ISF SONIC LOG
MRESWS  .OHMM  : MEDIUM RESISTIVITY [ILMED]
NPHILSED.V/V   : NEUTRON POROSITY LIMESTONE FROM CNFD LOG  [ADJ. TO GRRED]
NPOWS   .V/V   : NEUTRON POROSITY LIMESTONE [NPHILSED]
RHOBED  .G/C3  : BULK DENSITY FROM CNFD LOG  [ADJ. TO GRRED]
SFLUED  .OHMM  : SHALLOW FOCUSED RESISTIVITY (UNAVERAGED) FROM ISF SONIC LOG
SPHILSED.V/V   : SONIC POROSITY LIMESTONE FROM DEN-SON PLAYBACK LOG  [ADJ. TO DTED]
SPOWS   .V/V   : SONIC POROSITY LIMESTONE [SPHILSED]
SPRED   .MV    : SPONTANEOUS POTENTIAL FROM ISF SONIC LOG
SPWS    .MV    : SPONTANEOUS POTENTIAL [BASELINE 0 MV, SPRED]
SRESWS  .OHMM  : SHALLOW RESISTIVITY [SFLUED]
~Params ----------------------------------------------------
PD  .                     GL : PERMANENT DATUM
EPD .FT                  331 : ELEVATION PERMANENT DATUM
LMF .                     KB : LOG MEASURED FROM
DAPD.FT                 16.6 : FEET ABOVE PERMANENT DATUM
DMF .                     KB : DRILLING MEASURED FROM
EKB .FT                347.6 : KELLY BUSHING
EDF .FT                346.6 : DRILLING FLOOR
EGL .FT                  331 : GROUND LEVEL
DATE.             07/19/1980 : RUN DATE
RUN .                      1 : RUN NUMBER
BLI .FT                 8334 : BOTTOM LOG INTERVAL
TLI .FT                 3812 : TOP LOG INTERVAL
CS  .IN                9.625 : CASING SIZE
CBD .FT                 3818 : CASING BOTTOM DRILLER
CBL .FT                 3812 : CASING BOTTOM LOGGER
BS  .IN                 8.75 : BIT SIZE
DFT .                 BEN EX : DRILLING FLUID TYPE
DFD .                    9.3 : DRILLING FLUID DENSITY
DFV .                     45 : DRILLING FLUID VISCOSITY
DFPH.                      9 : DRILLING FLUID PH
DFL .                    5.8 : DRILLING FLUID LOSS
MSS .               MUD TANK : MUD SAMPLE SOURCE
RMS .OHMM               2.08 : RESISTIVITY MUD SAMPLE
MST .DEGF                 80 : MUD SAMPLE TEMPERATURE
RMF .OHMM               1.36 : RESISTIVITY MUD FILTRATE SAMPLE
MFST.DEGF                 80 : MUD FILTRATE SAMPLE TEMPERATURE
RMC .OHMM               3.12 : RESISTIVITY MUD CAKE
MCST.DEGF                 80 : MUD CAKE SAMPLE TEMPERATURE
MFSS.                      C : MUD FILTRATE SAMPLE SOURCE
MCSS.                      C : MUD CAKE SAMPLE SOURCE
RMB .OHMM              0.891 : RESISTIVITY MUD AT BHT
TCS .HRS                1330 : TIME CIRCULATED STOPPED
TLAB.HRS                2200 : TIME LOGGER AT BOTTOM
LUN .                   8176 : LOGGING UNIT NUMBER
LUL .                BRENHAM : LOGGING UNIT LOCATION
ENGI. KRONENBITTER ALEXANDER : RECORDING ENGINEER
WITN.                 SCHELL : WITNESSED BY
CLNT.                A2DTECH : CLIENT CODE
UWI .         42051307850000 : UNIQUE WELL ID
DICO. A2D Technologies, Inc. : DIGITIZING COMPANY
~Other -----------------------------------------------------
~ASCII -----------------------------------------------------
# ...
 7150.00000   12.29550   12.29550  871.00430    0.09830    2.41400    0.17220    0.17220    1.14810    0.09830  102.72050  102.72050   90.64710   59.67170  106.36390   90.64710    1.14810    1.21360    1.21360    0.33290    0.33290    2.41400    1.47860    -999.25    -999.25   -2.45400   -2.07930    1.47860
 7200.00000   12.76900   12.76900  691.65860    0.12550    2.47230    0.13920    0.13920    1.44580    0.12550   98.60710   98.60710   78.15520   52.81830   89.26410   78.15520    1.44580    1.54300    1.54300    0.30300    0.30300    2.47230    1.80620    -999.25    -999.25   -2.91960   -2.77310    1.80620
 7250.00000   10.32160   10.32160  579.13940    0.04060    2.44770    0.15570    0.15570    1.72670    0.04060   91.71080   91.71080   82.43530   56.67110   97.05130   82.43530    1.72670    1.87950    1.87950    0.26310    0.26310    2.44770    2.15920    -999.25    -999.25   -1.00050   -1.08230    2.15920
 7300.00000   11.02170   11.02170  632.35110    0.20430    2.54930    0.09340    0.09340    1.58140    0.20430   97.28280   97.28280   89.83890   56.03790  101.69160   89.83890    1.58140    1.71080    1.71080    0.25740    0.25740    2.54930    1.98960    -999.25    -999.25  -17.12510  -12.73720    1.98960
 7350.00000   12.16180   12.16180  712.35220    0.17340    2.46380    0.14250    0.14250    1.40380    0.17340  106.26340  106.26340   85.06140    -999.25  100.55550   85.06140    1.40380    1.48630    1.48630    0.29700    0.29700    2.46380    1.73810    -999.25    -999.25  -20.98800  -11.42840    1.73810
 7400.00000    9.68310    9.68310  255.46050    0.01880    2.59850    0.06500    0.06500    3.91450    0.01880   71.35090   71.35090   47.17140    -999.25   66.74100   47.17140    3.91450    4.06560    4.06560    0.13910    0.13910    2.59850    4.57360    -999.25    -999.25  -22.34440   -8.78050    4.57360
 7450.00000   10.37150   10.37150  159.62710    0.01170    2.57970    0.07680    0.07680    6.26460    0.01170   68.51240   68.51240   26.21140    -999.25   44.63480   26.21140    6.26460    6.52370    6.52370    0.07980    0.07980    2.57970    5.78140    0.13250    0.13250  -32.86930  -16.67150    5.78140
 7500.00000   10.57660   10.57660  197.46460    0.05920    2.53000    0.09840    0.09840    5.06420    0.05920   73.88400   73.88400   47.83190    -999.25   62.97740   47.83190    5.06420    5.97970    5.97970    0.09610    0.09610    2.53000    6.93520    0.16420    0.16420  -20.74850   -4.33010    6.93520
 7550.00000    9.68160    9.68160  126.57430    0.01260    2.64310    0.03860    0.03860    7.90050    0.01260   62.05290   62.05290   25.13550    -999.25   41.37090   25.13550    7.90050    8.22470    8.22470    0.05720    0.05720    2.64310    9.22770    0.08640    0.08640  -22.18430   -6.90270    9.22770
 7600.00000    9.39660    9.39660  278.28020    0.01550    2.54150    0.09510    0.09510    3.59350    0.01550   64.63160   64.63160   42.07510    -999.25   62.00480   42.07510    3.59350    3.96760    3.96760    0.14400    0.14400    2.54150    2.97760    0.10770    0.10770  -18.16700   -3.64370    2.97760
 7650.00000    9.36080    9.36080  219.32230   -0.00080    2.61850    0.05240    0.05240    4.55950   -0.00080   67.75110   67.75110   30.68890    -999.25   48.37960   30.68890    4.55950    4.65920    4.65920    0.08770    0.08770    2.61850    5.73030    0.13100    0.13100  -22.45830   -5.63030    5.73030
 7700.00000    9.28320    9.28320  178.84290    0.02800    2.64140    0.04100    0.04100    5.59150    0.02800   68.24340   68.24340   38.48850    -999.25   56.68580   38.48850    5.59150    5.92630    5.92630    0.08660    0.08660    2.64140    7.30170    0.13120    0.13120  -21.03000   -1.97230    7.30170
 7750.00000    9.22490    9.22490  113.76050   -0.00530    2.60200    0.06490    0.06490    8.79040   -0.00530   63.45250   63.45250   34.01940    -999.25   49.93940   34.01940    8.79040    9.36030    9.36030    0.05690    0.05690    2.60200   11.85520    0.09830    0.09830  -35.96440  -17.10080   11.85520
 7800.00000    9.22830    9.22830   66.07110   -0.01180    2.52550    0.10940    0.10940   15.13520   -0.01180   65.53440   65.53440   37.35800    -999.25   58.04540   37.35800   15.13520   15.24050   15.24050    0.07140    0.07140    2.52550   15.25990    0.11060    0.11060  -33.09840  -14.42890   15.25990
 7850.00000    9.23160    9.23160   90.72930   -0.00430    2.55160    0.09520    0.09520   11.02180   -0.00430   67.55970   67.55970   33.72680    -999.25   59.31970   33.72680   11.02180   12.25670   12.25670    0.09620    0.09620    2.55160   16.65250    0.12280    0.12280  -29.00250  -10.52700   16.65250
 7900.00000    9.22030    9.22030   68.42380    0.00750    2.55790    0.09020    0.09020   14.61480    0.00750   68.24900   68.24900   47.55660    -999.25   57.63360   47.55660   14.61480   16.74810   16.74810    0.08590    0.08590    2.55790   26.48850    0.13050    0.13050  -29.08160  -10.80020   26.48850
 7950.00000    9.84060    9.84060  727.90800    0.18800    2.54730    0.09540    0.09540    1.37380    0.18800   98.31670   98.31670   96.26520    -999.25  121.22890   96.26520    1.37380    1.46860    1.46860    0.32040    0.32040    2.54730    1.92660    0.34540    0.34540  -22.47870   -4.68700    1.92660
 8000.00000   10.66490   10.66490  468.18670    0.18010    2.44530    0.15730    0.15730    2.13590    0.18010  103.91100  103.91100  101.95290    -999.25  114.49170  101.95290    2.13590    2.10890    2.10890    0.36270    0.36270    2.44530    2.79640    0.38490    0.38490  -28.81760  -14.50530    2.79640
 8050.00000    9.50160    9.50160  210.26730    0.06710    2.49730    0.12340    0.12340    4.75590    0.06710   97.58320   97.58320  103.20000    -999.25  119.71960  103.20000    4.75590    -999.25    -999.25    0.28450    0.28450    2.49730    5.56520    0.34020    0.34020  -16.38380   -5.55090    5.56520
 8100.00000    9.31100    9.31100  162.53030    0.01190    2.46570    0.14230    0.14230    6.15270    0.01190   93.71600   93.71600   93.62330    -999.25  104.15150   93.62330    6.15270    6.38590    6.38590    0.26350    0.26350    2.46570    9.20120    0.31350    0.31350  -14.35890   -4.42420    9.20120
 8150.00000   11.85760   11.85760  486.80750    0.24790    2.38930    0.18250    0.18250    2.05420    0.24790  103.58470  103.58470  100.89670    -999.25  108.94930  100.89670    2.05420    1.83170    1.83170    0.34130    0.34130    2.38930    3.41980    0.38350    0.38350  -25.75790  -15.07120    3.41980
 8200.00000    9.37300    9.37300  229.43670    0.01820    2.66390    0.02820    0.02820    4.35850    0.01820   63.71560   63.71560   53.24780    -999.25   65.79540   53.24780    4.35850    4.50920    4.50920    0.15810    0.15810    2.66390    4.97320    0.09820    0.09820  -21.94130  -10.50270    4.97320
 8250.00000    9.23430    9.23430   90.22500    0.06560    2.69330    0.01120    0.01120   11.08340    0.06560   67.29150   67.29150   72.81810    -999.25   74.22440   72.81810   11.08340   12.03440   12.03440    0.13160    0.13160    2.69330   15.32130    0.12620    0.12620  -15.31340   -3.12280   15.32130
 8300.00000    9.07910    9.07910    6.97280    0.04090    2.72750   -0.00780   -0.00780  143.41510    0.04090   52.00090   52.00090   13.35870    -999.25    -999.25   13.35870  143.41510   89.76180   89.76180    0.00720    0.00720    2.72750  155.63230    0.01560    0.01560  -47.25910  -34.31660  155.63230
