~Version ---------------------------------------------------
VERS. 2.0 : CWLS log ASCII Standard -VERSION 2.0
WRAP. YES : Multiple lines per depth step
~Well ------------------------------------------------------
STRT.FT                  300.0 : START DEPTH
STOP.FT                10000.0 : STOP DEPTH
STEP.FT               50.00000 : STEP LENGTH
NULL.                  -999.25 : NULL VALUE
COMP.     TEXAS OIL & GAS CORP : COMPANY
WELL.     SILVER LAKE RANCH #1 : WELL
FLD .                  WILDCAT : FIELD
LOC .                          : LOCATION
CNTY.                   DIMMIT : COUNTY
STAT.                    TEXAS : STATE
CTRY. UNITED STATES OF AMERICA : COUNTRY
SRVC.                  Unknown : SERVICE COMPANY
DATE.              08-Nov-1979 : LOGDATE
API .           42127318560000 : API NUMBER
UWI .           42127318560000 : UNIQUE WELL ID
SLAT.WGS84       28.3952279901 : SURFACE LATITUDE
SLON.WGS84      -99.4517773834 : SURFACE LONGITUDE
~Curve Information -----------------------------------------
DEPT  .FT    : DEPTH
CALDED.IN    : CALIPER FROM DENSITY LOG (ADJ TO RES.)
CALWS .IN    : CALIPER (CALDED)
CONDWS.MMHO  : CONDUCTIVITY (1000/DRESws)
DCORWS.G/C3  : DENSITY CORRECTION (DRHOED)
DENWS .G/C3  : BULK DENSITY  (RHOBED LS)
DPHIED.V/V   : DENSITY POROSITY  (ADJ TO RES.)
DPOWS .V/V   : DENSITY POROSITY (M=2.71 F=1 DPHIED)
DRESWS.OHMM  : DEEP RESISTIVITY (RLLDED)
DRHOED.G/C3  : DENSITY CORRECTION (ADJ TO RES.)
DTED  .US/F  : DELTA TIME
DTWS  .US/F  : DELTA TIME  (DTED)
GRWS  .GAPI  : GAMMA RAY (GRRED) CASED TOP-1519
GRRED .GAPI  : GAMMA RAY FROM RESISTIVITY LOG
MRESWS.OHMM  : MEDIUM RESISTIVITY (RILMED)
NPHIED.V/V   : NEUTRON POROSITY (ADJ TO RES.)
NPOWS .V/V   : NEUTRON POROSITY LIMESTONE (NPHIED)
RHOBED.G/C3  : BULK DENSITY (ADJ TO RES.)
RILDED.OHMM  : DEEP INDUCTION RESISTIVITY
RILMED.OHMM  : MEDIUM INDUCTION RESISTIVITY
RLL8ED.OHMM  : LATEROLOG-8 RESISTIVITY
SPWS  .MV    : SPONTANEOUS POTENTIAL BASELINE 0 MV (SPRED)
SPRED .MV    : SPONTANEOUS POTENTIAL FROM RESISTIVITY
SRESWS.OHMM  : SHALLOW RESISTIVITY (RLL8ED)
~Params ----------------------------------------------------
EKB .F                  460.5 : KELLY BUSHING
EGL .F                    0.0 : GROUND LEVEL
EDF .F                    0.0 : DRILLING FLOOR
EPD .F                    0.0 : PERMANENT DATUM
TD  .F                10015.0 : TOTAL DEPTH
DATE.             09-NOV-1979 : DATE LOGGED
CLNT.                 A2DTECH : CLIENT CODE
SL  . 21900' FWL & 11800' FSL : SURFACE LOCATION
PD  .                      GL : PERMANENT DATUM
LMF .                      KB : LOG MEASURED FROM
DMF .                      KB : DRILLING MEASURED FROM
DAPD.F                     15 : FEET ABOVE PERMANENT DATUM
DD  .F                  10015 : DEPTH DRILLER
DL  .F                   9992 : DEPTH LOGGER
BLI .F                   9986 : BOTTOM LOG INTERVAL
TLI .F                   1519 : TOP LOG INTERVAL
CS1 .IN                 8.625 : CASING SIZE
CBD1.          8.625" @ 1520' : CASING DRILLER 1
CBL1.F                   1519 : CASING LOGGER 1
BS1 .IN                 7.875 : BIT SIZE
BSD1.F                  10015 : DEPTH DRILLED WITH BIT1
DFT .  LIGNITE-LIGNOSULFONATE : TYPE FLUID IN HOLE
DFD .                    10.8 : DENSITY
DFV .                      53 : VISCOSITY
DFPH.                      11 : PH
DFL .                     3.6 : FLUID LOSS
MSS .              CIRC. TANK : SOURCE OF SAMPLE
RMS .OHMM                0.92 : RM
RMF .OHMM                0.68 : RMF
RMC .OHMM                 1.0 : RMC
MFSS.                    MEAS : SOURCE RMF.
MCSS.                    CALC : SOURCE RMC.
RMB .OHMM                0.31 : RM. AT BHT
BHT .F                    220 : BHT.
TCS .HRS                  300 : TIME CIRC. STOPPED
TLAB.                     900 : TIME LOGGER AT BOTTOM
LUN .                    8132 : LOGGING UNIT NUMBER
LUL .                  LAREDO : LOGGING UNIT LOCATION
ENGI.                   FOGAL : RECORDED BY
WITN.                  FISHER : WITNESSED BY
ORIG.                5" PRINT : ORIGIN OF DATA
UWI .          42127318560000 : UNIQUE WELL ID
DICO.  A2D TECHNOLOGIES, INC. : DIGITIZING COMPANY
~Other -----------------------------------------------------
~ASCII -----------------------------------------------------
# ...
 3400.00000    -999.25    -999.25  212.76600    -999.25    -999.25    -999.25    -999.25    4.70000    -999.25   85.40800   85.40800   74.71700   74.71700    5.49000    -999.25    -999.25    -999.25    4.70000    5.49000    6.03100  -23.09130  -44.46500    6.03100
 3450.00000    -999.25    -999.25  550.35770    -999.25    -999.25    -999.25    -999.25    1.81700    -999.25  109.58900  109.58900  106.11900  106.11900    1.85100    -999.25    -999.25    -999.25    1.81700    1.85100    1.88500   -2.37670  -24.03300    1.88500
 3500.00000    -999.25    -999.25  220.11890    -999.25    -999.25    -999.25    -999.25    4.54300    -999.25   87.55200   87.55200  110.21900  110.21900    4.83000    -999.25    -999.25    -999.25    4.54300    4.83000    5.36100  -10.15710  -32.09600    5.36100
 3550.00000    -999.25    -999.25  219.15410    -999.25    -999.25    -999.25    -999.25    4.56300    -999.25   88.73100   88.73100  120.39500  120.39500    4.46800    -999.25    -999.25    -999.25    4.56300    4.46800    4.54600   -5.32280  -27.17100    4.54600
 3600.00000    -999.25    -999.25  160.30780    -999.25    -999.25    -999.25    -999.25    6.23800    -999.25   81.92200   81.92200  102.55200  102.55200    6.12500    -999.25    -999.25    -999.25    6.23800    6.12500    6.96200   -6.22900  -27.19300    6.96200
 3650.00000    -999.25    -999.25  214.59230    -999.25    -999.25    -999.25    -999.25    4.66000    -999.25   90.14000   90.14000  112.30100  112.30100    4.60900    -999.25    -999.25    -999.25    4.66000    4.60900    4.09800   -4.81220  -24.89200    4.09800
 3700.00000    -999.25    -999.25  285.06270    -999.25    -999.25    -999.25    -999.25    3.50800    -999.25   89.97700   89.97700  106.65400  106.65400    3.60300    -999.25    -999.25    -999.25    3.50800    3.60300    3.44500   -5.00850  -24.20400    3.44500
 3750.00000    -999.25    -999.25  452.28400    -999.25    -999.25    -999.25    -999.25    2.21100    -999.25   97.26000   97.26000  109.28400  109.28400    2.12200    -999.25    -999.25    -999.25    2.21100    2.12200    2.26300   -2.73070  -21.04200    2.26300
 3800.00000    -999.25    -999.25  489.95590    -999.25    -999.25    -999.25    -999.25    2.04100    -999.25  101.72200  101.72200  105.73100  105.73100    1.94600    -999.25    -999.25    -999.25    2.04100    1.94600    1.93700   -2.81590  -20.24300    1.93700
 3850.00000    -999.25    -999.25  480.30740    -999.25    -999.25    -999.25    -999.25    2.08200    -999.25   83.23100   83.23100   94.17100   94.17100    2.36900    -999.25    -999.25    -999.25    2.08200    2.36900    2.39000   -4.15610  -20.69900    2.39000
 3900.00000    -999.25    -999.25  506.84230    -999.25    -999.25    -999.25    -999.25    1.97300    -999.25  101.89100  101.89100  123.60100  123.60100    2.00900    -999.25    -999.25    -999.25    1.97300    2.00900    1.83400   -5.89430  -21.55300    1.83400
 3950.00000    -999.25    -999.25  576.03690    -999.25    -999.25    -999.25    -999.25    1.73600    -999.25  100.54300  100.54300  105.72400  105.72400    1.72000    -999.25    -999.25    -999.25    1.73600    1.72000    1.73700   -4.68160  -19.45600    1.73700
 4000.00000    -999.25    -999.25  434.02780    -999.25    -999.25    -999.25    -999.25    2.30400    -999.25   94.36100   94.36100   90.58800   90.58800    2.26300    -999.25    -999.25    -999.25    2.30400    2.26300    2.22200   -6.57310  -20.51000    2.22200
 4050.00000    -999.25    -999.25  592.06630    -999.25    -999.25    -999.25    -999.25    1.68900    -999.25  103.27300  103.27300   99.55300   99.55300    1.69500    -999.25    -999.25    -999.25    1.68900    1.69500    1.77100   -6.05720  -20.04400    1.77100
 4100.00000    -999.25    -999.25  402.25260    -999.25    -999.25    -999.25    -999.25    2.48600    -999.25   89.91800   89.91800   92.44000   92.44000    2.54800    -999.25    -999.25    -999.25    2.48600    2.54800    2.69200   -6.62840  -20.66500    2.69200
 4150.00000    -999.25    -999.25  295.68300    -999.25    -999.25    -999.25    -999.25    3.38200    -999.25   83.24000   83.24000   81.37900   81.37900    3.27600    -999.25    -999.25    -999.25    3.38200    3.27600    3.80900   -8.05950  -22.14600    3.80900
 4200.00000    -999.25    -999.25  144.07150    -999.25    -999.25    -999.25    -999.25    6.94100    -999.25   72.73200   72.73200   78.80800   78.80800    6.86900    -999.25    -999.25    -999.25    6.94100    6.86900    7.80200  -12.92960  -27.06600    7.80200
 4250.00000    -999.25    -999.25  189.82540    -999.25    -999.25    -999.25    -999.25    5.26800    -999.25   75.21100   75.21100   90.48000   90.48000    5.07900    -999.25    -999.25    -999.25    5.26800    5.07900    5.27100  -11.96480  -26.15100    5.27100
 4300.00000    -999.25    -999.25  137.85500    -999.25    -999.25    -999.25    -999.25    7.25400    -999.25   69.36600   69.36600   71.94200   71.94200    7.42100    -999.25    -999.25    -999.25    7.25400    7.42100    9.81900  -10.57390  -24.81000    9.81900
 4350.00000    -999.25    -999.25  154.53560    -999.25    -999.25    -999.25    -999.25    6.47100    -999.25   77.70500   77.70500   83.64500   83.64500    6.23800    -999.25    -999.25    -999.25    6.47100    6.23800    6.18200   -6.74610  -21.03200    6.18200
 4400.00000    -999.25    -999.25  182.94910    -999.25    -999.25    -999.25    -999.25    5.46600    -999.25   78.83400   78.83400   88.97800   88.97800    5.41500    -999.25    -999.25    -999.25    5.46600    5.41500    5.59100  -11.06720  -25.40300    5.59100
 4450.00000    -999.25    -999.25  250.81520    -999.25    -999.25    -999.25    -999.25    3.98700    -999.25   85.36700   85.36700   96.30600   96.30600    3.96600    -999.25    -999.25    -999.25    3.98700    3.96600    4.07900   -9.20240  -23.58800    4.07900
 4500.00000    -999.25    -999.25  174.30710    -999.25    -999.25    -999.25    -999.25    5.73700    -999.25   77.40100   77.40100   79.95500   79.95500    5.91000    -999.25    -999.25    -999.25    5.73700    5.91000    5.77200   -9.15950  -23.59500    5.77200
 4550.00000    -999.25    -999.25  336.13450    -999.25    -999.25    -999.25    -999.25    2.97500    -999.25   91.47600   91.47600  103.09700  103.09700    3.10100    -999.25    -999.25    -999.25    2.97500    3.10100    2.81700   -7.41560  -21.90100    2.81700
 4600.00000    -999.25    -999.25  175.10070    -999.25    -999.25    -999.25    -999.25    5.71100    -999.25   75.47700   75.47700   85.31700   85.31700    5.79900    -999.25    -999.25    -999.25    5.71100    5.79900    6.74300   -9.47980  -24.01500    6.74300
 4650.00000    -999.25    -999.25  174.03410    -999.25    -999.25    -999.25    -999.25    5.74600    -999.25   75.38500   75.38500   78.58900   78.58900    5.53700    -999.25    -999.25    -999.25    5.74600    5.53700    5.72000   -8.55690  -23.14200    5.72000
 4700.00000    -999.25    -999.25  417.36230    -999.25    -999.25    -999.25    -999.25    2.39600    -999.25   97.11200   97.11200   95.20900   95.20900    2.39000    -999.25    -999.25    -999.25    2.39600    2.39000    2.69200   -5.27610  -19.91100    2.69200
 4750.00000    -999.25    -999.25  266.80900    -999.25    -999.25    -999.25    -999.25    3.74800    -999.25   87.05100   87.05100   94.22100   94.22100    3.70600    -999.25    -999.25    -999.25    3.74800    3.70600    3.69200   -8.58320  -23.26800    3.69200
 4800.00000    -999.25    -999.25  182.61510    -999.25    -999.25    -999.25    -999.25    5.47600    -999.25   74.73500   74.73500   84.99600   84.99600    5.36500    -999.25    -999.25    -999.25    5.47600    5.36500    6.71200   -7.93930  -22.67400    6.71200
 4850.00000    -999.25    -999.25  272.33110    -999.25    -999.25    -999.25    -999.25    3.67200    -999.25   88.02000   88.02000   96.23500   96.23500    3.67200    -999.25    -999.25    -999.25    3.67200    3.67200    3.60600   -7.61950  -22.40400    3.60600
 4900.00000    -999.25    -999.25  248.57070    -999.25    -999.25    -999.25    -999.25    4.02300    -999.25   86.18900   86.18900   96.01900   96.01900    3.91400    -999.25    -999.25    -999.25    4.02300    3.91400    3.74000   -7.77060  -22.60500    3.74000
