~Version ---------------------------------------------------
VERS.      2.0 : CWLS log ASCII Standard -VERSION 2.0
WRAP.      YES : Multiple lines per depth step
CREA. 10/06/20 : LAS Creation Date
~Well ------------------------------------------------------
STRT.FT                 3150.0 : START DEPTH
STOP.FT                18400.0 : STOP DEPTH
STEP.FT               50.00000 : STEP LENGTH
NULL.                  -999.25 : NULL VALUE
COMP. AMOCO PRODUCTION COMPANY : COMPANY
WELL.       MARTIN GAS UNIT #1 : WELL
FLD .                  WILDCAT : FIELD
LOC .                          : LOCATION
CNTY.                     LEON : COUNTY
STAT.                    TEXAS : STATE
CTRY. UNITED STATES OF AMERICA : COUNTRY
SRVC.             Schlumberger : SERVICE COMPANY
DATE.              06-Oct-1998 : LOGDATE
API .           42289312900000 : API NUMBER
UWI .           42289312900000 : UNIQUE WELL ID
SLAT.WGS84       31.2448401024 : SURFACE LATITUDE
SLON.WGS84      -96.2384028977 : SURFACE LONGITUDE
~Curve Information -----------------------------------------
DEPT    .FT    : DEPTH FEET
AT20ED  .OHMM  : 20 INCH ARRAY RESISTIVITY TWO FOOT RESOLUTION FROM AIT LOG
AT30ED  .OHMM  : 30 INCH ARRAY RESISTIVITY TWO FOOT RESOLUTION FROM AIT LOG
AT60ED  .OHMM  : 60 INCH ARRAY RESISTIVITY TWO FOOT RESOLUTION FROM AIT LOG
AT90ED  .OHMM  : 90 INCH ARRAY RESISTIVITY TWO FOOT RESOLUTION FROM AIT LOG
BITSED  .IN    : BIT SIZE FROM RUN HEADERS
CALDED  .IN    : CALIPER FROM DENSITY LOG [DSH. TO GRRED]
CALWS   .IN    : CALIPER [TOP CALDED 14108' (DCALDED+BITSED) TD]
CONDWS  .MMHO  : DEEP CONDUCTIVITY [1000/DRESWS]
DCALDED .IN    : DIFFERENTIAL CALIPER FROM DENSITY LOG [DSH. TO GRRED]
DCORWS  .G/C3  : DENSITY CORRECTION [TOP DRHOED 16650' DRHED TD]
DENWS   .G/C3  : BULK DENSITY [CALC. FROM DPOLSWS]
DPHILSED.V/V   : DENSITY POROSITY (LS) [M=2.71 F=1.00] [DSH. TO GRRED]
DPOLSED .V/V   : DENSITY POROSITY (LS) [M=2.71 F=1.00] [DSH. TO GRRED]
DPOLSWS .V/V   : DENSITY POROSITY (LS) [M=2.71 F=1.00] [TOP DPHILSED 16650' DPOLSED TD]
DRESWS  .OHMM  : DEEP RESISTIVITY [TOP AT90ED 14100' ILDED 16650' IDPHED TD]
DRHED   .G/C3  : DENSITY CORRECTION FROM DENSITY LOG [DSH. TO GRRED]
DRHOED  .G/C3  : DENSITY CORRECTION FROM DENSITY LOG [DSH. TO GRRED]
DTCOED  .US/F  : DELTA TIME COMPRESSIONAL FROM SONIC LOG
DTLFED  .US/F  : DELTA TIME LONG SPACING FAR DETECTOR FROM SONIC LOG
DTLNED  .US/F  : DELTA TIME LONG SPACING NEAR DETECTOR FROM SONIC LOG
DTSMED  .US/F  : DELTA TIME SHEAR WAVE FROM SONIC LOG
DTSWS   .US/F  : DELTA TIME SHEAR [DTSMED]
DTWS    .US/F  : DELTA TIME COMPRESSIONAL [TOP DTCOED 16650' DTLNED TD]
GRDED   .GAPI  : GAMMA RAY FROM DENSITY LOG [DSH. TO GRRED]
GRRED   .GAPI  : GAMMA RAY FROM RESISTIVITY LOG
GRWS    .GAPI  : GAMMA RAY [GRRED][RESCALED GRWS IN CSG )14030-14106' & 16606-16645') FROM 0/90-0/150]
IDPHED  .OHMM  : DEEP INDUCTION PHASE RESISTIVITY
ILDED   .OHMM  : DEEP INDUCTION RESISTIVITY
ILMED   .OHMM  : MEDIUM INDUCTION RESISTIVITY
IMPHED  .OHMM  : MEDIUM INDUCTION PHASE RESISTIVITY
MRESWS  .OHMM  : MEDIUM RESISTIVITY [TOP AT30ED 14100' ILMED 16650' IMPHED TD]
NPHILSED.V/V   : NEUTRON POROSITY (LS) [DSH. TO GRRED]
NPOLSWS .V/V   : NEUTRON POROSITY (LS) [NPHILSED]
PEFED   .B/E   : PHOTOELECTRIC FACTOR FROM DENSITY LOG [DSH. TO GRRED]
PEFWS   .B/E   : PHOTOELECTRIC FACTOR [PEFED]
SFLUED  .OHMM  : SPHERICALLY FOCUSED UNAVERAGED RESISTIVITY
SPWS    .MV    : SPONTANEOUS POTENTIAL [BASELINE 0 MV] [SPRED]
SPRED   .MV    : SPONTANEOUS POTENTIAL FROM RESISTIVITY LOG
SRESWS  .OHMM  : SHALLOW RESISTIVITY [TOP AT20ED 14100' SFLUED TD]
TENDED  .LBF   : TENSION FROM DENSITY LOG [DSH. TO GRRED]
TENRED  .LBF   : TENSION FROM RESISTIVITY LOG
~Params ----------------------------------------------------
PD  .                     GL : PERMANENT DATUM
EPD .FT                389.3 : ELEVATION PERMANENT DATUM
LMF .                     KB : LOG MEASURED FROM
DAPD.FT                 33.7 : MEASUREMENT ABOVE PERMANENT DATUM
DMF .                     KB : DRILLING MEASURED FROM
EKB .FT                  423 : KELLY BUSHING
EDF .FT                  422 : DRILLING FLOOR
EGL .FT                389.3 : GROUND LEVEL
DATE.               10/06/98 : RUN DATE
RUN .                      3 : RUN NUMBER
DD  .FT                18400 : DEPTH DRILLER
DL  .FT                18391 : DEPTH LOGGER
BLI .FT                18381 : BOTTOM LOG INTERVAL
TLI .FT                16646 : TOP LOG INTERVAL
CS  .IN                7.625 : CASING SIZE
CBD .FT                16650 : CASING BOTTOM DRILLER
CBL .FT                16646 : CASING BOTTOM LOGGER
BS  .IN                 6.25 : BIT SIZE
BSD .FT                18400 : BIT SIZE AT DEPTH
DFT .             VERSADRILL : DRILLING FLUID TYPE
DFD .                   17.9 : DRILLING FLUID DENSITY
DFV .                     45 : DRILLING FLUID VISCOSITY
MSS .                MUD PIT : MUD SAMPLE SOURCE
MFSS.                   CALC : MUD FILTRATE SAMPLE SOURCE
MCSS.                   CALC : MUD CAKE SAMPLE SOURCE
TCS .HRS                 830 : TIME CIRCULATED STOPPED
TLAB.HRS                2357 : TIME LOGGER AT BOTTOM
LUN .                   2142 : LOGGING UNIT NUMBER
LUL .                  TYLER : LOGGING UNIT LOCATION
ENGI.                SKRBICH : RECORDING ENGINEER
WITN.       WALKER WYSZYNSKI : WITNESSED BY
CLNT.                A2DTECH : CLIENT CODE
ORIG.         1" 2" 5" PRINT : ORIGIN OF DATA
UWI .         42289312900000 : UNIQUE WELL ID
DICO. A2D Technologies, Inc. : DIGITIZING COMPANY
~Other -----------------------------------------------------
1) RESISTIVITY INVALID 14360-14404', 15400-15475 NULLED (REPEAT LOG N/A). PATCHED FROM REPEAT LOG 15950-15980' & 16590-16645'.
2) GRRED PATCHED FROM REPEAT LOG 15400-15500 & 16550-16606'.
3) SONIC NOT LOGGED 14100-16650' AND ERRATIC ON SOME AREAS ABOVE 6300' WITH SOME GAPS AND SPIKES HENCE PATCHED SOME SMALL AREAS.
4) LDL/CNL STICKING TOOL ENTIRE RUN2 - NULLED PEF INVALID @ 15410-15625' & 15730-15410', PATCHED DENSITY@16025-16040', PATCHED NEUTRON@14295-14320' & PATCHED GRDED@VARIOUS DEPTHS BASED ON GRRED. ANY DOUBTS, PLEASE REFER TO ORIGINAL CURVES IN STANDARD LAS. STICKING TOOL MAY SLIGHTLY AFFECT LOG QUALITY ON OTHER AREAS, PLEASE USE WITH CAUTIONS.
~ASCII -----------------------------------------------------
# ...
 6750.00000    6.87530    7.20930    8.75530    8.49380   12.25000   13.84480   13.84480  117.73290    -999.25    0.00610    2.66830    0.02440    -999.25    0.02440    8.49380    -999.25    0.00610   60.24580    -999.25    -999.25  121.67800  121.67800   60.24580   21.61820   23.62680   23.62680    -999.25    -999.25    -999.25    -999.25    7.20930    0.05170    0.05170    6.72470    6.72470    -999.25   -7.17700  -20.92300    6.87530 2951.10250 3157.19120
 6800.00000    9.63110   14.68940   17.52420   15.41400   12.25000   13.45290   13.45290   64.87610    -999.25   -0.00470    2.65320    0.03320    -999.25    0.03320   15.41400    -999.25   -0.00470   58.28750    -999.25    -999.25  109.54580  109.54580   58.28750   16.19870   18.67940   18.67940    -999.25    -999.25    -999.25    -999.25   14.68940    0.03800    0.03800    6.04590    6.04590    -999.25  -13.80460  -28.78810    9.63110 3000.39380 3182.99760
 6850.00000    6.63340    8.31780   11.01540    9.01030   12.25000   14.60060   14.60060  110.98410    -999.25    0.00360    2.61270    0.05690    -999.25    0.05690    9.01030    -999.25    0.00360   63.62210    -999.25    -999.25  129.90680  129.90680   63.62210   31.42280   30.95790   30.95790    -999.25    -999.25    -999.25    -999.25    8.31780    0.06720    0.06720    6.49690    6.49690    -999.25   -4.54950  -20.77040    6.63340 3016.32080 3195.90600
 6900.00000   10.84950   14.05640   18.81360   18.51760   12.25000   13.41920   13.41920   54.00270    -999.25   -0.00200    2.65700    0.03100    -999.25    0.03100   18.51760    -999.25   -0.00200   58.33240    -999.25    -999.25  112.43050  112.43050   58.33240   41.01090   36.98820   36.98820    -999.25    -999.25    -999.25    -999.25   14.05640    0.03990    0.03990    5.86240    5.86240    -999.25  -21.28790  -38.88860   10.84950 2954.78880 3224.85570
 6950.00000    9.10410   11.59640   15.98580   14.44600   12.25000   13.82880   13.82880   69.22330    -999.25    0.00100    2.67410    0.02100    -999.25    0.02100   14.44600    -999.25    0.00100   59.10190    -999.25    -999.25  115.19300  115.19300   59.10190   28.57510   31.03920   31.03920    -999.25    -999.25    -999.25    -999.25   11.59640    0.02730    0.02730    5.82890    5.82890    -999.25  -13.14530  -32.31460    9.10410 2990.69310 3225.31010
 7000.00000    2.81290    2.91080    3.32420    3.24080   12.25000   14.02170   14.02170  308.56580    -999.25    0.02130    2.50910    0.11750    -999.25    0.11750    3.24080    -999.25    0.02130   68.76950    -999.25    -999.25  135.75550  135.75550   68.76950   55.14500   51.38790   51.38790    -999.25    -999.25    -999.25    -999.25    2.91080    0.19650    0.19650    5.95300    5.95300    -999.25   -7.16340  -27.90120    2.81290 3081.94870 3255.41530
 7050.00000    4.34670    5.81960    6.77060    6.31230   12.25000   14.50050   14.50050  158.42090    -999.25    0.01450    2.60450    0.06170    -999.25    0.06170    6.31230    -999.25    0.01450   74.50130    -999.25    -999.25  142.63500  142.63500   74.50130   48.32910   51.61080   51.61080    -999.25    -999.25    -999.25    -999.25    5.81960    0.11410    0.11410    5.03260    5.03260    -999.25   -4.95670  -27.26300    4.34670 3073.54790 3272.47360
 7100.00000    6.79530    7.80000    9.59640    9.05300   12.25000   13.86610   13.86610  110.46060    -999.25    0.00480    2.66380    0.02700    -999.25    0.02700    9.05300    -999.25    0.00480   58.98930    -999.25    -999.25   85.30680   85.30680   58.98930   34.82520   35.82530   35.82530    -999.25    -999.25    -999.25    -999.25    7.80000    0.07440    0.07440    5.57650    5.57650    -999.25   -5.87550  -29.75040    6.79530 3059.98850 3294.09330
 7150.00000    1.33610    1.46180    1.70490    1.67670   12.25000   15.39140   15.39140  596.40960    -999.25    0.13820    2.33280    0.22060    -999.25    0.22060    1.67670    -999.25    0.13820   90.31630    -999.25    -999.25  125.85600  125.85600   90.31630   55.31860   50.19040   50.19040    -999.25    -999.25    -999.25    -999.25    1.46180    0.32200    0.32200    5.11780    5.11780    -999.25   -3.11880  -28.56220    1.33610 3081.69820 3323.23680
 7200.00000    1.81880    2.09140    2.31830    2.27950   12.25000   15.93220   15.93220  438.69270    -999.25    0.07470    2.54700    0.09530    -999.25    0.09530    2.27950    -999.25    0.07470   76.85790    -999.25    -999.25  110.33150  110.33150   76.85790   42.18180   36.50750   36.50750    -999.25    -999.25    -999.25    -999.25    2.09140    0.25880    0.25880    4.42250    4.42250    -999.25   -2.94750  -29.95940    1.81880 3134.12060 3310.78100
 7250.00000    4.52420    5.08680    5.55900    5.47220   12.25000   13.46750   13.46750  182.74190    -999.25   -0.00020    2.68790    0.01290    -999.25    0.01290    5.47220    -999.25   -0.00020   65.52060    -999.25    -999.25  134.42260  134.42260   65.52060   44.96680   37.51970   37.51970    -999.25    -999.25    -999.25    -999.25    5.08680    0.10970    0.10970    4.92590    4.92590    -999.25   -5.50170  -34.08220    4.52420 3067.05420 3375.30660
 7300.00000    3.23170    3.71560    4.25900    4.05050   12.25000   14.18230   14.18230  246.88310    -999.25    0.07170    2.51850    0.11200    -999.25    0.11200    4.05050    -999.25    0.07170   67.34260    -999.25    -999.25  123.53660  123.53660   67.34260   34.04090   34.73720   34.73720    -999.25    -999.25    -999.25    -999.25    3.71560    0.15150    0.15150    6.86730    6.86730    -999.25   -5.19510  -35.34410    3.23170 3146.42020 3385.02830
 7350.00000    2.49810    2.85920    3.26860    3.19820   12.25000   16.48240   16.48240  312.67590    -999.25    0.06750    2.52220    0.10980    -999.25    0.10980    3.19820    -999.25    0.06750   76.50870    -999.25    -999.25  115.16170  115.16170   76.50870   45.65900   38.83060   38.83060    -999.25    -999.25    -999.25    -999.25    2.85920    0.17190    0.17190    5.63890    5.63890    -999.25   -3.22130  -34.93880    2.49810 3163.96680 3393.42680
 7400.00000    1.19190    1.45160    1.65580    1.55900   12.25000   17.82930   17.82930  641.43680    -999.25   -0.00470    1.94390    0.44800    -999.25    0.44800    1.55900    -999.25   -0.00470   49.93930    -999.25    -999.25   90.41620   90.41620   49.93930   33.97520   35.35040   35.35040    -999.25    -999.25    -999.25    -999.25    1.45160    0.27880    0.27880    7.58390    7.58390    -999.25   -2.35580  -35.65360    1.19190 3150.58370 3443.57150
 7450.00000    2.21630    2.37120    2.64410    2.52830   12.25000   14.55670   14.55670  395.52270    -999.25    0.00360    2.22440    0.28400    -999.25    0.28400    2.52830    -999.25    0.00360   69.31820    -999.25    -999.25   84.04980   84.04980   69.31820   34.23740   33.05100   33.05100    -999.25    -999.25    -999.25    -999.25    2.37120    0.21480    0.21480    6.95750    6.95750    -999.25   -3.49700  -38.65600    2.21630 3161.01660 3409.25320
 7500.00000    3.26860    3.50170    3.76290    3.69670   12.25000   13.10160   13.10160  270.51150    -999.25    0.03050    2.58980    0.07030    -999.25    0.07030    3.69670    -999.25    0.03050   67.58590    -999.25    -999.25  140.25720  140.25720   67.58590   37.51570   31.90590   31.90590    -999.25    -999.25    -999.25    -999.25    3.50170    0.12030    0.12030    6.01110    6.01110    -999.25   -3.62540  -40.64560    3.26860 3251.06180 3416.86080
 7550.00000    0.87660    0.99790    1.21500    1.12250   12.25000   15.96790   15.96790  890.86860    -999.25    0.00400    1.93980    0.45040    -999.25    0.45040    1.12250    -999.25    0.00400  125.24260    -999.25    -999.25  140.45800  140.45800  125.24260   52.53450   42.02810   42.02810    -999.25    -999.25    -999.25    -999.25    0.99790    0.44100    0.44100    8.97700    8.97700    -999.25   -2.30530  -41.18670    0.87660 3302.79520 3450.87700
 7600.00000    9.31930    8.93830   15.25850   11.11000   12.25000   13.41280   13.41280   90.00900    -999.25    0.00320    2.64230    0.03960    -999.25    0.03960   11.11000    -999.25    0.00320   58.55250    -999.25    -999.25  118.50560  118.50560   58.55250   23.42110   20.50120   20.50120    -999.25    -999.25    -999.25    -999.25    8.93830    0.05100    0.05100    6.84360    6.84360    -999.25   -5.92570  -46.66830    9.31930 3262.69340 3453.75000
