~Version ---------------------------------------------------
VERS. 2.0 : CWLS log ASCII Standard -VERSION 2.0
WRAP. YES : MULTIPLE LINES PER DEPTH STEP
~Well ------------------------------------------------------
STRT.FT                   3850.0 : START DEPTH
STOP.FT                   7900.0 : STOP DEPTH
STEP.FT                 50.00000 : STEP LENGTH
NULL.                    -999.25 : NULL VALUE
COMP. CHAMPLIN PETROLEUM COMPANY : COMPANY
WELL.     BARTLETT JONES UNIT #1 : WELL
FLD .                   GIDDINGS : FIELD
LOC .                            : LOCATION
CNTY.                   BURLESON : COUNTY
STAT.                      TEXAS : STATE
CTRY.   UNITED STATES OF AMERICA : COUNTRY
SRVC.               Schlumberger : SERVICE COMPANY
DATE.                11-Aug-1980 : LOGDATE
API .             42051307650000 : API NUMBER
UWI .             42051307650000 : UNIQUE WELL ID
SLAT.WGS84         30.4866760787 : SURFACE LATITUDE
SLON.WGS84        -96.6964627784 : SURFACE LONGITUDE
~Curve Information -----------------------------------------
DEPT    .FT    : DEPTH FEET
CALWS   .IN    : CALIPER [DCALED+8.25]
CONDWS  .MMHO  : CONDUCTIVITY [1000/DRESWS]
DCALED  .IN    : DIFFERENTIAL CALIPER FROM DUAL INDUCTION-SFL CNFD LOG
DCORWS  .G/C3  : DENSITY CORRECTION [DRHOED]
DENWS   .G/C3  : BULK DENSITY [M=2.71 F=1.0] [CALCULATED FROM DPOWS]
DPHILSED.V/V   : DENSITY POROSITY [M=2.71 F=1.0] FROM DUAL INDUCTION-SFL CNFD LOG
DPHISSED.V/V   : DENSITY POROSITY [M=2.65 F=1.0] FROM DUAL INDUCTION-SFL CNFD LOG
DPOWS   .V/V   : DENSITY POROSITY [M=2.71 F=1.0] [DPHILSED AND DPHISSED]
DRESWS  .OHMM  : DEEP RESISTIVITY [ILDED]
DRHOED  .G/C3  : DENSITY CORRECTION FROM DUAL INDUCTION-SFL CNFD LOG
GRRED   .GAPI  : GAMMA RAY FROM DUAL INDUCTION-SFL CNFD LOG
GRWS    .GAPI  : GAMMA RAY [GRRED, 3844-3880 above casing]
ILDED   .OHMM  : INDUCTION LOG DEEP FROM DUAL INDUCTION-SFL CNFD LOG
ILMED   .OHMM  : INDUCTION LOG MEDIUM FROM DUAL INDUCTION-SFL CNFD LOG
MRESWS  .OHMM  : MEDIUM RESISTIVITY [ILMED]
NPHILSED.V/V   : NEUTRON POROSITY LIMESTONE FROM DUAL INDUCTION-SFL CNFD LOG
NPHISSED.V/V   : NEUTRON POROSITY SANDSTONE FROM DUAL INDUCTION-SFL CNFD LOG
NPOWS   .V/V   : NEUTRON POROSITY LIMESTONE [NPHILSED & NPHISSED at 3844-3880 above casing]
SFLUED  .OHMM  : SPHERICALLY FOCUSED FOM DUAL INDUCTION-SFL CNFD LOG
SPRED   .MV    : SPONTANEOUS POTENTIAL FROM DUAL INDUCTION-SFL CNFD LOG
SPWS    .MV    : SPONTANEOUS POTENTIAL [BASELINE 0 MV] [SPRED]
SRESWS  .OHMM  : SHALLOW RESISTIVITY [SFLUED]
~Params ----------------------------------------------------
PD  .                     GL : PERMANENT DATUM
EPD .FT                  338 : ELEVATION PERMANENT DATUM
LMF .                     KB : LOG MEASURED FROM
DAPD.FT                   19 : FEET ABOVE PERMANENT DATUM
DMF .                     KB : DRILLING MEASURED FROM
EKB .FT                  357 : KELLY BUSHING
EDF .FT                  356 : DRILLING FLOOR
EGL .FT                  338 : GROUND LEVEL
DATE.               08/11/80 : RUN DATE
RUN .                      1 : RUN NUMBER
DD  .FT                 7937 : DEPTH DRILLER
DL  .FT                 7929 : DEPTH LOGGER
BLI .FT                 7922 : BOTTOM LOG INTERVAL
TLI .FT                 3873 : TOP LOG INTERVAL
CS  .IN                9.625 : CASING SIZE
CBD .FT                 3878 : CASING BOTTOM DRILLER
CBL .FT                 3873 : CASING BOTTOM LOGGER
BS  .IN                 8.75 : BIT SIZE
BSD .FT                 7937 : BIT SIZE AT DEPTH
DFT .                        : DRILLING FLUID TYPE
DFD .                    9.2 : DRILLING FLUID DENSITY
DFV .                     42 : DRILLING FLUID VISCOSITY
DFPH.                   11.5 : DRILLING FLUID PH
DFL .                    7.1 : DRILLING FLUID LOSS
MSS .               CIRC PIT : MUD SAMPLE SOURCE
RMS .OHMM                1.3 : RESISTIVITY MUD SAMPLE
MST .DEGF                 82 : MUD SAMPLE TEMPERATURE
RMF .OHMM               1.35 : RESISTIVITY MUD FILTRATE SAMPLE
MFST.DEGF                 75 : MUD FILTRATE SAMPLE TEMPERATURE
RMC .OHMM               2.85 : RESISTIVITY MUD CAKE
MCST.DEGF                 80 : MUD CAKE SAMPLE TEMPERATURE
MFSS.                   MEAS : MUD FILTRATE SAMPLE SOURCE
MCSS.                   MEAS : MUD CAKE SAMPLE SOURCE
RMB .OHMM               0.75 : RESISTIVITY MUD AT BHT
TCS .HRS                   0 : TIME CIRCULATED STOPPED
TLAB.HRS                   0 : TIME LOGGER AT BOTTOM
LUN .                   8096 : LOGGING UNIT NUMBER
LUL .                        : LOGGING UNIT LOCATION
ENGI.                 HEDRIC : RECORDING ENGINEER
WITN.                 SCHELL : WITNESSED BY
CLNT.                A2DTECH : CLIENT CODE
ORIG.          1" 2.5" PRINT : ORIGIN OF DATA
UWI .         42051307650000 : UNIQUE WELL ID
DICO. A2D Technologies, Inc. : DIGITIZING COMPANY
OS  .                        : OTHER SERVICES
PWI .                        : PRIMARY WELL IDENTIFIER
R1  .                        : REMARKS 1
R2  .                        : REMARKS 2
LSRV.                        : LOG MNEMONIC
~Other -----------------------------------------------------
~ASCII -----------------------------------------------------
# ...
 7050.00000    9.93060  552.39460    1.68060    0.10050    2.56570    0.08440    -999.25    0.08440    1.81030    0.10050  111.17620  111.17620    1.81030    1.96370    1.96370    0.24850    -999.25    0.24850    2.24850  -19.13450   -4.12870    2.24850
 7100.00000   10.83760  595.06100    2.58760    0.08070    2.55710    0.08940    -999.25    0.08940    1.68050    0.08070  107.46310  107.46310    1.68050    1.80130    1.80130    0.27430    -999.25    0.27430    2.10170  -22.27600   -6.51650    2.10170
 7150.00000    8.89170  266.63110    0.64170    0.00660    2.60180    0.06330    -999.25    0.06330    3.75050    0.00660   76.53250   76.53250    3.75050    4.11400    4.11400    0.11670    -999.25    0.11670    4.24750  -17.60990   -1.09670    4.24750
 7200.00000    9.01200  237.09040    0.76200    0.07190    2.56860    0.08270    -999.25    0.08270    4.21780    0.07190   68.80450   68.80450    4.21780    4.45710    4.45710    0.14330    -999.25    0.14330    4.32140  -22.97500   -5.30420    4.32140
 7250.00000    8.95100  169.90620    0.70100    0.04270    2.60710    0.06020    -999.25    0.06020    5.88560    0.04270   32.63380   32.63380    5.88560    5.97980    5.97980    0.09900    -999.25    0.09900    6.12540  -39.56310  -20.73070    6.12540
 7300.00000    8.70140  134.47550    0.45140    0.00090    2.60770    0.05980    -999.25    0.05980    7.43630    0.00090   35.54870   35.54870    7.43630    7.95030    7.95030    0.06830    -999.25    0.06830   12.44940  -31.33390  -11.33980   12.44940
 7350.00000    8.35800  112.91010    0.10800    0.01010    2.58430    0.07350    -999.25    0.07350    8.85660    0.01010   45.92520   45.92520    8.85660    9.26180    9.26180    0.10020    -999.25    0.10020    9.50910  -45.77850  -25.40450    9.50910
 7400.00000    8.71300  114.87120    0.46300   -0.00270    2.56190    0.08660    -999.25    0.08660    8.70540   -0.00270   48.84430   48.84430    8.70540    9.27250    9.27250    0.10810    -999.25    0.10810    9.70510  -40.43770  -20.85660    9.70510
 7450.00000    8.81540   93.96990    0.56540    0.01230    2.60380    0.06210    -999.25    0.06210   10.64170    0.01230   25.15870   25.15870   10.64170   12.06510   12.06510    0.07260    -999.25    0.07260   16.04790  -51.09800  -32.30970   16.04790
 7500.00000    8.65180   41.18210    0.40180    0.00740    2.57880    0.07670    -999.25    0.07670   24.28240    0.00740   29.61830   29.61830   24.28240   24.32860   24.32860    0.08960    -999.25    0.08960   31.49890  -27.01720   -9.88210   31.49890
 7550.00000   11.47730  434.57480    3.22730    0.09970    2.59220    0.06890    -999.25    0.06890    2.30110    0.09970  124.08960  124.08960    2.30110    2.00930    2.00930    0.34690    -999.25    0.34690    4.02750  -21.87620   -9.89250    4.02750
 7600.00000    9.08240  192.82680    0.83240    0.02120    2.49620    0.12500    -999.25    0.12500    5.18600    0.02120  114.67830  114.67830    5.18600    5.63090    5.63090    0.25730    -999.25    0.25730    5.98470   -5.02470   -1.99760    5.98470
 7650.00000    8.91370   77.66270    0.66370   -0.00150    2.43020    0.16360    -999.25    0.16360   12.87620   -0.00150  117.16870  117.16870   12.87620   13.32440   13.32440    0.26590    -999.25    0.26590   19.71370   -1.51250   -3.21340   19.71370
 7700.00000    9.39380  156.73740    1.14380    0.07430    2.58500    0.07310    -999.25    0.07310    6.38010    0.07430  107.98210  107.98210    6.38010    7.46060    7.46060    0.20490    -999.25    0.20490   24.36290   -0.48730   -3.97860   24.36290
 7750.00000   10.62640  350.79100    2.37640    0.07610    2.55010    0.09350    -999.25    0.09350    2.85070    0.07610  119.91290  119.91290    2.85070    2.61940    2.61940    0.32300    -999.25    0.32300    4.28210  -11.03460  -15.11330    4.28210
 7800.00000    8.47500  184.47120    0.22500    0.01280    2.67030    0.02320    -999.25    0.02320    5.42090    0.01280   61.41670   61.41670    5.42090    5.82740    5.82740    0.14140    -999.25    0.14140    7.19130   -2.18880   -8.75740    7.19130
 7850.00000    8.30320  108.41400    0.05320    0.03430    2.64520    0.03790    -999.25    0.03790    9.22390    0.03430   92.42670   92.42670    9.22390    9.52520    9.52520    0.13610    -999.25    0.13610   11.21910    6.07770   -4.41590   11.21910
 7900.00000    8.05420   31.63000   -0.19580    0.10120    2.72970   -0.01150    -999.25   -0.01150   31.61560    0.10120    -999.25    -999.25   31.61560   28.38400   28.38400    -999.25    -999.25    -999.25   32.37650  -19.11600  -10.27790   32.37650
