~Version ---------------------------------------------------
VERS. 2.0 : CWLS log ASCII Standard -VERSION 2.0
WRAP. YES : MULTIPLE LINES PER DEPTH STEP
~Well ------------------------------------------------------
STRT.FT                  300.0 : START DEPTH
STOP.FT                14400.0 : STOP DEPTH
STEP.FT               50.00000 : STEP LENGTH
NULL.                  -999.25 : NULL VALUE
COMP.              CONOCO INC. : COMPANY
WELL.       JACQUELYN WOODS #1 : WELL
FLD .                  WILDCAT : FIELD
LOC .                          : LOCATION
CNTY.                ROBERTSON : COUNTY
STAT.                    TEXAS : STATE
CTRY. UNITED STATES OF AMERICA : COUNTRY
SRVC.                          : SERVICE COMPANY
DATE.                          : LOGDATE
API .           42395302880000 : API NUMBER
UWI .           42395302880000 : UNIQUE WELL ID
SLAT.WGS84       31.0997639251 : SURFACE LATITUDE
SLON.WGS84      -96.4923364329 : SURFACE LONGITUDE
~Curve Information -----------------------------------------
DEPT  .FT    : DEPTH
ACED  .US/F  : DELTA TIME
CALRED.IN    : CALIPER FROM RESISTIVITY LOG
RILMED.OHMM  : MEDIUM INDUCTION RESISTIVITY
RFOCED.OHMM  : SHALLOW FOCUSED RESISTIVITY
RILDED.OHMM  : DEEP INDUCTION RESISTIVITY
GRRED .GAPI  : GAMMA RAY FROM RESISTIVITY LOG
TENRED.LBS   : TENSION FROM RESISTIVITY LOG
SFLUED.OHMM  : SPHERICALLY FOCUSED RESISTIVITY
GRDED .GAPI  : GAMMA RAY FROM DENSITY LOG
CALDED.IN    : CALIPER FROM DENSITY LOG
DRHOED.G/C3  : DENSITY CORRECTION
NPHIED.V/V   : NEUTRON POROSITY
RHOBED.G/C3  : BULK DENSITY
TENDED.LBS   : TENSION FROM DENSITY LOG
SRESWS.OHMM  : SHALLOW RESISTIVITY (RFOC+SFLU)
CALWS .IN    : CALIPER
SPED  .MV    : SPONTANEOUS POTENTIAL (BASELINE -10 MV)
SPWS  .MV    : SPONTANEOUS POTENTIAL (BASELINE -10 MV)
DCORWS.G/C3  : DENSITY CORRECTION
GRWS  .GAPI  : GAMMA RAY
DRESWS.OHMM  : DEEP RESISTIVITY (RILD)
MRESWS.OHMM  : MEDIUM RESISTIVITY (RILM)
CONDWS.MMHO  : CONDUCTIVITY FROM DEEP RESISTIVITY
DENWS .G/C3  : BULK DENSITY
DPOWS .V/V   : DENSITY POROSITY (M=2.71 F=1)
NPOWS .V/V   : NEUTRON POROSITY
DTWS  .V/V   : DELTA TIME
~Params ----------------------------------------------------
EKB .F                 513.38 : KELLY BUSHING
EGL .F                 483.38 : ELEVATION GROUND LEVEL
EDF .F                 512.38 : ELEVATION DERRICK FLOOR
EPD .F                 483.38 : ELEVATION PERMANENT DATUM
TD  .F                12197.0 : TOTAL DEPTH
DATE.             17-MAR-1984 : DATE LOGGED
CLNT.                 A2DTECH : CLIENT CODE
SL  . 3400' FNEL & 3500' FNWL : SURFACE LOCATION
PD  .                      GL : PERMANENT DATUM
LMF .                      KB : LOG MEASURED FROM
DMF .                      KB : DRILLING MEASURED FROM
DAPD.F                     30 : FEET ABOVE PERMANENT DATUM
DD  .F                  12195 : DEPTH DRILLER
DL  .F                  12197 : DEPTH LOGGER
BLI .F                  12195 : BOTTOM LOG INTERVAL
TLI .F                  11950 : TOP LOG INTERVAL
CS1 .IN                13.375 : CASING SIZE
CBD1.         13.375" @ 5096' : CASING DRILLER 1
BS1 .IN                 12.25 : BIT SIZE
BSD1.F                  12195 : DEPTH DRILLED WITH BIT1
DFT .             GEL/CAUSTIC : TYPE FLUID IN HOLE
DFD .                     9.8 : DENSITY
DFV .                      44 : VISCOSITY
DFPH.                      11 : PH
DFL .                    11.2 : FLUID LOSS
MSS .                    TANK : SOURCE OF SAMPLE
RMS .OHMM                1.95 : RM
RMF .OHMM                1.35 : RMF
RMC .OHMM                2.53 : RMC
MFSS.                    MEAS : SOURCE RMF.
MCSS.                    MEAS : SOURCE RMC.
RMB .OHMM                0.59 : RM. AT BHT
BHT .F                    246 : BHT.
TCS .HRS                    6 : TIME CIRC. STOPPED
TLAB.HRS                    - : TIME LOGGER AT BOTTOM
LUN .                 HL 6304 : LOGGING UNIT NUMBER
LUL .                   BRYAN : LOGGING UNIT LOCATION
ENGI.               R.R. KIRK : RECORDED BY
WITN.            GALE CLAYTOR : WITNESSED BY
ORIG.                5" PRINT : ORIGIN OF DATA
UWI .          42395302880000 : UNIQUE WELL ID
DICO.  A2D TECHNOLOGIES, INC. : DIGITIZING COMPANY
~Other -----------------------------------------------------
# NPHI 890 01 (LIMESTONE)
~ASCII -----------------------------------------------------
# ...
 2900.00000  100.82700   16.21600    1.82500    2.42900    1.75600   56.35400    0.00000    -999.25    -999.25    -999.25    -999.25    -999.25    -999.25    -999.25    2.42900   16.21600  -18.39950  -18.39950    -999.25   56.35400    1.75600    1.82500  569.47610    -999.25    -999.25    -999.25  100.82700
 2950.00000  102.54800   16.19700    2.32900    2.73900    2.26700   53.30800    0.00000    -999.25    -999.25    -999.25    -999.25    -999.25    -999.25    -999.25    2.73900   16.19700  -21.56640  -21.56640    -999.25   53.30800    2.26700    2.32900  441.11160    -999.25    -999.25    -999.25  102.54800
 3000.00000  113.93900   16.19700    1.44400    2.29100    1.42200   62.17600   32.98500    -999.25    -999.25    -999.25    -999.25    -999.25    -999.25    -999.25    2.29100   16.19700  -14.33820  -14.33820    -999.25   62.17600    1.42200    1.44400  703.23490    -999.25    -999.25    -999.25  113.93900
 3050.00000  120.46700   16.17300    1.39500    2.18800    1.37600   59.47600    0.00000    -999.25    -999.25    -999.25    -999.25    -999.25    -999.25    -999.25    2.18800   16.17300  -14.52310  -14.52310    -999.25   59.47600    1.37600    1.39500  726.74410    -999.25    -999.25    -999.25  120.46700
 3100.00000  113.86200   16.03700    1.30400    2.14600    1.25400   60.62000   20.95600    -999.25    -999.25    -999.25    -999.25    -999.25    -999.25    -999.25    2.14600   16.03700  -13.32290  -13.32290    -999.25   60.62000    1.25400    1.30400  797.44820    -999.25    -999.25    -999.25  113.86200
 3150.00000  117.63500    -999.25    1.09500    1.90400    1.04900   87.92300    0.00000    -999.25    -999.25    -999.25    -999.25    -999.25    -999.25    -999.25    1.90400    -999.25  -12.84480  -12.84480    -999.25   87.92300    1.04900    1.09500  953.28880    -999.25    -999.25    -999.25  117.63500
 3200.00000  118.94800   16.25700    1.07500    1.95400    0.99100   63.84400   93.68800    -999.25    -999.25    -999.25    -999.25    -999.25    -999.25    -999.25    1.95400   16.25700  -21.46550  -21.46550    -999.25   63.84400    0.99100    1.07500 1009.08170    -999.25    -999.25    -999.25  118.94800
 3250.00000  118.83700   16.23300    1.01800    2.00500    0.98400   62.69500    4.93100    -999.25    -999.25    -999.25    -999.25    -999.25    -999.25    -999.25    2.00500   16.23300  -24.80410  -24.80410    -999.25   62.69500    0.98400    1.01800 1016.26010    -999.25    -999.25    -999.25  118.83700
 3300.00000  119.18800   16.20500    1.01700    1.94400    0.96400   61.77600    0.00000    -999.25    -999.25    -999.25    -999.25    -999.25    -999.25    -999.25    1.94400   16.20500  -22.11180  -22.11180    -999.25   61.77600    0.96400    1.01700 1037.34440    -999.25    -999.25    -999.25  119.18800
 3350.00000  119.48200   16.27600    1.00000    1.95000    0.93200   59.38100   22.17600    -999.25    -999.25    -999.25    -999.25    -999.25    -999.25    -999.25    1.95000   16.27600  -20.97940  -20.97940    -999.25   59.38100    0.93200    1.00000 1072.96140    -999.25    -999.25    -999.25  119.48200
 3400.00000  109.64500   16.24500    1.39900    2.19200    1.31400   62.86800    0.00000    -999.25    -999.25    -999.25    -999.25    -999.25    -999.25    -999.25    2.19200   16.24500  -20.31210  -20.31210    -999.25   62.86800    1.31400    1.39900  761.03500    -999.25    -999.25    -999.25  109.64500
 3450.00000  106.88900   16.27400    1.43800    2.27600    1.34200   62.98800   14.54500    -999.25    -999.25    -999.25    -999.25    -999.25    -999.25    -999.25    2.27600   16.27400  -22.45180  -22.45180    -999.25   62.98800    1.34200    1.43800  745.15650    -999.25    -999.25    -999.25  106.88900
 3500.00000  116.10200   16.18900    0.96000    1.87700    0.86800   71.35200    0.00000    -999.25    -999.25    -999.25    -999.25    -999.25    -999.25    -999.25    1.87700   16.18900  -16.32240  -16.32240    -999.25   71.35200    0.86800    0.96000 1152.07370    -999.25    -999.25    -999.25  116.10200
 3550.00000  107.59000   16.19800    1.47400    2.26000    1.43200   63.13400    4.93100    -999.25    -999.25    -999.25    -999.25    -999.25    -999.25    -999.25    2.26000   16.19800  -26.48810  -26.48810    -999.25   63.13400    1.43200    1.47400  698.32400    -999.25    -999.25    -999.25  107.59000
 3600.00000  112.12300   16.16300    1.31900    2.20400    1.20600   65.92900    1.74500    -999.25    -999.25    -999.25    -999.25    -999.25    -999.25    -999.25    2.20400   16.16300  -25.09970  -25.09970    -999.25   65.92900    1.20600    1.31900  829.18740    -999.25    -999.25    -999.25  112.12300
 3650.00000  102.05200   16.17900    1.68000    2.50100    1.61400   62.75500    0.00000    -999.25    -999.25    -999.25    -999.25    -999.25    -999.25    -999.25    2.50100   16.17900  -32.43240  -32.43240    -999.25   62.75500    1.61400    1.68000  619.57870    -999.25    -999.25    -999.25  102.05200
 3700.00000  112.85800   16.19600    1.23500    2.22800    1.15200   57.53000    0.00000    -999.25    -999.25    -999.25    -999.25    -999.25    -999.25    -999.25    2.22800   16.19600  -26.81800  -26.81800    -999.25   57.53000    1.15200    1.23500  868.05560    -999.25    -999.25    -999.25  112.85800
 3750.00000  107.01400    -999.25    1.56400    2.36400    1.48700   71.40400    0.00000    -999.25    -999.25    -999.25    -999.25    -999.25    -999.25    -999.25    2.36400    -999.25  -24.58770  -24.58770    -999.25   71.40400    1.48700    1.56400  672.49490    -999.25    -999.25    -999.25  107.01400
 3800.00000   80.97700   16.23700    4.09100    4.23300    3.96100   38.93500  163.96900    -999.25    -999.25    -999.25    -999.25    -999.25    -999.25    -999.25    4.23300   16.23700  -43.26730  -43.26730    -999.25   38.93500    3.96100    4.09100  252.46150    -999.25    -999.25    -999.25   80.97700
 3850.00000   99.12200   16.22800    1.85400    2.71800    1.74800   51.92000    0.00000    -999.25    -999.25    -999.25    -999.25    -999.25    -999.25    -999.25    2.71800   16.22800  -26.44200  -26.44200    -999.25   51.92000    1.74800    1.85400  572.08240    -999.25    -999.25    -999.25   99.12200
 3900.00000  105.74700   16.21500    1.44300    2.34400    1.33400   58.86200    0.00000    -999.25    -999.25    -999.25    -999.25    -999.25    -999.25    -999.25    2.34400   16.21500  -29.73370  -29.73370    -999.25   58.86200    1.33400    1.44300  749.62520    -999.25    -999.25    -999.25  105.74700
 3950.00000  102.20400   16.20100    1.43800    2.35900    1.36000   58.12800   26.28300    -999.25    -999.25    -999.25    -999.25    -999.25    -999.25    -999.25    2.35900   16.20100  -31.71030  -31.71030    -999.25   58.12800    1.36000    1.43800  735.29410    -999.25    -999.25    -999.25  102.20400
 4000.00000  106.21200   16.21700    1.42500    2.30300    1.29100   58.03000   20.94600    -999.25    -999.25    -999.25    -999.25    -999.25    -999.25    -999.25    2.30300   16.21700  -27.43800  -27.43800    -999.25   58.03000    1.29100    1.42500  774.59330    -999.25    -999.25    -999.25  106.21200
 4050.00000  108.31100   16.20700    1.29500    2.27900    1.19100   57.16000   14.79300    -999.25    -999.25    -999.25    -999.25    -999.25    -999.25    -999.25    2.27900   16.20700  -35.42160  -35.42160    -999.25   57.16000    1.19100    1.29500  839.63060    -999.25    -999.25    -999.25  108.31100
 4100.00000  109.21800   16.22700    1.21800    2.18700    1.14400   57.52900    3.63600    -999.25    -999.25    -999.25    -999.25    -999.25    -999.25    -999.25    2.18700   16.22700  -32.67230  -32.67230    -999.25   57.52900    1.14400    1.21800  874.12590    -999.25    -999.25    -999.25  109.21800
 4150.00000  109.43200   16.13300    1.19800    2.17800    1.10100   56.67500    0.00000    -999.25    -999.25    -999.25    -999.25    -999.25    -999.25    -999.25    2.17800   16.13300  -28.03990  -28.03990    -999.25   56.67500    1.10100    1.19800  908.26530    -999.25    -999.25    -999.25  109.43200
