~Version ---------------------------------------------------
VERS. 2.0 : CWLS log ASCII Standard -VERSION 2.0
WRAP.  NO : ONE LINE PER DEPTH STEP
~Well ------------------------------------------------------
STRT.F                   300.0 : START DEPTH
STOP.F                 13400.0 : STOP DEPTH
STEP.F                50.00000 : STEP LENGTH
NULL.                  -999.25 : NULL VALUE
COMP.     SUNDANCE OIL COMPANY : COMPANY
WELL.           J.A. WILLIS #1 : WELL
FLD .               FARRAR, SE : FIELD
LOC .                          : LOCATION
CNTY.                LIMESTONE : COUNTY
STAT.                    TEXAS : STATE
CTRY. UNITED STATES OF AMERICA : COUNTRY
SRVC.             Schlumberger : SERVICE COMPANY
DATE.              09-Dec-1978 : LOGDATE
API .           42293304160000 : API NUMBER
UWI .           42293304160000 : UNIQUE WELL ID
SLAT.WGS84       31.3529369313 : SURFACE LATITUDE
SLON.WGS84      -96.3516884125 : SURFACE LONGITUDE
~Curve Information -----------------------------------------
DEPT   .F                 : 
ILD    .OHMM 07 120 46 00 : INDUCTION DEEP RESISTIVITY
ILM    .OHMM 07 120 44 00 : INDUCTION MEDIUM RESISTIVITY
GRR    .GAPI 07 310 01 00 : GAMMA RAY FROM RESISTIVITY LOG
SPR    .MV   07 010 01 00 : SPONTANEOUS POTENTIAL FROM RESISTIVITY LOG
SFL    .OHMM 07 220 01 00 : SPHERICALLY FOCUSED LOG
CALD   .IN   45 280 60 00 : CALIPER FROM DENSITY LOG
DPHI_LS.DEC  45 890 10 00 : DENSITY POROSITY LIMESTONE
DRHO   .G/C3 45 356 01 00 : BULK DENSITY CORRECTION
GRD    .GAPI 45 310 01 00 : GAMMA RAY FROM DENSITY LOG
RHOB   .G/C3 45 350 01 00 : BULK DENSITY
CNL_LS .DEC  42 890 01 00 : COMPENSATED NEUTRON POROSITY (LIMESTONE)
DPHI_SS.DEC  45 890 12 00 : DENSITY POROSITY SANDSTONE
CNL_SS .DEC  42 890 03 00 : COMPENSATED NEUTRON POROSITY (SANDSTONE)
~Params ----------------------------------------------------
PD  .                     GL : PERMANENT DATUM
EPD .FT                394.3 : ELEVATION PERMANENT DATUM
LMF .                     KB : LOG MEASURED FROM
DAPD.FT                   17 : FEET ABOVE PERMANENT DATUM
DMF .                     KB : DRILLING MEASURED FROM
EKB .FT                  411 : KELLY BUSHING
EGL .FT                394.3 : GROUND LEVEL
DATE.               12/09/78 : RUN DATE
RUN .                      3 : RUN NUMBER
DD  .FT                13635 : DEPTH DRILLER
DL  .FT                13421 : DEPTH LOGGER
BLI .FT                13415 : BOTTOM LOG INTERVAL
TLI .FT                12749 : TOP LOG INTERVAL
CS  .IN                   7" : CASING SIZE
CBD .FT                12770 : CASING BOTTOM DRILLER
CBL .FT                12749 : CASING BOTTOM LOGGER
BS  .IN                   6" : BIT SIZE
BSD .FT                13635 : BIT SIZE AT DEPTH
DFT .               OIL BASE : DRILLING FLUID TYPE
DFD .                   12.5 : DRILLING FLUID DENSITY
DFV .                    130 : DRILLING FLUID VISCOSITY
DFL .                    8.5 : DRILLING FLUID LOSS
MSS .                    PIT : MUD SAMPLE SOURCE
TCS .HRS                2000 : TIME CIRCULATED STOPPED
TLAB.HRS                1300 : TIME LOGGER AT BOTTOM
LUN .                   7708 : LOGGING UNIT NUMBER
LUL .                  TYLER : LOGGING UNIT LOCATION
ENGI.                COLLINS : RECORDING ENGINEER
CLNT.                A2DTECH : CLIENT CODE
ORIG.            1" 5" PRINT : ORIGIN OF DATA
UWI .         42293304160000 : UNIQUE WELL ID
DICO. A2D Technologies, Inc. : DIGITIZING COMPANY
~Other -----------------------------------------------------
~ASCII -----------------------------------------------------
# ...
 10700.00000   12.21470   13.89580    -999.25 -103.69820   25.66560    8.63770    -999.25    0.05090   19.87950    2.63230    -999.25    0.01360    0.03800
 10750.00000   10.62810    6.90700    -999.25  -69.78080    8.04680    9.59270    -999.25    0.00700   42.24400    2.58000    -999.25    0.03310    0.18010
 10800.00000    8.18330   15.02580    -999.25  -61.31660   21.41770    9.50300    -999.25    0.00600   57.37950    2.65770    -999.25   -0.00280    0.13900
 10850.00000   39.78420   35.38330    -999.25 -106.28700   65.22030    8.66470    -999.25    0.03220   24.84840    2.61060    -999.25    0.03310    0.03970
 10900.00000   10.76210   11.66850    -999.25  -65.68050   11.52650    8.81440    -999.25    0.01430   39.76120    2.49780    -999.25    0.09340    0.11270
 10950.00000   11.79850   13.37880    -999.25 -121.04290   22.46340    8.91410    -999.25    0.00300   19.72840    2.50570    -999.25    0.07840    0.08070
 11000.00000   21.93830   31.19440    -999.25 -113.53640   71.78060    8.48510    -999.25    0.00670   25.75300    2.60390    -999.25    0.02550    0.03890
 11050.00000   34.43770   31.62410    -999.25  -76.66300   55.80030    8.72460    -999.25    0.03750   24.84920    2.58970    -999.25    0.05600    0.05560
 11100.00000   13.68220   17.67900    -999.25  -83.65530   14.50650    8.39670    -999.25    0.02680   18.97850    2.60840    -999.25    0.00940    0.03550
 11150.00000   20.98510   23.98360    -999.25 -115.71670   59.14380    8.41030    -999.25    0.02480   14.68630    2.55010    -999.25    0.06220    0.04790
 11200.00000   24.31490   21.51860    -999.25  -78.32840   27.58550    8.59450    -999.25    0.04280   22.14040    2.62430    -999.25    0.01030    0.03620
 11250.00000   19.52620   19.15240    -999.25  -99.29680   31.34240    8.42520    -999.25    0.04500   24.17350    2.60260    -999.25    0.02780    0.03800
 11300.00000   21.54530   17.20100    -999.25  -57.35930   22.31560    8.93430    -999.25    0.01730   44.28010    2.64920    -999.25    0.00220    0.06950
 11350.00000   13.58410   14.02990    -999.25  -62.64770   12.90980    8.96430    -999.25    0.01500   47.44270    2.60540    -999.25   -0.00310    0.11670
 11400.00000    8.41710    9.74660    -999.25  -42.60350   10.34590   10.49100    -999.25   -0.02480   71.98810    2.53360    -999.25    0.06670    0.25450
 11450.00000   92.06530   97.89540    -999.25  -80.78800  153.91580    8.42510    -999.25    0.02480   22.81880    2.57550    -999.25    0.04120    0.03610
 11500.00000  117.75570  141.15780    -999.25  -75.77720  122.28690    8.39880    -999.25    0.00670   20.78310    2.55160    -999.25    0.04880    0.03680
 11550.00000    3.34290    4.16310    -999.25  -49.92750    4.10820   10.88040    -999.25    0.04280   68.67620    2.28180    -999.25    0.18420    0.37670
 11600.00000   59.54620   80.38900    -999.25  -93.86090  109.15310    8.36610    -999.25    0.00830   24.54940    2.55160    -999.25    0.08640    0.05600
 11650.00000    7.81200   10.64440    -999.25  -52.86610    7.37970    9.24840    -999.25    0.10740   55.57410    2.38710    -999.25    0.22070    0.24130
 11700.00000   48.99560   49.03740    -999.25  -96.70850   77.79540    8.16160    -999.25    0.02480   16.26730    2.59040    -999.25    0.05150    0.03960
 11750.00000   35.21540   41.27500    -999.25  -76.68270   35.84080    8.33520    -999.25    0.03000   34.78920    2.61730    -999.25    0.00000    0.04560
 11800.00000   38.99360   37.41090    -999.25  -94.74850   31.81430    8.36530    -999.25    0.00230   21.38490    2.55010    -999.25    0.05960    0.04700
 11850.00000   48.94990   53.01400    -999.25  -99.72260   63.54670    8.81440    -999.25    0.02030   17.16870    2.57900    -999.25    0.04030    0.04790
 11900.00000   72.71940   71.79350    -999.25  -77.10800  100.20470    9.71260    -999.25    0.10890   21.68790    2.50900    -999.25    0.07120    0.04340
 11950.00000   92.72590  108.49440    -999.25  -94.50820  858.65630    8.88930    -999.25    0.04130   23.94430    2.56950    -999.25    0.08420    0.07040
 12000.00000    5.90260    6.63640    -999.25  -45.48780   10.78990   11.06000    -999.25    0.01880   48.34340    2.31530    -999.25    0.27030    0.13250
 12050.00000   39.44720   27.22200    -999.25  -58.85970   60.61430   12.01790    -999.25    0.00600   62.95160    2.09420    -999.25    0.34030    0.39390
 12100.00000   25.94450   27.02450    -999.25  -96.19080   34.16250    8.69460    -999.25    0.02480   15.36140    2.59190    -999.25    0.02550    0.03440
 12150.00000    9.07680    4.25750    -999.25  -48.09540    6.03960   11.95810    -999.25    0.04210   62.11770    2.11730    -999.25    0.35960    0.36230
 12200.00000   57.09190   51.14520    -999.25  -81.50900   60.08620    8.75430    -999.25    0.01180   22.14190    2.55110    -999.25    0.06130    0.04110
 12250.00000    6.71330    4.91460    -999.25  -57.58230    8.74230    9.62280    -999.25    0.08410   52.63720    2.32740    -999.25    0.20730    0.15090
 12300.00000   57.80690   69.00590    -999.25  -68.04730   73.65560    8.93400    -999.25    0.02630   28.01200    2.71150    -999.25   -0.03240    0.06360
 12350.00000   44.61760   26.21980    -999.25  -83.85690  103.92290    9.17380    -999.25    0.02550   23.19270    2.49550    -999.25    0.07930    0.05560
 12400.00000   10.03860    9.94350    -999.25  -35.28110   12.56810    9.96570    -999.25    0.03730   65.96750    2.63680    -999.25   -0.01030    0.18880
 12450.00000   32.35900   31.06330    -999.25  -70.17380   49.59620   11.59880    -999.25    0.10290   35.91960    2.48060    -999.25    0.07970    0.06390
 12500.00000   30.28910   30.77690    -999.25  -49.59320   47.46800    9.08760    -999.25    0.03980   30.72550    2.53660    -999.25    0.03540    0.05330
 12550.00000   13.72340   13.31820    -999.25  -58.30250   30.67420    9.60790    -999.25    0.03450   44.50560    2.64650    -999.25    0.00810    0.08340
 12600.00000    5.11350    5.54510    -999.25  -32.84020    6.07760   10.15240    -999.25    0.03530   79.06370    2.66860    -999.25    0.00760    0.19000
 12650.00000    8.09960    8.24440    -999.25  -31.50910    9.99640    9.53290    -999.25    0.04350   82.90660    2.65470    -999.25    0.00130    0.26150
 12700.00000    5.86740    7.15490    -999.25  -32.02660    7.66680    9.44300    -999.25    0.01580   79.06630    2.67120    -999.25   -0.01300    0.25340
 12750.00000    6.45510    8.85520   83.99090  -31.39790    -999.25    8.60480    -999.25    0.03530    -999.25    2.64280    -999.25   -0.00310    0.22660
 12800.00000    8.47710    9.16270   76.53510    -999.25    -999.25    -999.25    -999.25    -999.25    -999.25    -999.25    -999.25    -999.25    -999.25
 12850.00000    6.11680    6.47180  103.50880    -999.25    -999.25    -999.25    -999.25    -999.25    -999.25    -999.25    -999.25    -999.25    -999.25
 12900.00000    7.16070    7.62220  109.21050    -999.25    -999.25    -999.25    -999.25    -999.25    -999.25    -999.25    -999.25    -999.25    -999.25
 12950.00000   14.17480   13.94070  105.64110    -999.25    -999.25    -999.25    -999.25    -999.25    -999.25    -999.25    -999.25    -999.25    -999.25
 13000.00000    8.29650    7.63570  108.54670    -999.25    -999.25    -999.25    -999.25    -999.25    -999.25    -999.25    -999.25    -999.25    -999.25
 13050.00000    6.98020    6.65080  111.40350    -999.25    -999.25    -999.25    -999.25    -999.25    -999.25    -999.25    -999.25    -999.25    -999.25
 13100.00000   15.03470   14.76640   93.20100    -999.25    -999.25    -999.25    -999.25    -999.25    -999.25    -999.25    -999.25    -999.25    -999.25
 13150.00000    7.29730    6.74200  116.69070    -999.25    -999.25    -999.25    -999.25    -999.25    -999.25    -999.25    -999.25    -999.25    -999.25
 13200.00000   14.63970   12.28390  112.06110    -999.25    -999.25    -999.25    -999.25    -999.25    -999.25    -999.25    -999.25    -999.25    -999.25
 13250.00000   11.13250   11.78850  115.57090    -999.25    -999.25    -999.25    -999.25    -999.25    -999.25    -999.25    -999.25    -999.25    -999.25
